# Time,X,Y,Z,Roll,Pitch,Yaw,Vx,Vy,Vz,Ax,Ay,Az,Wx,Wy,Wz,Throttle,Steer,Brake
0.000000000000000000e+00,2.583761453628540039e+00,-1.757933044433593750e+01,-1.757933044433593750e+01,1.274581551551818848e-01,-8.961767578125000000e+01,2.027717300734366290e-06,3.812431171536445618e-02,-5.713527679443359375e+00,2.046295594482216984e-05,-8.469882421195507050e-03,1.268999338150024414e+00,-1.633790379855781794e-04,1.096060514450073242e+00,7.324417121708393097e-03,-2.862619476218242198e-05,5.000000000000000000e-01,-2.543131643051310675e-07,0.000000000000000000e+00
1.045818328857421875e-01,2.583761453628540039e+00,-1.757933044433593750e+01,-1.757933044433593750e+01,1.274581551551818848e-01,-8.961767578125000000e+01,2.027717300734366290e-06,3.812431171536445618e-02,-5.713527679443359375e+00,2.046295594482216984e-05,-8.469882421195507050e-03,1.268999338150024414e+00,-1.633790379855781794e-04,1.096060514450073242e+00,7.324417121708393097e-03,-2.862619476218242198e-05,5.000000000000000000e-01,-2.543131643051310675e-07,0.000000000000000000e+00
1.045818328857421875e-01,2.583761453628540039e+00,-1.757933044433593750e+01,-1.757933044433593750e+01,1.274581551551818848e-01,-8.961767578125000000e+01,2.027717300734366290e-06,3.812431171536445618e-02,-5.713527679443359375e+00,2.046295594482216984e-05,-8.469882421195507050e-03,1.268999338150024414e+00,-1.633790379855781794e-04,1.096060514450073242e+00,7.324417121708393097e-03,-2.862619476218242198e-05,5.000000000000000000e-01,-2.543131643051310675e-07,0.000000000000000000e+00
1.045818328857421875e-01,2.583761453628540039e+00,-1.757933044433593750e+01,-1.757933044433593750e+01,1.274581551551818848e-01,-8.961767578125000000e+01,2.027717300734366290e-06,3.812431171536445618e-02,-5.713527679443359375e+00,2.046295594482216984e-05,-8.469882421195507050e-03,1.268999338150024414e+00,-1.633790379855781794e-04,1.096060514450073242e+00,7.324417121708393097e-03,-2.862619476218242198e-05,5.000000000000000000e-01,-2.543131643051310675e-07,0.000000000000000000e+00
1.045818328857421875e-01,2.583761453628540039e+00,-1.757933044433593750e+01,-1.757933044433593750e+01,1.274581551551818848e-01,-8.961767578125000000e+01,2.027717300734366290e-06,3.812431171536445618e-02,-5.713527679443359375e+00,2.046295594482216984e-05,-8.469882421195507050e-03,1.268999338150024414e+00,-1.633790379855781794e-04,1.096060514450073242e+00,7.324417121708393097e-03,-2.862619476218242198e-05,5.000000000000000000e-01,-2.543131643051310675e-07,0.000000000000000000e+00
1.045818328857421875e-01,2.583761453628540039e+00,-1.757933044433593750e+01,-1.757933044433593750e+01,1.274581551551818848e-01,-8.961767578125000000e+01,2.027717300734366290e-06,3.812431171536445618e-02,-5.713527679443359375e+00,2.046295594482216984e-05,-8.469882421195507050e-03,1.268999338150024414e+00,-1.633790379855781794e-04,1.096060514450073242e+00,7.324417121708393097e-03,-2.862619476218242198e-05,5.000000000000000000e-01,-2.543131643051310675e-07,0.000000000000000000e+00
1.045818328857421875e-01,2.587460517883300781e+00,-1.813373374938964844e+01,-1.813373374938964844e+01,2.593491077423095703e-01,-8.961770629882812500e+01,3.335087228606425924e-07,3.777987137436866760e-02,-5.662018775939941406e+00,-2.427650179015472531e-05,-3.289503511041402817e-03,4.919247329235076904e-01,-4.272745572961866856e-04,2.114082574844360352e+00,1.409380789846181870e-02,-7.978601206559687853e-05,5.000000000000000000e-01,-5.086263286102621350e-07,0.000000000000000000e+00
2.092907428741455078e-01,2.587460517883300781e+00,-1.813373374938964844e+01,-1.813373374938964844e+01,2.593491077423095703e-01,-8.961770629882812500e+01,3.335087228606425924e-07,3.777987137436866760e-02,-5.662018775939941406e+00,-2.427650179015472531e-05,-3.289503511041402817e-03,4.919247329235076904e-01,-4.272745572961866856e-04,2.114082574844360352e+00,1.409380789846181870e-02,-7.978601206559687853e-05,5.000000000000000000e-01,-5.086263286102621350e-07,0.000000000000000000e+00
2.092907428741455078e-01,2.587460517883300781e+00,-1.813373374938964844e+01,-1.813373374938964844e+01,2.593491077423095703e-01,-8.961770629882812500e+01,3.335087228606425924e-07,3.777987137436866760e-02,-5.662018775939941406e+00,-2.427650179015472531e-05,-3.289503511041402817e-03,4.919247329235076904e-01,-4.272745572961866856e-04,2.114082574844360352e+00,1.409380789846181870e-02,-7.978601206559687853e-05,5.000000000000000000e-01,-5.086263286102621350e-07,0.000000000000000000e+00
2.092907428741455078e-01,2.587460517883300781e+00,-1.813373374938964844e+01,-1.813373374938964844e+01,2.593491077423095703e-01,-8.961770629882812500e+01,3.335087228606425924e-07,3.777987137436866760e-02,-5.662018775939941406e+00,-2.427650179015472531e-05,-3.289503511041402817e-03,4.919247329235076904e-01,-4.272745572961866856e-04,2.114082574844360352e+00,1.409380789846181870e-02,-7.978601206559687853e-05,5.000000000000000000e-01,-5.086263286102621350e-07,0.000000000000000000e+00
2.092907428741455078e-01,2.587460517883300781e+00,-1.813373374938964844e+01,-1.813373374938964844e+01,2.593491077423095703e-01,-8.961770629882812500e+01,3.335087228606425924e-07,3.777987137436866760e-02,-5.662018775939941406e+00,-2.427650179015472531e-05,-3.289503511041402817e-03,4.919247329235076904e-01,-4.272745572961866856e-04,2.114082574844360352e+00,1.409380789846181870e-02,-7.978601206559687853e-05,5.000000000000000000e-01,-5.086263286102621350e-07,0.000000000000000000e+00
2.092907428741455078e-01,2.591085672378540039e+00,-1.867701530456542969e+01,-1.867701530456542969e+01,3.873878121376037598e-01,-8.961766815185546875e+01,1.467456769432828878e-07,3.705643489956855774e-02,-5.553525447845458984e+00,-6.434321403503417969e-05,-9.695125743746757507e-03,1.453972101211547852e+00,-5.369535647332668304e-04,2.375020503997802734e+00,1.585620641708374023e-02,1.033364387694746256e-04,5.000000000000000000e-01,7.629394644936837722e-07,0.000000000000000000e+00
2.839093208312988281e-01,2.591085672378540039e+00,-1.867701530456542969e+01,-1.867701530456542969e+01,3.873878121376037598e-01,-8.961766815185546875e+01,1.467456769432828878e-07,3.705643489956855774e-02,-5.553525447845458984e+00,-6.434321403503417969e-05,-9.695125743746757507e-03,1.453972101211547852e+00,-5.369535647332668304e-04,2.375020503997802734e+00,1.585620641708374023e-02,1.033364387694746256e-04,5.000000000000000000e-01,7.629394644936837722e-07,0.000000000000000000e+00
2.839093208312988281e-01,2.591085672378540039e+00,-1.867701530456542969e+01,-1.867701530456542969e+01,3.873878121376037598e-01,-8.961766815185546875e+01,1.467456769432828878e-07,3.705643489956855774e-02,-5.553525447845458984e+00,-6.434321403503417969e-05,-9.695125743746757507e-03,1.453972101211547852e+00,-5.369535647332668304e-04,2.375020503997802734e+00,1.585620641708374023e-02,1.033364387694746256e-04,5.000000000000000000e-01,7.629394644936837722e-07,0.000000000000000000e+00
2.839093208312988281e-01,2.591085672378540039e+00,-1.867701530456542969e+01,-1.867701530456542969e+01,3.873878121376037598e-01,-8.961766815185546875e+01,1.467456769432828878e-07,3.705643489956855774e-02,-5.553525447845458984e+00,-6.434321403503417969e-05,-9.695125743746757507e-03,1.453972101211547852e+00,-5.369535647332668304e-04,2.375020503997802734e+00,1.585620641708374023e-02,1.033364387694746256e-04,5.000000000000000000e-01,7.629394644936837722e-07,0.000000000000000000e+00
2.839093208312988281e-01,2.591085672378540039e+00,-1.867701530456542969e+01,-1.867701530456542969e+01,3.873878121376037598e-01,-8.961766815185546875e+01,1.467456769432828878e-07,3.705643489956855774e-02,-5.553525447845458984e+00,-6.434321403503417969e-05,-9.695125743746757507e-03,1.453972101211547852e+00,-5.369535647332668304e-04,2.375020503997802734e+00,1.585620641708374023e-02,1.033364387694746256e-04,5.000000000000000000e-01,7.629394644936837722e-07,0.000000000000000000e+00
3.569011688232421875e-01,2.593732357025146484e+00,-1.907368278503417969e+01,-1.907368278503417969e+01,5.035761594772338867e-01,-8.961769866943359375e+01,1.093939658858289476e-06,3.450135514140129089e-02,-5.170609474182128906e+00,-4.462529250304214656e-05,-3.500500321388244629e-02,5.246010303497314453e+00,2.701386692933738232e-04,-3.582834005355834961e+00,-2.389859035611152649e-02,-3.439647480263374746e-05,1.000000000000000000e+00,-2.543131643051310675e-07,0.000000000000000000e+00
3.569011688232421875e-01,2.593732357025146484e+00,-1.907368278503417969e+01,-1.907368278503417969e+01,5.035761594772338867e-01,-8.961769866943359375e+01,1.093939658858289476e-06,3.450135514140129089e-02,-5.170609474182128906e+00,-4.462529250304214656e-05,-3.500500321388244629e-02,5.246010303497314453e+00,2.701386692933738232e-04,-3.582834005355834961e+00,-2.389859035611152649e-02,-3.439647480263374746e-05,1.000000000000000000e+00,-2.543131643051310675e-07,0.000000000000000000e+00
3.569011688232421875e-01,2.593732357025146484e+00,-1.907368278503417969e+01,-1.907368278503417969e+01,5.035761594772338867e-01,-8.961769866943359375e+01,1.093939658858289476e-06,3.450135514140129089e-02,-5.170609474182128906e+00,-4.462529250304214656e-05,-3.500500321388244629e-02,5.246010303497314453e+00,2.701386692933738232e-04,-3.582834005355834961e+00,-2.389859035611152649e-02,-3.439647480263374746e-05,1.000000000000000000e+00,-2.543131643051310675e-07,0.000000000000000000e+00
3.569011688232421875e-01,2.593732357025146484e+00,-1.907368278503417969e+01,-1.907368278503417969e+01,5.035761594772338867e-01,-8.961769866943359375e+01,1.093939658858289476e-06,3.450135514140129089e-02,-5.170609474182128906e+00,-4.462529250304214656e-05,-3.500500321388244629e-02,5.246010303497314453e+00,2.701386692933738232e-04,-3.582834005355834961e+00,-2.389859035611152649e-02,-3.439647480263374746e-05,1.000000000000000000e+00,-2.543131643051310675e-07,0.000000000000000000e+00
4.765405654907226562e-01,2.596338510513305664e+00,-1.946425437927246094e+01,-1.946425437927246094e+01,4.373301565647125244e-01,-8.961767578125000000e+01,2.081133743558893912e-06,3.659027814865112305e-02,-5.483628273010253906e+00,-4.692346192314289510e-05,1.746015995740890503e-02,-2.616352319717407227e+00,-1.920913564390502870e-05,3.763970136642456055e+00,2.513415738940238953e-02,9.800231782719492912e-05,1.000000000000000000e+00,5.086263286102621350e-07,0.000000000000000000e+00
4.765405654907226562e-01,2.596338510513305664e+00,-1.946425437927246094e+01,-1.946425437927246094e+01,4.373301565647125244e-01,-8.961767578125000000e+01,2.081133743558893912e-06,3.659027814865112305e-02,-5.483628273010253906e+00,-4.692346192314289510e-05,1.746015995740890503e-02,-2.616352319717407227e+00,-1.920913564390502870e-05,3.763970136642456055e+00,2.513415738940238953e-02,9.800231782719492912e-05,1.000000000000000000e+00,5.086263286102621350e-07,0.000000000000000000e+00
4.765405654907226562e-01,2.596338510513305664e+00,-1.946425437927246094e+01,-1.946425437927246094e+01,4.373301565647125244e-01,-8.961767578125000000e+01,2.081133743558893912e-06,3.659027814865112305e-02,-5.483628273010253906e+00,-4.692346192314289510e-05,1.746015995740890503e-02,-2.616352319717407227e+00,-1.920913564390502870e-05,3.763970136642456055e+00,2.513415738940238953e-02,9.800231782719492912e-05,1.000000000000000000e+00,5.086263286102621350e-07,0.000000000000000000e+00
4.765405654907226562e-01,2.596338510513305664e+00,-1.946425437927246094e+01,-1.946425437927246094e+01,4.373301565647125244e-01,-8.961767578125000000e+01,2.081133743558893912e-06,3.659027814865112305e-02,-5.483628273010253906e+00,-4.692346192314289510e-05,1.746015995740890503e-02,-2.616352319717407227e+00,-1.920913564390502870e-05,3.763970136642456055e+00,2.513415738940238953e-02,9.800231782719492912e-05,1.000000000000000000e+00,5.086263286102621350e-07,0.000000000000000000e+00
4.765405654907226562e-01,2.596338510513305664e+00,-1.946425437927246094e+01,-1.946425437927246094e+01,4.373301565647125244e-01,-8.961767578125000000e+01,2.081133743558893912e-06,3.659027814865112305e-02,-5.483628273010253906e+00,-4.692346192314289510e-05,1.746015995740890503e-02,-2.616352319717407227e+00,-1.920913564390502870e-05,3.763970136642456055e+00,2.513415738940238953e-02,9.800231782719492912e-05,1.000000000000000000e+00,5.086263286102621350e-07,0.000000000000000000e+00
4.765405654907226562e-01,2.596338510513305664e+00,-1.946425437927246094e+01,-1.946425437927246094e+01,4.373301565647125244e-01,-8.961767578125000000e+01,2.081133743558893912e-06,3.659027814865112305e-02,-5.483628273010253906e+00,-4.692346192314289510e-05,1.746015995740890503e-02,-2.616352319717407227e+00,-1.920913564390502870e-05,3.763970136642456055e+00,2.513415738940238953e-02,9.800231782719492912e-05,1.000000000000000000e+00,5.086263286102621350e-07,0.000000000000000000e+00
4.765405654907226562e-01,2.596338510513305664e+00,-1.946425437927246094e+01,-1.946425437927246094e+01,4.373301565647125244e-01,-8.961767578125000000e+01,2.081133743558893912e-06,3.659027814865112305e-02,-5.483628273010253906e+00,-4.692346192314289510e-05,1.746015995740890503e-02,-2.616352319717407227e+00,-1.920913564390502870e-05,3.763970136642456055e+00,2.513415738940238953e-02,9.800231782719492912e-05,1.000000000000000000e+00,5.086263286102621350e-07,0.000000000000000000e+00
6.200885772705078125e-01,2.599969148635864258e+00,-2.000838661193847656e+01,-2.000838661193847656e+01,1.796407997608184814e-01,-8.961767578125000000e+01,2.074413259833818302e-06,3.801391646265983582e-02,-5.696869373321533203e+00,4.197374801151454449e-05,9.917506948113441467e-03,-1.485503673553466797e+00,6.192855653353035450e-04,6.426926136016845703e+00,4.290870204567909241e-02,6.418558768928050995e-05,1.000000000000000000e+00,0.000000000000000000e+00,0.000000000000000000e+00
6.200885772705078125e-01,2.599969148635864258e+00,-2.000838661193847656e+01,-2.000838661193847656e+01,1.796407997608184814e-01,-8.961767578125000000e+01,2.074413259833818302e-06,3.801391646265983582e-02,-5.696869373321533203e+00,4.197374801151454449e-05,9.917506948113441467e-03,-1.485503673553466797e+00,6.192855653353035450e-04,6.426926136016845703e+00,4.290870204567909241e-02,6.418558768928050995e-05,1.000000000000000000e+00,0.000000000000000000e+00,0.000000000000000000e+00
6.200885772705078125e-01,2.599969148635864258e+00,-2.000838661193847656e+01,-2.000838661193847656e+01,1.796407997608184814e-01,-8.961767578125000000e+01,2.074413259833818302e-06,3.801391646265983582e-02,-5.696869373321533203e+00,4.197374801151454449e-05,9.917506948113441467e-03,-1.485503673553466797e+00,6.192855653353035450e-04,6.426926136016845703e+00,4.290870204567909241e-02,6.418558768928050995e-05,1.000000000000000000e+00,0.000000000000000000e+00,0.000000000000000000e+00
6.200885772705078125e-01,2.599969148635864258e+00,-2.000838661193847656e+01,-2.000838661193847656e+01,1.796407997608184814e-01,-8.961767578125000000e+01,2.074413259833818302e-06,3.801391646265983582e-02,-5.696869373321533203e+00,4.197374801151454449e-05,9.917506948113441467e-03,-1.485503673553466797e+00,6.192855653353035450e-04,6.426926136016845703e+00,4.290870204567909241e-02,6.418558768928050995e-05,1.000000000000000000e+00,0.000000000000000000e+00,0.000000000000000000e+00
6.200885772705078125e-01,2.599969148635864258e+00,-2.000838661193847656e+01,-2.000838661193847656e+01,1.796407997608184814e-01,-8.961767578125000000e+01,2.074413259833818302e-06,3.801391646265983582e-02,-5.696869373321533203e+00,4.197374801151454449e-05,9.917506948113441467e-03,-1.485503673553466797e+00,6.192855653353035450e-04,6.426926136016845703e+00,4.290870204567909241e-02,6.418558768928050995e-05,1.000000000000000000e+00,0.000000000000000000e+00,0.000000000000000000e+00
6.200885772705078125e-01,2.599969148635864258e+00,-2.000838661193847656e+01,-2.000838661193847656e+01,1.796407997608184814e-01,-8.961767578125000000e+01,2.074413259833818302e-06,3.801391646265983582e-02,-5.696869373321533203e+00,4.197374801151454449e-05,9.917506948113441467e-03,-1.485503673553466797e+00,6.192855653353035450e-04,6.426926136016845703e+00,4.290870204567909241e-02,6.418558768928050995e-05,1.000000000000000000e+00,0.000000000000000000e+00,0.000000000000000000e+00
7.946169376373291016e-01,2.603727102279663086e+00,-2.057157516479492188e+01,-2.057157516479492188e+01,-1.097406446933746338e-01,-8.961766815185546875e+01,6.736819386787828989e-07,3.901426121592521667e-02,-5.846861839294433594e+00,4.697016629506833851e-05,5.731703247874975204e-03,-8.594160079956054688e-01,2.862811561499256641e-05,5.230779170989990234e+00,3.488057106733322144e-02,-2.739479714364279062e-05,5.000000000000000000e-01,-2.543131643051310675e-07,0.000000000000000000e+00
7.946169376373291016e-01,2.603727102279663086e+00,-2.057157516479492188e+01,-2.057157516479492188e+01,-1.097406446933746338e-01,-8.961766815185546875e+01,6.736819386787828989e-07,3.901426121592521667e-02,-5.846861839294433594e+00,4.697016629506833851e-05,5.731703247874975204e-03,-8.594160079956054688e-01,2.862811561499256641e-05,5.230779170989990234e+00,3.488057106733322144e-02,-2.739479714364279062e-05,5.000000000000000000e-01,-2.543131643051310675e-07,0.000000000000000000e+00
7.946169376373291016e-01,2.603727102279663086e+00,-2.057157516479492188e+01,-2.057157516479492188e+01,-1.097406446933746338e-01,-8.961766815185546875e+01,6.736819386787828989e-07,3.901426121592521667e-02,-5.846861839294433594e+00,4.697016629506833851e-05,5.731703247874975204e-03,-8.594160079956054688e-01,2.862811561499256641e-05,5.230779170989990234e+00,3.488057106733322144e-02,-2.739479714364279062e-05,5.000000000000000000e-01,-2.543131643051310675e-07,0.000000000000000000e+00
8.783230781555175781e-01,2.607508897781372070e+00,-2.113835906982421875e+01,-2.113835906982421875e+01,-1.400803476572036743e-01,-8.961767578125000000e+01,0.000000000000000000e+00,3.883656486868858337e-02,-5.820208072662353516e+00,4.794275446329265833e-05,-2.122859237715601921e-03,3.184206783771514893e-01,1.161907857749611139e-05,2.832684516906738281e+00,1.892074756324291229e-02,5.881048127776011825e-05,5.000000000000000000e-01,2.543131643051310675e-07,0.000000000000000000e+00
8.783230781555175781e-01,2.607508897781372070e+00,-2.113835906982421875e+01,-2.113835906982421875e+01,-1.400803476572036743e-01,-8.961767578125000000e+01,0.000000000000000000e+00,3.883656486868858337e-02,-5.820208072662353516e+00,4.794275446329265833e-05,-2.122859237715601921e-03,3.184206783771514893e-01,1.161907857749611139e-05,2.832684516906738281e+00,1.892074756324291229e-02,5.881048127776011825e-05,5.000000000000000000e-01,2.543131643051310675e-07,0.000000000000000000e+00
8.783230781555175781e-01,2.607508897781372070e+00,-2.113835906982421875e+01,-2.113835906982421875e+01,-1.400803476572036743e-01,-8.961767578125000000e+01,0.000000000000000000e+00,3.883656486868858337e-02,-5.820208072662353516e+00,4.794275446329265833e-05,-2.122859237715601921e-03,3.184206783771514893e-01,1.161907857749611139e-05,2.832684516906738281e+00,1.892074756324291229e-02,5.881048127776011825e-05,5.000000000000000000e-01,2.543131643051310675e-07,0.000000000000000000e+00
9.483780860900878906e-01,2.610647439956665039e+00,-2.160873413085937500e+01,-2.160873413085937500e+01,-2.709535881876945496e-02,-8.961770629882812500e+01,0.000000000000000000e+00,3.796178102493286133e-02,-5.689135074615478516e+00,4.381522012408822775e-05,-1.248709950596094131e-02,1.871001124382019043e+00,-5.891847831662744284e-05,5.007997155189514160e-01,3.312911605462431908e-03,4.071285729878582060e-06,5.000000000000000000e-01,0.000000000000000000e+00,0.000000000000000000e+00
9.483780860900878906e-01,2.610647439956665039e+00,-2.160873413085937500e+01,-2.160873413085937500e+01,-2.709535881876945496e-02,-8.961770629882812500e+01,0.000000000000000000e+00,3.796178102493286133e-02,-5.689135074615478516e+00,4.381522012408822775e-05,-1.248709950596094131e-02,1.871001124382019043e+00,-5.891847831662744284e-05,5.007997155189514160e-01,3.312911605462431908e-03,4.071285729878582060e-06,5.000000000000000000e-01,0.000000000000000000e+00,0.000000000000000000e+00
9.483780860900878906e-01,2.610647439956665039e+00,-2.160873413085937500e+01,-2.160873413085937500e+01,-2.709535881876945496e-02,-8.961770629882812500e+01,0.000000000000000000e+00,3.796178102493286133e-02,-5.689135074615478516e+00,4.381522012408822775e-05,-1.248709950596094131e-02,1.871001124382019043e+00,-5.891847831662744284e-05,5.007997155189514160e-01,3.312911605462431908e-03,4.071285729878582060e-06,5.000000000000000000e-01,0.000000000000000000e+00,0.000000000000000000e+00
9.483780860900878906e-01,2.610647439956665039e+00,-2.160873413085937500e+01,-2.160873413085937500e+01,-2.709535881876945496e-02,-8.961770629882812500e+01,0.000000000000000000e+00,3.796178102493286133e-02,-5.689135074615478516e+00,4.381522012408822775e-05,-1.248709950596094131e-02,1.871001124382019043e+00,-5.891847831662744284e-05,5.007997155189514160e-01,3.312911605462431908e-03,4.071285729878582060e-06,5.000000000000000000e-01,0.000000000000000000e+00,0.000000000000000000e+00
9.483780860900878906e-01,2.613228797912597656e+00,-2.199553871154785156e+01,-2.199553871154785156e+01,1.380722671747207642e-01,-8.961770629882812500e+01,-6.670126229124662132e-09,3.593292832374572754e-02,-5.385084629058837891e+00,1.930919825099408627e-05,-2.574718557298183441e-02,3.858556509017944336e+00,-3.109940153080970049e-04,-4.257080078125000000e+00,-2.843509055674076080e-02,8.860716479830443859e-05,5.000000000000000000e-01,1.017252657220524270e-06,0.000000000000000000e+00
1.027177095413208008e+00,2.613228797912597656e+00,-2.199553871154785156e+01,-2.199553871154785156e+01,1.380722671747207642e-01,-8.961770629882812500e+01,-6.670126229124662132e-09,3.593292832374572754e-02,-5.385084629058837891e+00,1.930919825099408627e-05,-2.574718557298183441e-02,3.858556509017944336e+00,-3.109940153080970049e-04,-4.257080078125000000e+00,-2.843509055674076080e-02,8.860716479830443859e-05,5.000000000000000000e-01,1.017252657220524270e-06,0.000000000000000000e+00
1.027177095413208008e+00,2.613228797912597656e+00,-2.199553871154785156e+01,-2.199553871154785156e+01,1.380722671747207642e-01,-8.961770629882812500e+01,-6.670126229124662132e-09,3.593292832374572754e-02,-5.385084629058837891e+00,1.930919825099408627e-05,-2.574718557298183441e-02,3.858556509017944336e+00,-3.109940153080970049e-04,-4.257080078125000000e+00,-2.843509055674076080e-02,8.860716479830443859e-05,5.000000000000000000e-01,1.017252657220524270e-06,0.000000000000000000e+00
1.095043420791625977e+00,2.616116046905517578e+00,-2.242828750610351562e+01,-2.242828750610351562e+01,2.329504191875457764e-01,-8.961767578125000000e+01,1.334032351252290027e-08,3.734305500984191895e-02,-5.596322536468505859e+00,-3.723511326825246215e-05,2.077800221741199493e-02,-3.112558364868164062e+00,-8.331718272529542446e-04,1.804757833480834961e+00,1.205134764313697815e-02,1.440128253307193518e-04,1.000000000000000000e+00,1.017252657220524270e-06,0.000000000000000000e+00
1.095043420791625977e+00,2.616116046905517578e+00,-2.242828750610351562e+01,-2.242828750610351562e+01,2.329504191875457764e-01,-8.961767578125000000e+01,1.334032351252290027e-08,3.734305500984191895e-02,-5.596322536468505859e+00,-3.723511326825246215e-05,2.077800221741199493e-02,-3.112558364868164062e+00,-8.331718272529542446e-04,1.804757833480834961e+00,1.205134764313697815e-02,1.440128253307193518e-04,1.000000000000000000e+00,1.017252657220524270e-06,0.000000000000000000e+00
1.095043420791625977e+00,2.616116046905517578e+00,-2.242828750610351562e+01,-2.242828750610351562e+01,2.329504191875457764e-01,-8.961767578125000000e+01,1.334032351252290027e-08,3.734305500984191895e-02,-5.596322536468505859e+00,-3.723511326825246215e-05,2.077800221741199493e-02,-3.112558364868164062e+00,-8.331718272529542446e-04,1.804757833480834961e+00,1.205134764313697815e-02,1.440128253307193518e-04,1.000000000000000000e+00,1.017252657220524270e-06,0.000000000000000000e+00
1.095043420791625977e+00,2.616116046905517578e+00,-2.242828750610351562e+01,-2.242828750610351562e+01,2.329504191875457764e-01,-8.961767578125000000e+01,1.334032351252290027e-08,3.734305500984191895e-02,-5.596322536468505859e+00,-3.723511326825246215e-05,2.077800221741199493e-02,-3.112558364868164062e+00,-8.331718272529542446e-04,1.804757833480834961e+00,1.205134764313697815e-02,1.440128253307193518e-04,1.000000000000000000e+00,1.017252657220524270e-06,0.000000000000000000e+00
1.168572425842285156e+00,2.618576526641845703e+00,-2.279699325561523438e+01,-2.279699325561523438e+01,3.036428689956665039e-01,-8.961767578125000000e+01,0.000000000000000000e+00,3.566148877143859863e-02,-5.344245433807373047e+00,-3.032272616110276431e-05,-2.286942675709724426e-02,3.428267478942871094e+00,9.400898125022649765e-05,-2.392039299011230469e+00,-1.588615402579307556e-02,4.001018169219605625e-05,5.000000000000000000e-01,5.086263286102621350e-07,0.000000000000000000e+00
1.168572425842285156e+00,2.618576526641845703e+00,-2.279699325561523438e+01,-2.279699325561523438e+01,3.036428689956665039e-01,-8.961767578125000000e+01,0.000000000000000000e+00,3.566148877143859863e-02,-5.344245433807373047e+00,-3.032272616110276431e-05,-2.286942675709724426e-02,3.428267478942871094e+00,9.400898125022649765e-05,-2.392039299011230469e+00,-1.588615402579307556e-02,4.001018169219605625e-05,5.000000000000000000e-01,5.086263286102621350e-07,0.000000000000000000e+00
1.168572425842285156e+00,2.618576526641845703e+00,-2.279699325561523438e+01,-2.279699325561523438e+01,3.036428689956665039e-01,-8.961767578125000000e+01,0.000000000000000000e+00,3.566148877143859863e-02,-5.344245433807373047e+00,-3.032272616110276431e-05,-2.286942675709724426e-02,3.428267478942871094e+00,9.400898125022649765e-05,-2.392039299011230469e+00,-1.588615402579307556e-02,4.001018169219605625e-05,5.000000000000000000e-01,5.086263286102621350e-07,0.000000000000000000e+00
1.168572425842285156e+00,2.618576526641845703e+00,-2.279699325561523438e+01,-2.279699325561523438e+01,3.036428689956665039e-01,-8.961767578125000000e+01,0.000000000000000000e+00,3.566148877143859863e-02,-5.344245433807373047e+00,-3.032272616110276431e-05,-2.286942675709724426e-02,3.428267478942871094e+00,9.400898125022649765e-05,-2.392039299011230469e+00,-1.588615402579307556e-02,4.001018169219605625e-05,5.000000000000000000e-01,5.086263286102621350e-07,0.000000000000000000e+00
1.168572425842285156e+00,2.621259689331054688e+00,-2.319906616210937500e+01,-2.319906616210937500e+01,2.707554996013641357e-01,-8.961767578125000000e+01,1.334036170419494738e-08,3.722165897488594055e-02,-5.578058242797851562e+00,-3.904721961589530110e-05,2.078884094953536987e-02,-3.115491628646850586e+00,-1.162514890893362463e-04,2.820103883743286133e+00,1.883956976234912872e-02,-2.071852941298857331e-05,1.000000000000000000e+00,-2.543131643051310675e-07,0.000000000000000000e+00
1.243620872497558594e+00,2.621259689331054688e+00,-2.319906616210937500e+01,-2.319906616210937500e+01,2.707554996013641357e-01,-8.961767578125000000e+01,1.334036170419494738e-08,3.722165897488594055e-02,-5.578058242797851562e+00,-3.904721961589530110e-05,2.078884094953536987e-02,-3.115491628646850586e+00,-1.162514890893362463e-04,2.820103883743286133e+00,1.883956976234912872e-02,-2.071852941298857331e-05,1.000000000000000000e+00,-2.543131643051310675e-07,0.000000000000000000e+00
1.243620872497558594e+00,2.621259689331054688e+00,-2.319906616210937500e+01,-2.319906616210937500e+01,2.707554996013641357e-01,-8.961767578125000000e+01,1.334036170419494738e-08,3.722165897488594055e-02,-5.578058242797851562e+00,-3.904721961589530110e-05,2.078884094953536987e-02,-3.115491628646850586e+00,-1.162514890893362463e-04,2.820103883743286133e+00,1.883956976234912872e-02,-2.071852941298857331e-05,1.000000000000000000e+00,-2.543131643051310675e-07,0.000000000000000000e+00
1.243620872497558594e+00,2.623979330062866211e+00,-2.360671043395996094e+01,-2.360671043395996094e+01,2.754136919975280762e-01,-8.961767578125000000e+01,7.070394758557085879e-07,3.551551327109336853e-02,-5.322401523590087891e+00,-5.339774361345916986e-06,-2.493560127913951874e-02,3.736465215682983398e+00,4.926398978568613529e-04,-2.295164585113525391e+00,-1.530811563134193420e-02,-6.155559822218492627e-05,5.000000000000000000e-01,-2.543131643051310675e-07,0.000000000000000000e+00
1.312042951583862305e+00,2.623979330062866211e+00,-2.360671043395996094e+01,-2.360671043395996094e+01,2.754136919975280762e-01,-8.961767578125000000e+01,7.070394758557085879e-07,3.551551327109336853e-02,-5.322401523590087891e+00,-5.339774361345916986e-06,-2.493560127913951874e-02,3.736465215682983398e+00,4.926398978568613529e-04,-2.295164585113525391e+00,-1.530811563134193420e-02,-6.155559822218492627e-05,5.000000000000000000e-01,-2.543131643051310675e-07,0.000000000000000000e+00
1.312042951583862305e+00,2.623979330062866211e+00,-2.360671043395996094e+01,-2.360671043395996094e+01,2.754136919975280762e-01,-8.961767578125000000e+01,7.070394758557085879e-07,3.551551327109336853e-02,-5.322401523590087891e+00,-5.339774361345916986e-06,-2.493560127913951874e-02,3.736465215682983398e+00,4.926398978568613529e-04,-2.295164585113525391e+00,-1.530811563134193420e-02,-6.155559822218492627e-05,5.000000000000000000e-01,-2.543131643051310675e-07,0.000000000000000000e+00
1.383129358291625977e+00,2.626480340957641602e+00,-2.398143577575683594e+01,-2.398143577575683594e+01,2.135731726884841919e-01,-8.961768341064453125e+01,2.934867211479286198e-07,3.716589510440826416e-02,-5.569765090942382812e+00,-9.544973181618843228e-06,2.321655862033367157e-02,-3.479758977890014648e+00,-5.915615838603116572e-05,2.637447118759155273e+00,1.759278960525989532e-02,1.622843774384818971e-05,1.000000000000000000e+00,0.000000000000000000e+00,0.000000000000000000e+00
1.383129358291625977e+00,2.626480340957641602e+00,-2.398143577575683594e+01,-2.398143577575683594e+01,2.135731726884841919e-01,-8.961768341064453125e+01,2.934867211479286198e-07,3.716589510440826416e-02,-5.569765090942382812e+00,-9.544973181618843228e-06,2.321655862033367157e-02,-3.479758977890014648e+00,-5.915615838603116572e-05,2.637447118759155273e+00,1.759278960525989532e-02,1.622843774384818971e-05,1.000000000000000000e+00,0.000000000000000000e+00,0.000000000000000000e+00
1.383129358291625977e+00,2.626480340957641602e+00,-2.398143577575683594e+01,-2.398143577575683594e+01,2.135731726884841919e-01,-8.961768341064453125e+01,2.934867211479286198e-07,3.716589510440826416e-02,-5.569765090942382812e+00,-9.544973181618843228e-06,2.321655862033367157e-02,-3.479758977890014648e+00,-5.915615838603116572e-05,2.637447118759155273e+00,1.759278960525989532e-02,1.622843774384818971e-05,1.000000000000000000e+00,0.000000000000000000e+00,0.000000000000000000e+00
1.450951814651489258e+00,2.629063367843627930e+00,-2.436853218078613281e+01,-2.436853218078613281e+01,2.108274400234222412e-01,-8.961767578125000000e+01,0.000000000000000000e+00,3.568461537361145020e-02,-5.347834587097167969e+00,1.118500949814915657e-05,-2.184055000543594360e-02,3.272227525711059570e+00,3.056506975553929806e-04,-2.035434722900390625e+00,-1.360693480819463730e-02,-4.555784835247322917e-05,5.000000000000000000e-01,-2.543131643051310675e-07,0.000000000000000000e+00
1.450951814651489258e+00,2.629063367843627930e+00,-2.436853218078613281e+01,-2.436853218078613281e+01,2.108274400234222412e-01,-8.961767578125000000e+01,0.000000000000000000e+00,3.568461537361145020e-02,-5.347834587097167969e+00,1.118500949814915657e-05,-2.184055000543594360e-02,3.272227525711059570e+00,3.056506975553929806e-04,-2.035434722900390625e+00,-1.360693480819463730e-02,-4.555784835247322917e-05,5.000000000000000000e-01,-2.543131643051310675e-07,0.000000000000000000e+00
1.450951814651489258e+00,2.629063367843627930e+00,-2.436853218078613281e+01,-2.436853218078613281e+01,2.108274400234222412e-01,-8.961767578125000000e+01,0.000000000000000000e+00,3.568461537361145020e-02,-5.347834587097167969e+00,1.118500949814915657e-05,-2.184055000543594360e-02,3.272227525711059570e+00,3.056506975553929806e-04,-2.035434722900390625e+00,-1.360693480819463730e-02,-4.555784835247322917e-05,5.000000000000000000e-01,-2.543131643051310675e-07,0.000000000000000000e+00
1.527701377868652344e+00,2.631543874740600586e+00,-2.474032974243164062e+01,-2.474032974243164062e+01,1.655706018209457397e-01,-8.961766815185546875e+01,0.000000000000000000e+00,3.716709464788436890e-02,-5.569968700408935547e+00,3.213446461813873611e-06,1.931580156087875366e-02,-2.894272089004516602e+00,-1.038646005326882005e-04,2.329704046249389648e+00,1.552649866789579391e-02,-5.137539847055450082e-05,1.000000000000000000e+00,-5.086263286102621350e-07,0.000000000000000000e+00
1.527701377868652344e+00,2.631543874740600586e+00,-2.474032974243164062e+01,-2.474032974243164062e+01,1.655706018209457397e-01,-8.961766815185546875e+01,0.000000000000000000e+00,3.716709464788436890e-02,-5.569968700408935547e+00,3.213446461813873611e-06,1.931580156087875366e-02,-2.894272089004516602e+00,-1.038646005326882005e-04,2.329704046249389648e+00,1.552649866789579391e-02,-5.137539847055450082e-05,1.000000000000000000e+00,-5.086263286102621350e-07,0.000000000000000000e+00
1.527701377868652344e+00,2.631543874740600586e+00,-2.474032974243164062e+01,-2.474032974243164062e+01,1.655706018209457397e-01,-8.961766815185546875e+01,0.000000000000000000e+00,3.716709464788436890e-02,-5.569968700408935547e+00,3.213446461813873611e-06,1.931580156087875366e-02,-2.894272089004516602e+00,-1.038646005326882005e-04,2.329704046249389648e+00,1.552649866789579391e-02,-5.137539847055450082e-05,1.000000000000000000e+00,-5.086263286102621350e-07,0.000000000000000000e+00
1.600134611129760742e+00,2.634330272674560547e+00,-2.515790557861328125e+01,-2.515790557861328125e+01,1.897631287574768066e-01,-8.961767578125000000e+01,0.000000000000000000e+00,3.547225520014762878e-02,-5.316059589385986328e+00,1.336846162303118035e-05,-2.339864335954189301e-02,3.505422830581665039e+00,1.401982881361618638e-04,-2.860609054565429688e+00,-1.908243447542190552e-02,-8.412775787292048335e-05,5.000000000000000000e-01,-2.543131643051310675e-07,0.000000000000000000e+00
1.600134611129760742e+00,2.634330272674560547e+00,-2.515790557861328125e+01,-2.515790557861328125e+01,1.897631287574768066e-01,-8.961767578125000000e+01,0.000000000000000000e+00,3.547225520014762878e-02,-5.316059589385986328e+00,1.336846162303118035e-05,-2.339864335954189301e-02,3.505422830581665039e+00,1.401982881361618638e-04,-2.860609054565429688e+00,-1.908243447542190552e-02,-8.412775787292048335e-05,5.000000000000000000e-01,-2.543131643051310675e-07,0.000000000000000000e+00
1.600134611129760742e+00,2.634330272674560547e+00,-2.515790557861328125e+01,-2.515790557861328125e+01,1.897631287574768066e-01,-8.961767578125000000e+01,0.000000000000000000e+00,3.547225520014762878e-02,-5.316059589385986328e+00,1.336846162303118035e-05,-2.339864335954189301e-02,3.505422830581665039e+00,1.401982881361618638e-04,-2.860609054565429688e+00,-1.908243447542190552e-02,-8.412775787292048335e-05,5.000000000000000000e-01,-2.543131643051310675e-07,0.000000000000000000e+00
1.600134611129760742e+00,2.634330272674560547e+00,-2.515790557861328125e+01,-2.515790557861328125e+01,1.897631287574768066e-01,-8.961767578125000000e+01,0.000000000000000000e+00,3.547225520014762878e-02,-5.316059589385986328e+00,1.336846162303118035e-05,-2.339864335954189301e-02,3.505422830581665039e+00,1.401982881361618638e-04,-2.860609054565429688e+00,-1.908243447542190552e-02,-8.412775787292048335e-05,5.000000000000000000e-01,-2.543131643051310675e-07,0.000000000000000000e+00
1.600134611129760742e+00,2.634330272674560547e+00,-2.515790557861328125e+01,-2.515790557861328125e+01,1.897631287574768066e-01,-8.961767578125000000e+01,0.000000000000000000e+00,3.547225520014762878e-02,-5.316059589385986328e+00,1.336846162303118035e-05,-2.339864335954189301e-02,3.505422830581665039e+00,1.401982881361618638e-04,-2.860609054565429688e+00,-1.908243447542190552e-02,-8.412775787292048335e-05,5.000000000000000000e-01,-2.543131643051310675e-07,0.000000000000000000e+00
1.600134611129760742e+00,2.636977672576904297e+00,-2.555466461181640625e+01,-2.555466461181640625e+01,1.526342332363128662e-01,-8.961766815185546875e+01,6.670130225927550782e-09,3.724018856883049011e-02,-5.581068992614746094e+00,-1.134708099925774150e-06,1.532285381108522415e-02,-2.296862840652465820e+00,-1.257004041690379381e-04,2.571927309036254883e+00,1.715380698442459106e-02,-6.121184014773461968e-06,1.000000000000000000e+00,-2.543131643051310675e-07,0.000000000000000000e+00
1.715513467788696289e+00,2.636977672576904297e+00,-2.555466461181640625e+01,-2.555466461181640625e+01,1.526342332363128662e-01,-8.961766815185546875e+01,6.670130225927550782e-09,3.724018856883049011e-02,-5.581068992614746094e+00,-1.134708099925774150e-06,1.532285381108522415e-02,-2.296862840652465820e+00,-1.257004041690379381e-04,2.571927309036254883e+00,1.715380698442459106e-02,-6.121184014773461968e-06,1.000000000000000000e+00,-2.543131643051310675e-07,0.000000000000000000e+00
1.715513467788696289e+00,2.636977672576904297e+00,-2.555466461181640625e+01,-2.555466461181640625e+01,1.526342332363128662e-01,-8.961766815185546875e+01,6.670130225927550782e-09,3.724018856883049011e-02,-5.581068992614746094e+00,-1.134708099925774150e-06,1.532285381108522415e-02,-2.296862840652465820e+00,-1.257004041690379381e-04,2.571927309036254883e+00,1.715380698442459106e-02,-6.121184014773461968e-06,1.000000000000000000e+00,-2.543131643051310675e-07,0.000000000000000000e+00
1.715513467788696289e+00,2.640618801116943359e+00,-2.610033798217773438e+01,-2.610033798217773438e+01,1.375804990530014038e-01,-8.961769866943359375e+01,-6.670125340946242432e-09,3.754337131977081299e-02,-5.626666545867919922e+00,-2.231225835203076713e-06,3.106328193098306656e-03,-4.671801626682281494e-01,-1.123462334362557158e-05,3.570694684982299805e+00,2.383776009082794189e-02,-4.264813105692155659e-05,5.000000000000000000e-01,-5.086263286102621350e-07,0.000000000000000000e+00
1.813115119934082031e+00,2.640618801116943359e+00,-2.610033798217773438e+01,-2.610033798217773438e+01,1.375804990530014038e-01,-8.961769866943359375e+01,-6.670125340946242432e-09,3.754337131977081299e-02,-5.626666545867919922e+00,-2.231225835203076713e-06,3.106328193098306656e-03,-4.671801626682281494e-01,-1.123462334362557158e-05,3.570694684982299805e+00,2.383776009082794189e-02,-4.264813105692155659e-05,5.000000000000000000e-01,-5.086263286102621350e-07,0.000000000000000000e+00
1.813115119934082031e+00,2.640618801116943359e+00,-2.610033798217773438e+01,-2.610033798217773438e+01,1.375804990530014038e-01,-8.961769866943359375e+01,-6.670125340946242432e-09,3.754337131977081299e-02,-5.626666545867919922e+00,-2.231225835203076713e-06,3.106328193098306656e-03,-4.671801626682281494e-01,-1.123462334362557158e-05,3.570694684982299805e+00,2.383776009082794189e-02,-4.264813105692155659e-05,5.000000000000000000e-01,-5.086263286102621350e-07,0.000000000000000000e+00
1.813115119934082031e+00,2.640618801116943359e+00,-2.610033798217773438e+01,-2.610033798217773438e+01,1.375804990530014038e-01,-8.961769866943359375e+01,-6.670125340946242432e-09,3.754337131977081299e-02,-5.626666545867919922e+00,-2.231225835203076713e-06,3.106328193098306656e-03,-4.671801626682281494e-01,-1.123462334362557158e-05,3.570694684982299805e+00,2.383776009082794189e-02,-4.264813105692155659e-05,5.000000000000000000e-01,-5.086263286102621350e-07,0.000000000000000000e+00
1.896134853363037109e+00,2.644149780273437500e+00,-2.662957954406738281e+01,-2.662957954406738281e+01,1.774414777755737305e-01,-8.961769866943359375e+01,6.670138219533328083e-09,3.710526227951049805e-02,-5.561020374298095703e+00,-7.733040547464042902e-06,-5.277167540043592453e-03,7.907297611236572266e-01,-6.627116817981004715e-05,2.759353160858154297e+00,1.836182363331317902e-02,1.296930531680118293e-05,5.000000000000000000e-01,2.543131643051310675e-07,0.000000000000000000e+00
1.896134853363037109e+00,2.644149780273437500e+00,-2.662957954406738281e+01,-2.662957954406738281e+01,1.774414777755737305e-01,-8.961769866943359375e+01,6.670138219533328083e-09,3.710526227951049805e-02,-5.561020374298095703e+00,-7.733040547464042902e-06,-5.277167540043592453e-03,7.907297611236572266e-01,-6.627116817981004715e-05,2.759353160858154297e+00,1.836182363331317902e-02,1.296930531680118293e-05,5.000000000000000000e-01,2.543131643051310675e-07,0.000000000000000000e+00
1.896134853363037109e+00,2.644149780273437500e+00,-2.662957954406738281e+01,-2.662957954406738281e+01,1.774414777755737305e-01,-8.961769866943359375e+01,6.670138219533328083e-09,3.710526227951049805e-02,-5.561020374298095703e+00,-7.733040547464042902e-06,-5.277167540043592453e-03,7.907297611236572266e-01,-6.627116817981004715e-05,2.759353160858154297e+00,1.836182363331317902e-02,1.296930531680118293e-05,5.000000000000000000e-01,2.543131643051310675e-07,0.000000000000000000e+00
1.896134853363037109e+00,2.644149780273437500e+00,-2.662957954406738281e+01,-2.662957954406738281e+01,1.774414777755737305e-01,-8.961769866943359375e+01,6.670138219533328083e-09,3.710526227951049805e-02,-5.561020374298095703e+00,-7.733040547464042902e-06,-5.277167540043592453e-03,7.907297611236572266e-01,-6.627116817981004715e-05,2.759353160858154297e+00,1.836182363331317902e-02,1.296930531680118293e-05,5.000000000000000000e-01,2.543131643051310675e-07,0.000000000000000000e+00
1.896134853363037109e+00,2.644149780273437500e+00,-2.662957954406738281e+01,-2.662957954406738281e+01,1.774414777755737305e-01,-8.961769866943359375e+01,6.670138219533328083e-09,3.710526227951049805e-02,-5.561020374298095703e+00,-7.733040547464042902e-06,-5.277167540043592453e-03,7.907297611236572266e-01,-6.627116817981004715e-05,2.759353160858154297e+00,1.836182363331317902e-02,1.296930531680118293e-05,5.000000000000000000e-01,2.543131643051310675e-07,0.000000000000000000e+00
1.896134853363037109e+00,2.644149780273437500e+00,-2.662957954406738281e+01,-2.662957954406738281e+01,1.774414777755737305e-01,-8.961769866943359375e+01,6.670138219533328083e-09,3.710526227951049805e-02,-5.561020374298095703e+00,-7.733040547464042902e-06,-5.277167540043592453e-03,7.907297611236572266e-01,-6.627116817981004715e-05,2.759353160858154297e+00,1.836182363331317902e-02,1.296930531680118293e-05,5.000000000000000000e-01,2.543131643051310675e-07,0.000000000000000000e+00
1.896134853363037109e+00,2.644149780273437500e+00,-2.662957954406738281e+01,-2.662957954406738281e+01,1.774414777755737305e-01,-8.961769866943359375e+01,6.670138219533328083e-09,3.710526227951049805e-02,-5.561020374298095703e+00,-7.733040547464042902e-06,-5.277167540043592453e-03,7.907297611236572266e-01,-6.627116817981004715e-05,2.759353160858154297e+00,1.836182363331317902e-02,1.296930531680118293e-05,5.000000000000000000e-01,2.543131643051310675e-07,0.000000000000000000e+00
1.896134853363037109e+00,2.644149780273437500e+00,-2.662957954406738281e+01,-2.662957954406738281e+01,1.774414777755737305e-01,-8.961769866943359375e+01,6.670138219533328083e-09,3.710526227951049805e-02,-5.561020374298095703e+00,-7.733040547464042902e-06,-5.277167540043592453e-03,7.907297611236572266e-01,-6.627116817981004715e-05,2.759353160858154297e+00,1.836182363331317902e-02,1.296930531680118293e-05,5.000000000000000000e-01,2.543131643051310675e-07,0.000000000000000000e+00
2.195794820785522461e+00,2.653727054595947266e+00,-2.806484985351562500e+01,-2.806484985351562500e+01,2.896614670753479004e-01,-8.961767578125000000e+01,0.000000000000000000e+00,3.509146720170974731e-02,-5.258974552154541016e+00,6.484037385234842077e-06,2.259125933051109314e-02,-3.384589672088623047e+00,4.843934148084372282e-04,-3.785751760005950928e-01,-2.496580826118588448e-03,1.175936631625518203e-04,1.000000000000000000e+00,2.543131643051310675e-07,0.000000000000000000e+00
2.195794820785522461e+00,2.653727054595947266e+00,-2.806484985351562500e+01,-2.806484985351562500e+01,2.896614670753479004e-01,-8.961767578125000000e+01,0.000000000000000000e+00,3.509146720170974731e-02,-5.258974552154541016e+00,6.484037385234842077e-06,2.259125933051109314e-02,-3.384589672088623047e+00,4.843934148084372282e-04,-3.785751760005950928e-01,-2.496580826118588448e-03,1.175936631625518203e-04,1.000000000000000000e+00,2.543131643051310675e-07,0.000000000000000000e+00
2.195794820785522461e+00,2.653727054595947266e+00,-2.806484985351562500e+01,-2.806484985351562500e+01,2.896614670753479004e-01,-8.961767578125000000e+01,0.000000000000000000e+00,3.509146720170974731e-02,-5.258974552154541016e+00,6.484037385234842077e-06,2.259125933051109314e-02,-3.384589672088623047e+00,4.843934148084372282e-04,-3.785751760005950928e-01,-2.496580826118588448e-03,1.175936631625518203e-04,1.000000000000000000e+00,2.543131643051310675e-07,0.000000000000000000e+00
2.195794820785522461e+00,2.653727054595947266e+00,-2.806484985351562500e+01,-2.806484985351562500e+01,2.896614670753479004e-01,-8.961767578125000000e+01,0.000000000000000000e+00,3.509146720170974731e-02,-5.258974552154541016e+00,6.484037385234842077e-06,2.259125933051109314e-02,-3.384589672088623047e+00,4.843934148084372282e-04,-3.785751760005950928e-01,-2.496580826118588448e-03,1.175936631625518203e-04,1.000000000000000000e+00,2.543131643051310675e-07,0.000000000000000000e+00
2.195794820785522461e+00,2.653727054595947266e+00,-2.806484985351562500e+01,-2.806484985351562500e+01,2.896614670753479004e-01,-8.961767578125000000e+01,0.000000000000000000e+00,3.509146720170974731e-02,-5.258974552154541016e+00,6.484037385234842077e-06,2.259125933051109314e-02,-3.384589672088623047e+00,4.843934148084372282e-04,-3.785751760005950928e-01,-2.496580826118588448e-03,1.175936631625518203e-04,1.000000000000000000e+00,2.543131643051310675e-07,0.000000000000000000e+00
2.195794820785522461e+00,2.653727054595947266e+00,-2.806484985351562500e+01,-2.806484985351562500e+01,2.896614670753479004e-01,-8.961767578125000000e+01,0.000000000000000000e+00,3.509146720170974731e-02,-5.258974552154541016e+00,6.484037385234842077e-06,2.259125933051109314e-02,-3.384589672088623047e+00,4.843934148084372282e-04,-3.785751760005950928e-01,-2.496580826118588448e-03,1.175936631625518203e-04,1.000000000000000000e+00,2.543131643051310675e-07,0.000000000000000000e+00
2.195794820785522461e+00,2.653727054595947266e+00,-2.806484985351562500e+01,-2.806484985351562500e+01,2.896614670753479004e-01,-8.961767578125000000e+01,0.000000000000000000e+00,3.509146720170974731e-02,-5.258974552154541016e+00,6.484037385234842077e-06,2.259125933051109314e-02,-3.384589672088623047e+00,4.843934148084372282e-04,-3.785751760005950928e-01,-2.496580826118588448e-03,1.175936631625518203e-04,1.000000000000000000e+00,2.543131643051310675e-07,0.000000000000000000e+00
2.195794820785522461e+00,2.653727054595947266e+00,-2.806484985351562500e+01,-2.806484985351562500e+01,2.896614670753479004e-01,-8.961767578125000000e+01,0.000000000000000000e+00,3.509146720170974731e-02,-5.258974552154541016e+00,6.484037385234842077e-06,2.259125933051109314e-02,-3.384589672088623047e+00,4.843934148084372282e-04,-3.785751760005950928e-01,-2.496580826118588448e-03,1.175936631625518203e-04,1.000000000000000000e+00,2.543131643051310675e-07,0.000000000000000000e+00
2.195794820785522461e+00,2.653727054595947266e+00,-2.806484985351562500e+01,-2.806484985351562500e+01,2.896614670753479004e-01,-8.961767578125000000e+01,0.000000000000000000e+00,3.509146720170974731e-02,-5.258974552154541016e+00,6.484037385234842077e-06,2.259125933051109314e-02,-3.384589672088623047e+00,4.843934148084372282e-04,-3.785751760005950928e-01,-2.496580826118588448e-03,1.175936631625518203e-04,1.000000000000000000e+00,2.543131643051310675e-07,0.000000000000000000e+00
2.195794820785522461e+00,2.653727054595947266e+00,-2.806484985351562500e+01,-2.806484985351562500e+01,2.896614670753479004e-01,-8.961767578125000000e+01,0.000000000000000000e+00,3.509146720170974731e-02,-5.258974552154541016e+00,6.484037385234842077e-06,2.259125933051109314e-02,-3.384589672088623047e+00,4.843934148084372282e-04,-3.785751760005950928e-01,-2.496580826118588448e-03,1.175936631625518203e-04,1.000000000000000000e+00,2.543131643051310675e-07,0.000000000000000000e+00
2.374083757400512695e+00,2.655654907226562500e+00,-2.835384178161621094e+01,-2.835384178161621094e+01,1.412619650363922119e-01,-8.961769866943359375e+01,0.000000000000000000e+00,3.616952896118164062e-02,-5.420556068420410156e+00,3.339324393891729414e-05,6.046711467206478119e-03,-9.062901735305786133e-01,1.509303256170824170e-04,1.329853296279907227e+00,8.893245831131935120e-03,1.778912519512232393e-05,1.000000000000000000e+00,-2.543131643051310675e-07,0.000000000000000000e+00
2.374083757400512695e+00,2.655654907226562500e+00,-2.835384178161621094e+01,-2.835384178161621094e+01,1.412619650363922119e-01,-8.961769866943359375e+01,0.000000000000000000e+00,3.616952896118164062e-02,-5.420556068420410156e+00,3.339324393891729414e-05,6.046711467206478119e-03,-9.062901735305786133e-01,1.509303256170824170e-04,1.329853296279907227e+00,8.893245831131935120e-03,1.778912519512232393e-05,1.000000000000000000e+00,-2.543131643051310675e-07,0.000000000000000000e+00
2.374083757400512695e+00,2.655654907226562500e+00,-2.835384178161621094e+01,-2.835384178161621094e+01,1.412619650363922119e-01,-8.961769866943359375e+01,0.000000000000000000e+00,3.616952896118164062e-02,-5.420556068420410156e+00,3.339324393891729414e-05,6.046711467206478119e-03,-9.062901735305786133e-01,1.509303256170824170e-04,1.329853296279907227e+00,8.893245831131935120e-03,1.778912519512232393e-05,1.000000000000000000e+00,-2.543131643051310675e-07,0.000000000000000000e+00
2.447860002517700195e+00,2.659409761428833008e+00,-2.891647338867187500e+01,-2.891647338867187500e+01,-1.640611290931701660e-01,-8.961767578125000000e+01,1.874307599791791290e-06,3.740167245268821716e-02,-5.605066776275634766e+00,9.172817954095080495e-06,1.670108735561370850e-02,-2.500950098037719727e+00,-3.282957186456769705e-04,1.810768432915210724e-02,1.503275125287473202e-04,1.328795478912070394e-04,1.000000000000000000e+00,7.629394644936837722e-07,0.000000000000000000e+00
2.447860002517700195e+00,2.659409761428833008e+00,-2.891647338867187500e+01,-2.891647338867187500e+01,-1.640611290931701660e-01,-8.961767578125000000e+01,1.874307599791791290e-06,3.740167245268821716e-02,-5.605066776275634766e+00,9.172817954095080495e-06,1.670108735561370850e-02,-2.500950098037719727e+00,-3.282957186456769705e-04,1.810768432915210724e-02,1.503275125287473202e-04,1.328795478912070394e-04,1.000000000000000000e+00,7.629394644936837722e-07,0.000000000000000000e+00
2.500878810882568359e+00,2.662294626235961914e+00,-2.934884643554687500e+01,-2.934884643554687500e+01,-3.818075656890869141e-01,-8.961766815185546875e+01,1.387412908115948085e-06,4.013201221823692322e-02,-6.014212131500244141e+00,-1.687754320300882682e-06,5.149756744503974915e-02,-7.716985225677490234e+00,-2.048437745543196797e-04,4.056896686553955078e+00,2.703650668263435364e-02,1.361444219583063386e-07,5.000000000000000000e-01,-2.543131643051310675e-07,0.000000000000000000e+00
2.500878810882568359e+00,2.662294626235961914e+00,-2.934884643554687500e+01,-2.934884643554687500e+01,-3.818075656890869141e-01,-8.961766815185546875e+01,1.387412908115948085e-06,4.013201221823692322e-02,-6.014212131500244141e+00,-1.687754320300882682e-06,5.149756744503974915e-02,-7.716985225677490234e+00,-2.048437745543196797e-04,4.056896686553955078e+00,2.703650668263435364e-02,1.361444219583063386e-07,5.000000000000000000e-01,-2.543131643051310675e-07,0.000000000000000000e+00
2.560195446014404297e+00,2.664386034011840820e+00,-2.966224098205566406e+01,-2.966224098205566406e+01,-4.155213534832000732e-01,-8.961767578125000000e+01,1.534164766781032085e-06,4.005411639809608459e-02,-6.002531051635742188e+00,1.526630148873664439e-05,-1.313220476731657982e-03,1.969275474548339844e-01,2.858229563571512699e-04,1.715355992317199707e+00,1.144696958363056183e-02,-4.894333324045874178e-05,5.000000000000000000e-01,-5.086263286102621350e-07,0.000000000000000000e+00
2.560195446014404297e+00,2.664386034011840820e+00,-2.966224098205566406e+01,-2.966224098205566406e+01,-4.155213534832000732e-01,-8.961767578125000000e+01,1.534164766781032085e-06,4.005411639809608459e-02,-6.002531051635742188e+00,1.526630148873664439e-05,-1.313220476731657982e-03,1.969275474548339844e-01,2.858229563571512699e-04,1.715355992317199707e+00,1.144696958363056183e-02,-4.894333324045874178e-05,5.000000000000000000e-01,-5.086263286102621350e-07,0.000000000000000000e+00
2.560195446014404297e+00,2.664386034011840820e+00,-2.966224098205566406e+01,-2.966224098205566406e+01,-4.155213534832000732e-01,-8.961767578125000000e+01,1.534164766781032085e-06,4.005411639809608459e-02,-6.002531051635742188e+00,1.526630148873664439e-05,-1.313220476731657982e-03,1.969275474548339844e-01,2.858229563571512699e-04,1.715355992317199707e+00,1.144696958363056183e-02,-4.894333324045874178e-05,5.000000000000000000e-01,-5.086263286102621350e-07,0.000000000000000000e+00
2.618730545043945312e+00,2.666725158691406250e+00,-3.001279258728027344e+01,-3.001279258728027344e+01,-3.657771050930023193e-01,-8.961767578125000000e+01,2.134477483650698559e-07,4.009591415524482727e-02,-6.008841991424560547e+00,6.405833846656605601e-05,7.140631205402314663e-04,-1.078146249055862427e-01,8.335518068633973598e-04,9.801660180091857910e-01,6.463041063398122787e-03,-7.485757669201120734e-05,5.000000000000000000e-01,-5.086263286102621350e-07,0.000000000000000000e+00
2.618730545043945312e+00,2.666725158691406250e+00,-3.001279258728027344e+01,-3.001279258728027344e+01,-3.657771050930023193e-01,-8.961767578125000000e+01,2.134477483650698559e-07,4.009591415524482727e-02,-6.008841991424560547e+00,6.405833846656605601e-05,7.140631205402314663e-04,-1.078146249055862427e-01,8.335518068633973598e-04,9.801660180091857910e-01,6.463041063398122787e-03,-7.485757669201120734e-05,5.000000000000000000e-01,-5.086263286102621350e-07,0.000000000000000000e+00
2.677334070205688477e+00,2.669017076492309570e+00,-3.035630035400390625e+01,-3.035630035400390625e+01,-2.501215040683746338e-01,-8.961769866943359375e+01,0.000000000000000000e+00,3.973187506198883057e-02,-5.954478740692138672e+00,8.948923641582950950e-05,-6.211897358298301697e-03,9.276447296142578125e-01,4.339482693467289209e-04,1.036669015884399414e-01,6.221041548997163773e-04,-1.111547680920921266e-04,5.000000000000000000e-01,-7.629394644936837722e-07,0.000000000000000000e+00
2.677334070205688477e+00,2.669017076492309570e+00,-3.035630035400390625e+01,-3.035630035400390625e+01,-2.501215040683746338e-01,-8.961769866943359375e+01,0.000000000000000000e+00,3.973187506198883057e-02,-5.954478740692138672e+00,8.948923641582950950e-05,-6.211897358298301697e-03,9.276447296142578125e-01,4.339482693467289209e-04,1.036669015884399414e-01,6.221041548997163773e-04,-1.111547680920921266e-04,5.000000000000000000e-01,-7.629394644936837722e-07,0.000000000000000000e+00
2.677334070205688477e+00,2.669017076492309570e+00,-3.035630035400390625e+01,-3.035630035400390625e+01,-2.501215040683746338e-01,-8.961769866943359375e+01,0.000000000000000000e+00,3.973187506198883057e-02,-5.954478740692138672e+00,8.948923641582950950e-05,-6.211897358298301697e-03,9.276447296142578125e-01,4.339482693467289209e-04,1.036669015884399414e-01,6.221041548997163773e-04,-1.111547680920921266e-04,5.000000000000000000e-01,-7.629394644936837722e-07,0.000000000000000000e+00
2.677334070205688477e+00,2.671289205551147461e+00,-3.069686698913574219e+01,-3.069686698913574219e+01,-1.057449802756309509e-01,-8.961769866943359375e+01,0.000000000000000000e+00,3.931370005011558533e-02,-5.891940593719482422e+00,7.793238182784989476e-05,-5.382552277296781540e-03,8.049616813659667969e-01,-1.487544068368151784e-04,-1.770197153091430664e-01,-1.226145657710731030e-03,-1.028841052175266668e-05,5.000000000000000000e-01,0.000000000000000000e+00,0.000000000000000000e+00
2.755024909973144531e+00,2.671289205551147461e+00,-3.069686698913574219e+01,-3.069686698913574219e+01,-1.057449802756309509e-01,-8.961769866943359375e+01,0.000000000000000000e+00,3.931370005011558533e-02,-5.891940593719482422e+00,7.793238182784989476e-05,-5.382552277296781540e-03,8.049616813659667969e-01,-1.487544068368151784e-04,-1.770197153091430664e-01,-1.226145657710731030e-03,-1.028841052175266668e-05,5.000000000000000000e-01,0.000000000000000000e+00,0.000000000000000000e+00
2.755024909973144531e+00,2.671289205551147461e+00,-3.069686698913574219e+01,-3.069686698913574219e+01,-1.057449802756309509e-01,-8.961769866943359375e+01,0.000000000000000000e+00,3.931370005011558533e-02,-5.891940593719482422e+00,7.793238182784989476e-05,-5.382552277296781540e-03,8.049616813659667969e-01,-1.487544068368151784e-04,-1.770197153091430664e-01,-1.226145657710731030e-03,-1.028841052175266668e-05,5.000000000000000000e-01,0.000000000000000000e+00,0.000000000000000000e+00
2.755024909973144531e+00,2.671289205551147461e+00,-3.069686698913574219e+01,-3.069686698913574219e+01,-1.057449802756309509e-01,-8.961769866943359375e+01,0.000000000000000000e+00,3.931370005011558533e-02,-5.891940593719482422e+00,7.793238182784989476e-05,-5.382552277296781540e-03,8.049616813659667969e-01,-1.487544068368151784e-04,-1.770197153091430664e-01,-1.226145657710731030e-03,-1.028841052175266668e-05,5.000000000000000000e-01,0.000000000000000000e+00,0.000000000000000000e+00
2.830169916152954102e+00,2.674247980117797852e+00,-3.114028549194335938e+01,-3.114028549194335938e+01,1.326149404048919678e-01,-8.961769866943359375e+01,0.000000000000000000e+00,3.696725144982337952e-02,-5.540256977081298828e+00,2.398118158453144133e-05,-3.122560866177082062e-02,4.680066108703613281e+00,-7.179611711762845516e-04,-5.286965847015380859e+00,-3.529805690050125122e-02,2.008660885621793568e-05,5.000000000000000000e-01,2.543131643051310675e-07,0.000000000000000000e+00
2.830169916152954102e+00,2.674247980117797852e+00,-3.114028549194335938e+01,-3.114028549194335938e+01,1.326149404048919678e-01,-8.961769866943359375e+01,0.000000000000000000e+00,3.696725144982337952e-02,-5.540256977081298828e+00,2.398118158453144133e-05,-3.122560866177082062e-02,4.680066108703613281e+00,-7.179611711762845516e-04,-5.286965847015380859e+00,-3.529805690050125122e-02,2.008660885621793568e-05,5.000000000000000000e-01,2.543131643051310675e-07,0.000000000000000000e+00
2.830169916152954102e+00,2.674247980117797852e+00,-3.114028549194335938e+01,-3.114028549194335938e+01,1.326149404048919678e-01,-8.961769866943359375e+01,0.000000000000000000e+00,3.696725144982337952e-02,-5.540256977081298828e+00,2.398118158453144133e-05,-3.122560866177082062e-02,4.680066108703613281e+00,-7.179611711762845516e-04,-5.286965847015380859e+00,-3.529805690050125122e-02,2.008660885621793568e-05,5.000000000000000000e-01,2.543131643051310675e-07,0.000000000000000000e+00
2.830169916152954102e+00,2.674247980117797852e+00,-3.114028549194335938e+01,-3.114028549194335938e+01,1.326149404048919678e-01,-8.961769866943359375e+01,0.000000000000000000e+00,3.696725144982337952e-02,-5.540256977081298828e+00,2.398118158453144133e-05,-3.122560866177082062e-02,4.680066108703613281e+00,-7.179611711762845516e-04,-5.286965847015380859e+00,-3.529805690050125122e-02,2.008660885621793568e-05,5.000000000000000000e-01,2.543131643051310675e-07,0.000000000000000000e+00
2.830169916152954102e+00,2.674247980117797852e+00,-3.114028549194335938e+01,-3.114028549194335938e+01,1.326149404048919678e-01,-8.961769866943359375e+01,0.000000000000000000e+00,3.696725144982337952e-02,-5.540256977081298828e+00,2.398118158453144133e-05,-3.122560866177082062e-02,4.680066108703613281e+00,-7.179611711762845516e-04,-5.286965847015380859e+00,-3.529805690050125122e-02,2.008660885621793568e-05,5.000000000000000000e-01,2.543131643051310675e-07,0.000000000000000000e+00
2.917726278305053711e+00,2.677091598510742188e+00,-3.156651496887207031e+01,-3.156651496887207031e+01,2.441587597131729126e-01,-8.961773681640625000e+01,0.000000000000000000e+00,3.838800638914108276e-02,-5.753282546997070312e+00,-5.224396227276884019e-05,1.622674614191055298e-02,-2.433010578155517578e+00,-8.705836953595280647e-04,1.124965786933898926e+00,7.485716603696346283e-03,2.631634743011090904e-05,1.000000000000000000e+00,0.000000000000000000e+00,0.000000000000000000e+00
