# Time,X,Y,Z,Roll,Pitch,Yaw,Vx,Vy,Vz,Ax,Ay,Az,Wx,Wy,Wz,Throttle,Steer,Brake
0.000000000000000000e+00,4.937202758789062500e+02,-2.446103858947753906e+01,-2.446103858947753906e+01,-1.470334678888320923e-01,-1.798840179443359375e+02,2.774504537228494883e-04,-1.841338920593261719e+01,-3.966942057013511658e-02,8.953735232353210449e-06,8.171107769012451172e-01,3.594710491597652435e-03,1.392249978380277753e-04,2.644510008394718170e-03,-5.267892405390739441e-02,-1.195274852216243744e-02,1.000000000000000000e+00,1.493181480327621102e-04,0.000000000000000000e+00
1.045818328857421875e-01,4.937202758789062500e+02,-2.446103858947753906e+01,-2.446103858947753906e+01,-1.470334678888320923e-01,-1.798840179443359375e+02,2.774504537228494883e-04,-1.841338920593261719e+01,-3.966942057013511658e-02,8.953735232353210449e-06,8.171107769012451172e-01,3.594710491597652435e-03,1.392249978380277753e-04,2.644510008394718170e-03,-5.267892405390739441e-02,-1.195274852216243744e-02,1.000000000000000000e+00,1.493181480327621102e-04,0.000000000000000000e+00
1.045818328857421875e-01,4.937202758789062500e+02,-2.446103858947753906e+01,-2.446103858947753906e+01,-1.470334678888320923e-01,-1.798840179443359375e+02,2.774504537228494883e-04,-1.841338920593261719e+01,-3.966942057013511658e-02,8.953735232353210449e-06,8.171107769012451172e-01,3.594710491597652435e-03,1.392249978380277753e-04,2.644510008394718170e-03,-5.267892405390739441e-02,-1.195274852216243744e-02,1.000000000000000000e+00,1.493181480327621102e-04,0.000000000000000000e+00
1.045818328857421875e-01,4.937202758789062500e+02,-2.446103858947753906e+01,-2.446103858947753906e+01,-1.470334678888320923e-01,-1.798840179443359375e+02,2.774504537228494883e-04,-1.841338920593261719e+01,-3.966942057013511658e-02,8.953735232353210449e-06,8.171107769012451172e-01,3.594710491597652435e-03,1.392249978380277753e-04,2.644510008394718170e-03,-5.267892405390739441e-02,-1.195274852216243744e-02,1.000000000000000000e+00,1.493181480327621102e-04,0.000000000000000000e+00
1.045818328857421875e-01,4.937202758789062500e+02,-2.446103858947753906e+01,-2.446103858947753906e+01,-1.470334678888320923e-01,-1.798840179443359375e+02,2.774504537228494883e-04,-1.841338920593261719e+01,-3.966942057013511658e-02,8.953735232353210449e-06,8.171107769012451172e-01,3.594710491597652435e-03,1.392249978380277753e-04,2.644510008394718170e-03,-5.267892405390739441e-02,-1.195274852216243744e-02,1.000000000000000000e+00,1.493181480327621102e-04,0.000000000000000000e+00
1.045818328857421875e-01,4.937202758789062500e+02,-2.446103858947753906e+01,-2.446103858947753906e+01,-1.470334678888320923e-01,-1.798840179443359375e+02,2.774504537228494883e-04,-1.841338920593261719e+01,-3.966942057013511658e-02,8.953735232353210449e-06,8.171107769012451172e-01,3.594710491597652435e-03,1.392249978380277753e-04,2.644510008394718170e-03,-5.267892405390739441e-02,-1.195274852216243744e-02,1.000000000000000000e+00,1.493181480327621102e-04,0.000000000000000000e+00
1.045818328857421875e-01,4.918778076171875000e+02,-2.446499443054199219e+01,-2.446499443054199219e+01,-1.182852089405059814e-01,-1.798822631835937500e+02,2.274939470225945115e-04,-1.844516372680664062e+01,-3.987777233123779297e-02,2.168293940485455096e-05,-3.034557402133941650e-01,-1.989818876609206200e-03,1.215675292769446969e-04,-2.964935265481472015e-03,4.622470140457153320e-01,3.593090176582336426e-02,1.000000000000000000e+00,1.970563607756048441e-04,0.000000000000000000e+00
2.092907428741455078e-01,4.918778076171875000e+02,-2.446499443054199219e+01,-2.446499443054199219e+01,-1.182852089405059814e-01,-1.798822631835937500e+02,2.274939470225945115e-04,-1.844516372680664062e+01,-3.987777233123779297e-02,2.168293940485455096e-05,-3.034557402133941650e-01,-1.989818876609206200e-03,1.215675292769446969e-04,-2.964935265481472015e-03,4.622470140457153320e-01,3.593090176582336426e-02,1.000000000000000000e+00,1.970563607756048441e-04,0.000000000000000000e+00
2.092907428741455078e-01,4.918778076171875000e+02,-2.446499443054199219e+01,-2.446499443054199219e+01,-1.182852089405059814e-01,-1.798822631835937500e+02,2.274939470225945115e-04,-1.844516372680664062e+01,-3.987777233123779297e-02,2.168293940485455096e-05,-3.034557402133941650e-01,-1.989818876609206200e-03,1.215675292769446969e-04,-2.964935265481472015e-03,4.622470140457153320e-01,3.593090176582336426e-02,1.000000000000000000e+00,1.970563607756048441e-04,0.000000000000000000e+00
2.092907428741455078e-01,4.918778076171875000e+02,-2.446499443054199219e+01,-2.446499443054199219e+01,-1.182852089405059814e-01,-1.798822631835937500e+02,2.274939470225945115e-04,-1.844516372680664062e+01,-3.987777233123779297e-02,2.168293940485455096e-05,-3.034557402133941650e-01,-1.989818876609206200e-03,1.215675292769446969e-04,-2.964935265481472015e-03,4.622470140457153320e-01,3.593090176582336426e-02,1.000000000000000000e+00,1.970563607756048441e-04,0.000000000000000000e+00
2.092907428741455078e-01,4.918778076171875000e+02,-2.446499443054199219e+01,-2.446499443054199219e+01,-1.182852089405059814e-01,-1.798822631835937500e+02,2.274939470225945115e-04,-1.844516372680664062e+01,-3.987777233123779297e-02,2.168293940485455096e-05,-3.034557402133941650e-01,-1.989818876609206200e-03,1.215675292769446969e-04,-2.964935265481472015e-03,4.622470140457153320e-01,3.593090176582336426e-02,1.000000000000000000e+00,1.970563607756048441e-04,0.000000000000000000e+00
2.092907428741455078e-01,4.900263671875000000e+02,-2.446896934509277344e+01,-2.446896934509277344e+01,-6.203860417008399963e-02,-1.798770446777343750e+02,-9.155274165095761418e-05,-1.856469154357910156e+01,-4.071469232439994812e-02,1.905123644974082708e-05,-1.601850628852844238e+00,-1.121597364544868469e-02,-3.526873479131609201e-05,-6.031881086528301239e-03,5.972934961318969727e-01,6.230524182319641113e-02,1.000000000000000000e+00,1.754760742187500000e-04,0.000000000000000000e+00
2.839093208312988281e-01,4.900263671875000000e+02,-2.446896934509277344e+01,-2.446896934509277344e+01,-6.203860417008399963e-02,-1.798770446777343750e+02,-9.155274165095761418e-05,-1.856469154357910156e+01,-4.071469232439994812e-02,1.905123644974082708e-05,-1.601850628852844238e+00,-1.121597364544868469e-02,-3.526873479131609201e-05,-6.031881086528301239e-03,5.972934961318969727e-01,6.230524182319641113e-02,1.000000000000000000e+00,1.754760742187500000e-04,0.000000000000000000e+00
2.839093208312988281e-01,4.900263671875000000e+02,-2.446896934509277344e+01,-2.446896934509277344e+01,-6.203860417008399963e-02,-1.798770446777343750e+02,-9.155274165095761418e-05,-1.856469154357910156e+01,-4.071469232439994812e-02,1.905123644974082708e-05,-1.601850628852844238e+00,-1.121597364544868469e-02,-3.526873479131609201e-05,-6.031881086528301239e-03,5.972934961318969727e-01,6.230524182319641113e-02,1.000000000000000000e+00,1.754760742187500000e-04,0.000000000000000000e+00
2.839093208312988281e-01,4.900263671875000000e+02,-2.446896934509277344e+01,-2.446896934509277344e+01,-6.203860417008399963e-02,-1.798770446777343750e+02,-9.155274165095761418e-05,-1.856469154357910156e+01,-4.071469232439994812e-02,1.905123644974082708e-05,-1.601850628852844238e+00,-1.121597364544868469e-02,-3.526873479131609201e-05,-6.031881086528301239e-03,5.972934961318969727e-01,6.230524182319641113e-02,1.000000000000000000e+00,1.754760742187500000e-04,0.000000000000000000e+00
2.839093208312988281e-01,4.900263671875000000e+02,-2.446896934509277344e+01,-2.446896934509277344e+01,-6.203860417008399963e-02,-1.798770446777343750e+02,-9.155274165095761418e-05,-1.856469154357910156e+01,-4.071469232439994812e-02,1.905123644974082708e-05,-1.601850628852844238e+00,-1.121597364544868469e-02,-3.526873479131609201e-05,-6.031881086528301239e-03,5.972934961318969727e-01,6.230524182319641113e-02,1.000000000000000000e+00,1.754760742187500000e-04,0.000000000000000000e+00
3.569011688232421875e-01,4.886353759765625000e+02,-2.447199821472167969e+01,-2.447199821472167969e+01,-1.885815151035785675e-02,-1.798719635009765625e+02,-4.577637591864913702e-04,-1.868888473510742188e+01,-4.179415479302406311e-02,7.475690836145076901e-06,-1.701466560363769531e+00,-1.478880830109119415e-02,-1.585868303664028645e-04,-6.824400741606950760e-03,5.667204260826110840e-01,7.101966440677642822e-02,1.000000000000000000e+00,1.453944569220766425e-04,0.000000000000000000e+00
3.569011688232421875e-01,4.886353759765625000e+02,-2.447199821472167969e+01,-2.447199821472167969e+01,-1.885815151035785675e-02,-1.798719635009765625e+02,-4.577637591864913702e-04,-1.868888473510742188e+01,-4.179415479302406311e-02,7.475690836145076901e-06,-1.701466560363769531e+00,-1.478880830109119415e-02,-1.585868303664028645e-04,-6.824400741606950760e-03,5.667204260826110840e-01,7.101966440677642822e-02,1.000000000000000000e+00,1.453944569220766425e-04,0.000000000000000000e+00
3.569011688232421875e-01,4.886353759765625000e+02,-2.447199821472167969e+01,-2.447199821472167969e+01,-1.885815151035785675e-02,-1.798719635009765625e+02,-4.577637591864913702e-04,-1.868888473510742188e+01,-4.179415479302406311e-02,7.475690836145076901e-06,-1.701466560363769531e+00,-1.478880830109119415e-02,-1.585868303664028645e-04,-6.824400741606950760e-03,5.667204260826110840e-01,7.101966440677642822e-02,1.000000000000000000e+00,1.453944569220766425e-04,0.000000000000000000e+00
3.569011688232421875e-01,4.886353759765625000e+02,-2.447199821472167969e+01,-2.447199821472167969e+01,-1.885815151035785675e-02,-1.798719635009765625e+02,-4.577637591864913702e-04,-1.868888473510742188e+01,-4.179415479302406311e-02,7.475690836145076901e-06,-1.701466560363769531e+00,-1.478880830109119415e-02,-1.585868303664028645e-04,-6.824400741606950760e-03,5.667204260826110840e-01,7.101966440677642822e-02,1.000000000000000000e+00,1.453944569220766425e-04,0.000000000000000000e+00
4.765405654907226562e-01,4.872649230957031250e+02,-2.447502899169921875e+01,-2.447502899169921875e+01,1.975973695516586304e-02,-1.798673248291015625e+02,-6.713867187500000000e-04,-1.882950401306152344e+01,-4.252527654170989990e-02,-2.793857902361196466e-06,-1.175359368324279785e+00,-6.111045368015766144e-03,-8.583751332480460405e-05,-4.134011454880237579e-03,5.016154050827026367e-01,5.921271443367004395e-02,1.000000000000000000e+00,1.569475534779485315e-05,0.000000000000000000e+00
4.765405654907226562e-01,4.872649230957031250e+02,-2.447502899169921875e+01,-2.447502899169921875e+01,1.975973695516586304e-02,-1.798673248291015625e+02,-6.713867187500000000e-04,-1.882950401306152344e+01,-4.252527654170989990e-02,-2.793857902361196466e-06,-1.175359368324279785e+00,-6.111045368015766144e-03,-8.583751332480460405e-05,-4.134011454880237579e-03,5.016154050827026367e-01,5.921271443367004395e-02,1.000000000000000000e+00,1.569475534779485315e-05,0.000000000000000000e+00
4.765405654907226562e-01,4.872649230957031250e+02,-2.447502899169921875e+01,-2.447502899169921875e+01,1.975973695516586304e-02,-1.798673248291015625e+02,-6.713867187500000000e-04,-1.882950401306152344e+01,-4.252527654170989990e-02,-2.793857902361196466e-06,-1.175359368324279785e+00,-6.111045368015766144e-03,-8.583751332480460405e-05,-4.134011454880237579e-03,5.016154050827026367e-01,5.921271443367004395e-02,1.000000000000000000e+00,1.569475534779485315e-05,0.000000000000000000e+00
4.765405654907226562e-01,4.872649230957031250e+02,-2.447502899169921875e+01,-2.447502899169921875e+01,1.975973695516586304e-02,-1.798673248291015625e+02,-6.713867187500000000e-04,-1.882950401306152344e+01,-4.252527654170989990e-02,-2.793857902361196466e-06,-1.175359368324279785e+00,-6.111045368015766144e-03,-8.583751332480460405e-05,-4.134011454880237579e-03,5.016154050827026367e-01,5.921271443367004395e-02,1.000000000000000000e+00,1.569475534779485315e-05,0.000000000000000000e+00
4.765405654907226562e-01,4.872649230957031250e+02,-2.447502899169921875e+01,-2.447502899169921875e+01,1.975973695516586304e-02,-1.798673248291015625e+02,-6.713867187500000000e-04,-1.882950401306152344e+01,-4.252527654170989990e-02,-2.793857902361196466e-06,-1.175359368324279785e+00,-6.111045368015766144e-03,-8.583751332480460405e-05,-4.134011454880237579e-03,5.016154050827026367e-01,5.921271443367004395e-02,1.000000000000000000e+00,1.569475534779485315e-05,0.000000000000000000e+00
4.765405654907226562e-01,4.872649230957031250e+02,-2.447502899169921875e+01,-2.447502899169921875e+01,1.975973695516586304e-02,-1.798673248291015625e+02,-6.713867187500000000e-04,-1.882950401306152344e+01,-4.252527654170989990e-02,-2.793857902361196466e-06,-1.175359368324279785e+00,-6.111045368015766144e-03,-8.583751332480460405e-05,-4.134011454880237579e-03,5.016154050827026367e-01,5.921271443367004395e-02,1.000000000000000000e+00,1.569475534779485315e-05,0.000000000000000000e+00
4.765405654907226562e-01,4.872649230957031250e+02,-2.447502899169921875e+01,-2.447502899169921875e+01,1.975973695516586304e-02,-1.798673248291015625e+02,-6.713867187500000000e-04,-1.882950401306152344e+01,-4.252527654170989990e-02,-2.793857902361196466e-06,-1.175359368324279785e+00,-6.111045368015766144e-03,-8.583751332480460405e-05,-4.134011454880237579e-03,5.016154050827026367e-01,5.921271443367004395e-02,1.000000000000000000e+00,1.569475534779485315e-05,0.000000000000000000e+00
6.200885772705078125e-01,4.853775024414062500e+02,-2.447926521301269531e+01,-2.447926521301269531e+01,4.708049073815345764e-02,-1.798638763427734375e+02,-7.324219332076609135e-04,-1.882398033142089844e+01,-4.277158528566360474e-02,-1.125148082792293280e-05,3.847968205809593201e-02,-1.715863239951431751e-03,-5.891842738492414355e-05,-5.812712479382753372e-04,-4.036997631192207336e-02,1.403355505317449570e-02,0.000000000000000000e+00,-9.787423186935484409e-05,1.000000000000000000e+00
6.200885772705078125e-01,4.853775024414062500e+02,-2.447926521301269531e+01,-2.447926521301269531e+01,4.708049073815345764e-02,-1.798638763427734375e+02,-7.324219332076609135e-04,-1.882398033142089844e+01,-4.277158528566360474e-02,-1.125148082792293280e-05,3.847968205809593201e-02,-1.715863239951431751e-03,-5.891842738492414355e-05,-5.812712479382753372e-04,-4.036997631192207336e-02,1.403355505317449570e-02,0.000000000000000000e+00,-9.787423186935484409e-05,1.000000000000000000e+00
6.200885772705078125e-01,4.853775024414062500e+02,-2.447926521301269531e+01,-2.447926521301269531e+01,4.708049073815345764e-02,-1.798638763427734375e+02,-7.324219332076609135e-04,-1.882398033142089844e+01,-4.277158528566360474e-02,-1.125148082792293280e-05,3.847968205809593201e-02,-1.715863239951431751e-03,-5.891842738492414355e-05,-5.812712479382753372e-04,-4.036997631192207336e-02,1.403355505317449570e-02,0.000000000000000000e+00,-9.787423186935484409e-05,1.000000000000000000e+00
6.200885772705078125e-01,4.853775024414062500e+02,-2.447926521301269531e+01,-2.447926521301269531e+01,4.708049073815345764e-02,-1.798638763427734375e+02,-7.324219332076609135e-04,-1.882398033142089844e+01,-4.277158528566360474e-02,-1.125148082792293280e-05,3.847968205809593201e-02,-1.715863239951431751e-03,-5.891842738492414355e-05,-5.812712479382753372e-04,-4.036997631192207336e-02,1.403355505317449570e-02,0.000000000000000000e+00,-9.787423186935484409e-05,1.000000000000000000e+00
6.200885772705078125e-01,4.853775024414062500e+02,-2.447926521301269531e+01,-2.447926521301269531e+01,4.708049073815345764e-02,-1.798638763427734375e+02,-7.324219332076609135e-04,-1.882398033142089844e+01,-4.277158528566360474e-02,-1.125148082792293280e-05,3.847968205809593201e-02,-1.715863239951431751e-03,-5.891842738492414355e-05,-5.812712479382753372e-04,-4.036997631192207336e-02,1.403355505317449570e-02,0.000000000000000000e+00,-9.787423186935484409e-05,1.000000000000000000e+00
6.200885772705078125e-01,4.853775024414062500e+02,-2.447926521301269531e+01,-2.447926521301269531e+01,4.708049073815345764e-02,-1.798638763427734375e+02,-7.324219332076609135e-04,-1.882398033142089844e+01,-4.277158528566360474e-02,-1.125148082792293280e-05,3.847968205809593201e-02,-1.715863239951431751e-03,-5.891842738492414355e-05,-5.812712479382753372e-04,-4.036997631192207336e-02,1.403355505317449570e-02,0.000000000000000000e+00,-9.787423186935484409e-05,1.000000000000000000e+00
7.946169376373291016e-01,4.835291442871093750e+02,-2.448346900939941406e+01,-2.448346900939941406e+01,-2.304505743086338043e-02,-1.798675079345703125e+02,-3.356933884788304567e-04,-1.816074371337890625e+01,-4.073567688465118408e-02,-1.096542655432131141e-05,3.800165176391601562e+00,1.166520081460475922e-02,1.639013134990818799e-06,8.312001824378967285e-03,-1.160344958305358887e+00,-7.239207625389099121e-02,0.000000000000000000e+00,-1.953125029103830457e-04,1.000000000000000000e+00
7.946169376373291016e-01,4.835291442871093750e+02,-2.448346900939941406e+01,-2.448346900939941406e+01,-2.304505743086338043e-02,-1.798675079345703125e+02,-3.356933884788304567e-04,-1.816074371337890625e+01,-4.073567688465118408e-02,-1.096542655432131141e-05,3.800165176391601562e+00,1.166520081460475922e-02,1.639013134990818799e-06,8.312001824378967285e-03,-1.160344958305358887e+00,-7.239207625389099121e-02,0.000000000000000000e+00,-1.953125029103830457e-04,1.000000000000000000e+00
7.946169376373291016e-01,4.835291442871093750e+02,-2.448346900939941406e+01,-2.448346900939941406e+01,-2.304505743086338043e-02,-1.798675079345703125e+02,-3.356933884788304567e-04,-1.816074371337890625e+01,-4.073567688465118408e-02,-1.096542655432131141e-05,3.800165176391601562e+00,1.166520081460475922e-02,1.639013134990818799e-06,8.312001824378967285e-03,-1.160344958305358887e+00,-7.239207625389099121e-02,0.000000000000000000e+00,-1.953125029103830457e-04,1.000000000000000000e+00
8.783230781555175781e-01,4.817604064941406250e+02,-2.448749542236328125e+01,-2.448749542236328125e+01,-1.460567563772201538e-01,-1.798788146972656250e+02,4.768022336065769196e-04,-1.746479034423828125e+01,-3.791460767388343811e-02,-1.411202720191795379e-05,8.314245223999023438e+00,3.370206058025360107e-02,-3.759103856282308698e-05,1.274728029966354370e-02,-9.439137578010559082e-01,-1.293060928583145142e-01,1.000000000000000000e+00,-1.671927311690524220e-04,0.000000000000000000e+00
8.783230781555175781e-01,4.817604064941406250e+02,-2.448749542236328125e+01,-2.448749542236328125e+01,-1.460567563772201538e-01,-1.798788146972656250e+02,4.768022336065769196e-04,-1.746479034423828125e+01,-3.791460767388343811e-02,-1.411202720191795379e-05,8.314245223999023438e+00,3.370206058025360107e-02,-3.759103856282308698e-05,1.274728029966354370e-02,-9.439137578010559082e-01,-1.293060928583145142e-01,1.000000000000000000e+00,-1.671927311690524220e-04,0.000000000000000000e+00
8.783230781555175781e-01,4.817604064941406250e+02,-2.448749542236328125e+01,-2.448749542236328125e+01,-1.460567563772201538e-01,-1.798788146972656250e+02,4.768022336065769196e-04,-1.746479034423828125e+01,-3.791460767388343811e-02,-1.411202720191795379e-05,8.314245223999023438e+00,3.370206058025360107e-02,-3.759103856282308698e-05,1.274728029966354370e-02,-9.439137578010559082e-01,-1.293060928583145142e-01,1.000000000000000000e+00,-1.671927311690524220e-04,0.000000000000000000e+00
9.483780860900878906e-01,4.803039245605468750e+02,-2.449069595336914062e+01,-2.449069595336914062e+01,-1.730633229017257690e-01,-1.798867797851562500e+02,9.975943248718976974e-04,-1.737492561340332031e+01,-3.662179037928581238e-02,-3.146685969568352448e-07,1.282773852348327637e+00,1.845431700348854065e-02,1.969503500731661916e-04,5.797355435788631439e-03,1.248180959373712540e-02,-7.263051718473434448e-02,1.000000000000000000e+00,1.482282368669984862e-05,0.000000000000000000e+00
9.483780860900878906e-01,4.803039245605468750e+02,-2.449069595336914062e+01,-2.449069595336914062e+01,-1.730633229017257690e-01,-1.798867797851562500e+02,9.975943248718976974e-04,-1.737492561340332031e+01,-3.662179037928581238e-02,-3.146685969568352448e-07,1.282773852348327637e+00,1.845431700348854065e-02,1.969503500731661916e-04,5.797355435788631439e-03,1.248180959373712540e-02,-7.263051718473434448e-02,1.000000000000000000e+00,1.482282368669984862e-05,0.000000000000000000e+00
9.483780860900878906e-01,4.803039245605468750e+02,-2.449069595336914062e+01,-2.449069595336914062e+01,-1.730633229017257690e-01,-1.798867797851562500e+02,9.975943248718976974e-04,-1.737492561340332031e+01,-3.662179037928581238e-02,-3.146685969568352448e-07,1.282773852348327637e+00,1.845431700348854065e-02,1.969503500731661916e-04,5.797355435788631439e-03,1.248180959373712540e-02,-7.263051718473434448e-02,1.000000000000000000e+00,1.482282368669984862e-05,0.000000000000000000e+00
9.483780860900878906e-01,4.803039245605468750e+02,-2.449069595336914062e+01,-2.449069595336914062e+01,-1.730633229017257690e-01,-1.798867797851562500e+02,9.975943248718976974e-04,-1.737492561340332031e+01,-3.662179037928581238e-02,-3.146685969568352448e-07,1.282773852348327637e+00,1.845431700348854065e-02,1.969503500731661916e-04,5.797355435788631439e-03,1.248180959373712540e-02,-7.263051718473434448e-02,1.000000000000000000e+00,1.482282368669984862e-05,0.000000000000000000e+00
9.483780860900878906e-01,4.790865173339843750e+02,-2.449327659606933594e+01,-2.449327659606933594e+01,-1.533240824937820435e-01,-1.798894348144531250e+02,1.052948529832065105e-03,-1.738475799560546875e+01,-3.626298904418945312e-02,1.467499077989486977e-05,-1.247779875993728638e-01,4.553373437374830246e-03,1.902264921227470040e-04,-1.155269681476056576e-03,4.262672066688537598e-01,-1.721366681158542633e-02,1.000000000000000000e+00,1.632690400583669543e-04,0.000000000000000000e+00
1.027177095413208008e+00,4.790865173339843750e+02,-2.449327659606933594e+01,-2.449327659606933594e+01,-1.533240824937820435e-01,-1.798894348144531250e+02,1.052948529832065105e-03,-1.738475799560546875e+01,-3.626298904418945312e-02,1.467499077989486977e-05,-1.247779875993728638e-01,4.553373437374830246e-03,1.902264921227470040e-04,-1.155269681476056576e-03,4.262672066688537598e-01,-1.721366681158542633e-02,1.000000000000000000e+00,1.632690400583669543e-04,0.000000000000000000e+00
1.027177095413208008e+00,4.790865173339843750e+02,-2.449327659606933594e+01,-2.449327659606933594e+01,-1.533240824937820435e-01,-1.798894348144531250e+02,1.052948529832065105e-03,-1.738475799560546875e+01,-3.626298904418945312e-02,1.467499077989486977e-05,-1.247779875993728638e-01,4.553373437374830246e-03,1.902264921227470040e-04,-1.155269681476056576e-03,4.262672066688537598e-01,-1.721366681158542633e-02,1.000000000000000000e+00,1.632690400583669543e-04,0.000000000000000000e+00
1.095043420791625977e+00,4.777131652832031250e+02,-2.449613380432128906e+01,-2.449613380432128906e+01,-1.082380041480064392e-01,-1.798880920410156250e+02,7.647567545063793659e-04,-1.745822525024414062e+01,-3.654368966817855835e-02,1.943281858984846622e-05,-1.082528829574584961e+00,-4.136080853641033173e-03,7.010586705291643739e-05,-5.778649356216192245e-03,6.322306394577026367e-01,3.623639419674873352e-02,1.000000000000000000e+00,2.423967671347782016e-04,0.000000000000000000e+00
1.095043420791625977e+00,4.777131652832031250e+02,-2.449613380432128906e+01,-2.449613380432128906e+01,-1.082380041480064392e-01,-1.798880920410156250e+02,7.647567545063793659e-04,-1.745822525024414062e+01,-3.654368966817855835e-02,1.943281858984846622e-05,-1.082528829574584961e+00,-4.136080853641033173e-03,7.010586705291643739e-05,-5.778649356216192245e-03,6.322306394577026367e-01,3.623639419674873352e-02,1.000000000000000000e+00,2.423967671347782016e-04,0.000000000000000000e+00
1.095043420791625977e+00,4.777131652832031250e+02,-2.449613380432128906e+01,-2.449613380432128906e+01,-1.082380041480064392e-01,-1.798880920410156250e+02,7.647567545063793659e-04,-1.745822525024414062e+01,-3.654368966817855835e-02,1.943281858984846622e-05,-1.082528829574584961e+00,-4.136080853641033173e-03,7.010586705291643739e-05,-5.778649356216192245e-03,6.322306394577026367e-01,3.623639419674873352e-02,1.000000000000000000e+00,2.423967671347782016e-04,0.000000000000000000e+00
1.095043420791625977e+00,4.777131652832031250e+02,-2.449613380432128906e+01,-2.449613380432128906e+01,-1.082380041480064392e-01,-1.798880920410156250e+02,7.647567545063793659e-04,-1.745822525024414062e+01,-3.654368966817855835e-02,1.943281858984846622e-05,-1.082528829574584961e+00,-4.136080853641033173e-03,7.010586705291643739e-05,-5.778649356216192245e-03,6.322306394577026367e-01,3.623639419674873352e-02,1.000000000000000000e+00,2.423967671347782016e-04,0.000000000000000000e+00
1.168572425842285156e+00,4.765241394042968750e+02,-2.449860000610351562e+01,-2.449860000610351562e+01,-6.460675597190856934e-02,-1.798843536376953125e+02,3.937165311072021723e-04,-1.755705833435058594e+01,-3.717553243041038513e-02,1.459877239540219307e-05,-1.344137310981750488e+00,-8.593108505010604858e-03,-6.574339204235002398e-05,-7.552668917924165726e-03,6.502777934074401855e-01,6.562487035989761353e-02,1.000000000000000000e+00,2.432686887914314866e-04,0.000000000000000000e+00
1.168572425842285156e+00,4.765241394042968750e+02,-2.449860000610351562e+01,-2.449860000610351562e+01,-6.460675597190856934e-02,-1.798843536376953125e+02,3.937165311072021723e-04,-1.755705833435058594e+01,-3.717553243041038513e-02,1.459877239540219307e-05,-1.344137310981750488e+00,-8.593108505010604858e-03,-6.574339204235002398e-05,-7.552668917924165726e-03,6.502777934074401855e-01,6.562487035989761353e-02,1.000000000000000000e+00,2.432686887914314866e-04,0.000000000000000000e+00
1.168572425842285156e+00,4.765241394042968750e+02,-2.449860000610351562e+01,-2.449860000610351562e+01,-6.460675597190856934e-02,-1.798843536376953125e+02,3.937165311072021723e-04,-1.755705833435058594e+01,-3.717553243041038513e-02,1.459877239540219307e-05,-1.344137310981750488e+00,-8.593108505010604858e-03,-6.574339204235002398e-05,-7.552668917924165726e-03,6.502777934074401855e-01,6.562487035989761353e-02,1.000000000000000000e+00,2.432686887914314866e-04,0.000000000000000000e+00
1.168572425842285156e+00,4.765241394042968750e+02,-2.449860000610351562e+01,-2.449860000610351562e+01,-6.460675597190856934e-02,-1.798843536376953125e+02,3.937165311072021723e-04,-1.755705833435058594e+01,-3.717553243041038513e-02,1.459877239540219307e-05,-1.344137310981750488e+00,-8.593108505010604858e-03,-6.574339204235002398e-05,-7.552668917924165726e-03,6.502777934074401855e-01,6.562487035989761353e-02,1.000000000000000000e+00,2.432686887914314866e-04,0.000000000000000000e+00
1.168572425842285156e+00,4.752311096191406250e+02,-2.450131988525390625e+01,-2.450131988525390625e+01,-2.642600052058696747e-02,-1.798790130615234375e+02,-1.220702906721271574e-04,-1.757345008850097656e+01,-3.809069469571113586e-02,7.561525308119598776e-06,-2.184156328439712524e-01,-1.219428610056638718e-02,-9.376939124194905162e-05,-7.868917658925056458e-03,3.806363940238952637e-01,7.433767616748809814e-02,1.000000000000000000e+00,2.338954363949596882e-04,0.000000000000000000e+00
1.243620872497558594e+00,4.752311096191406250e+02,-2.450131988525390625e+01,-2.450131988525390625e+01,-2.642600052058696747e-02,-1.798790130615234375e+02,-1.220702906721271574e-04,-1.757345008850097656e+01,-3.809069469571113586e-02,7.561525308119598776e-06,-2.184156328439712524e-01,-1.219428610056638718e-02,-9.376939124194905162e-05,-7.868917658925056458e-03,3.806363940238952637e-01,7.433767616748809814e-02,1.000000000000000000e+00,2.338954363949596882e-04,0.000000000000000000e+00
1.243620872497558594e+00,4.752311096191406250e+02,-2.450131988525390625e+01,-2.450131988525390625e+01,-2.642600052058696747e-02,-1.798790130615234375e+02,-1.220702906721271574e-04,-1.757345008850097656e+01,-3.809069469571113586e-02,7.561525308119598776e-06,-2.184156328439712524e-01,-1.219428610056638718e-02,-9.376939124194905162e-05,-7.868917658925056458e-03,3.806363940238952637e-01,7.433767616748809814e-02,1.000000000000000000e+00,2.338954363949596882e-04,0.000000000000000000e+00
1.243620872497558594e+00,4.752311096191406250e+02,-2.450131988525390625e+01,-2.450131988525390625e+01,-2.642600052058696747e-02,-1.798790130615234375e+02,-1.220702906721271574e-04,-1.757345008850097656e+01,-3.809069469571113586e-02,7.561525308119598776e-06,-2.184156328439712524e-01,-1.219428610056638718e-02,-9.376939124194905162e-05,-7.868917658925056458e-03,3.806363940238952637e-01,7.433767616748809814e-02,1.000000000000000000e+00,2.338954363949596882e-04,0.000000000000000000e+00
1.312042951583862305e+00,4.739134216308593750e+02,-2.450415229797363281e+01,-2.450415229797363281e+01,-8.640188723802566528e-03,-1.798740692138671875e+02,-4.577636136673390865e-04,-1.754600143432617188e+01,-3.869057446718215942e-02,-4.624626399163389578e-06,4.011666178703308105e-01,-8.767342194914817810e-03,-1.781026367098093033e-04,-4.582563415169715881e-03,1.613315194845199585e-01,6.122091040015220642e-02,1.000000000000000000e+00,1.325334887951612473e-04,0.000000000000000000e+00
1.312042951583862305e+00,4.739134216308593750e+02,-2.450415229797363281e+01,-2.450415229797363281e+01,-8.640188723802566528e-03,-1.798740692138671875e+02,-4.577636136673390865e-04,-1.754600143432617188e+01,-3.869057446718215942e-02,-4.624626399163389578e-06,4.011666178703308105e-01,-8.767342194914817810e-03,-1.781026367098093033e-04,-4.582563415169715881e-03,1.613315194845199585e-01,6.122091040015220642e-02,1.000000000000000000e+00,1.325334887951612473e-04,0.000000000000000000e+00
1.383129358291625977e+00,4.727138671875000000e+02,-2.450677680969238281e+01,-2.450677680969238281e+01,-2.110528293997049332e-03,-1.798707733154296875e+02,-5.798339843750000000e-04,-1.752098655700683594e+01,-3.900191187858581543e-02,-8.400720616918988526e-06,3.518939614295959473e-01,-4.379703663289546967e-03,-5.311977656674571335e-05,-1.828341395594179630e-03,6.223190948367118835e-02,4.095198214054107666e-02,1.000000000000000000e+00,3.487723370199091733e-05,0.000000000000000000e+00
1.383129358291625977e+00,4.727138671875000000e+02,-2.450677680969238281e+01,-2.450677680969238281e+01,-2.110528293997049332e-03,-1.798707733154296875e+02,-5.798339843750000000e-04,-1.752098655700683594e+01,-3.900191187858581543e-02,-8.400720616918988526e-06,3.518939614295959473e-01,-4.379703663289546967e-03,-5.311977656674571335e-05,-1.828341395594179630e-03,6.223190948367118835e-02,4.095198214054107666e-02,1.000000000000000000e+00,3.487723370199091733e-05,0.000000000000000000e+00
1.383129358291625977e+00,4.727138671875000000e+02,-2.450677680969238281e+01,-2.450677680969238281e+01,-2.110528293997049332e-03,-1.798707733154296875e+02,-5.798339843750000000e-04,-1.752098655700683594e+01,-3.900191187858581543e-02,-8.400720616918988526e-06,3.518939614295959473e-01,-4.379703663289546967e-03,-5.311977656674571335e-05,-1.828341395594179630e-03,6.223190948367118835e-02,4.095198214054107666e-02,1.000000000000000000e+00,3.487723370199091733e-05,0.000000000000000000e+00
1.450951814651489258e+00,4.714694824218750000e+02,-2.450953865051269531e+01,-2.450953865051269531e+01,9.562264312990009785e-05,-1.798687744140625000e+02,-6.103514460846781731e-04,-1.749503707885742188e+01,-3.924493119120597839e-02,-8.648596121929585934e-06,3.826089501380920410e-01,-3.583168843761086464e-03,-3.654770353023195639e-06,-5.564675666391849518e-04,1.488680671900510788e-02,2.103419974446296692e-02,1.000000000000000000e+00,-1.722063279885333031e-05,0.000000000000000000e+00
1.450951814651489258e+00,4.714694824218750000e+02,-2.450953865051269531e+01,-2.450953865051269531e+01,9.562264312990009785e-05,-1.798687744140625000e+02,-6.103514460846781731e-04,-1.749503707885742188e+01,-3.924493119120597839e-02,-8.648596121929585934e-06,3.826089501380920410e-01,-3.583168843761086464e-03,-3.654770353023195639e-06,-5.564675666391849518e-04,1.488680671900510788e-02,2.103419974446296692e-02,1.000000000000000000e+00,-1.722063279885333031e-05,0.000000000000000000e+00
1.450951814651489258e+00,4.714694824218750000e+02,-2.450953865051269531e+01,-2.450953865051269531e+01,9.562264312990009785e-05,-1.798687744140625000e+02,-6.103514460846781731e-04,-1.749503707885742188e+01,-3.924493119120597839e-02,-8.648596121929585934e-06,3.826089501380920410e-01,-3.583168843761086464e-03,-3.654770353023195639e-06,-5.564675666391849518e-04,1.488680671900510788e-02,2.103419974446296692e-02,1.000000000000000000e+00,-1.722063279885333031e-05,0.000000000000000000e+00
1.527701377868652344e+00,4.702839355468750000e+02,-2.451219177246093750e+01,-2.451219177246093750e+01,2.049056638497859240e-04,-1.798681793212890625e+02,-5.187987117096781731e-04,-1.747031784057617188e+01,-3.920136764645576477e-02,-7.533004918514052406e-06,3.220766186714172363e-01,5.676064174622297287e-04,1.453547338314820081e-05,1.263231737539172173e-03,-4.722798708826303482e-03,1.748670707456767559e-03,1.000000000000000000e+00,-7.672991341678425670e-05,0.000000000000000000e+00
1.527701377868652344e+00,4.702839355468750000e+02,-2.451219177246093750e+01,-2.451219177246093750e+01,2.049056638497859240e-04,-1.798681793212890625e+02,-5.187987117096781731e-04,-1.747031784057617188e+01,-3.920136764645576477e-02,-7.533004918514052406e-06,3.220766186714172363e-01,5.676064174622297287e-04,1.453547338314820081e-05,1.263231737539172173e-03,-4.722798708826303482e-03,1.748670707456767559e-03,1.000000000000000000e+00,-7.672991341678425670e-05,0.000000000000000000e+00
1.527701377868652344e+00,4.702839355468750000e+02,-2.451219177246093750e+01,-2.451219177246093750e+01,2.049056638497859240e-04,-1.798681793212890625e+02,-5.187987117096781731e-04,-1.747031784057617188e+01,-3.920136764645576477e-02,-7.533004918514052406e-06,3.220766186714172363e-01,5.676064174622297287e-04,1.453547338314820081e-05,1.263231737539172173e-03,-4.722798708826303482e-03,1.748670707456767559e-03,1.000000000000000000e+00,-7.672991341678425670e-05,0.000000000000000000e+00
1.600134611129760742e+00,4.689443664550781250e+02,-2.451519393920898438e+01,-2.451519393920898438e+01,-5.805660621263086796e-04,-1.798688964843750000e+02,-3.662109375000000000e-04,-1.744239616394042969e+01,-3.893769532442092896e-02,-5.597209110419498757e-06,3.854815661907196045e-01,3.640211885794997215e-03,2.672524351510219276e-05,2.289842581376433372e-03,-1.221212837845087051e-02,-1.607729122042655945e-02,1.000000000000000000e+00,-1.105172268580645323e-04,0.000000000000000000e+00
1.600134611129760742e+00,4.689443664550781250e+02,-2.451519393920898438e+01,-2.451519393920898438e+01,-5.805660621263086796e-04,-1.798688964843750000e+02,-3.662109375000000000e-04,-1.744239616394042969e+01,-3.893769532442092896e-02,-5.597209110419498757e-06,3.854815661907196045e-01,3.640211885794997215e-03,2.672524351510219276e-05,2.289842581376433372e-03,-1.221212837845087051e-02,-1.607729122042655945e-02,1.000000000000000000e+00,-1.105172268580645323e-04,0.000000000000000000e+00
1.600134611129760742e+00,4.689443664550781250e+02,-2.451519393920898438e+01,-2.451519393920898438e+01,-5.805660621263086796e-04,-1.798688964843750000e+02,-3.662109375000000000e-04,-1.744239616394042969e+01,-3.893769532442092896e-02,-5.597209110419498757e-06,3.854815661907196045e-01,3.640211885794997215e-03,2.672524351510219276e-05,2.289842581376433372e-03,-1.221212837845087051e-02,-1.607729122042655945e-02,1.000000000000000000e+00,-1.105172268580645323e-04,0.000000000000000000e+00
1.600134611129760742e+00,4.689443664550781250e+02,-2.451519393920898438e+01,-2.451519393920898438e+01,-5.805660621263086796e-04,-1.798688964843750000e+02,-3.662109375000000000e-04,-1.744239616394042969e+01,-3.893769532442092896e-02,-5.597209110419498757e-06,3.854815661907196045e-01,3.640211885794997215e-03,2.672524351510219276e-05,2.289842581376433372e-03,-1.221212837845087051e-02,-1.607729122042655945e-02,1.000000000000000000e+00,-1.105172268580645323e-04,0.000000000000000000e+00
1.600134611129760742e+00,4.689443664550781250e+02,-2.451519393920898438e+01,-2.451519393920898438e+01,-5.805660621263086796e-04,-1.798688964843750000e+02,-3.662109375000000000e-04,-1.744239616394042969e+01,-3.893769532442092896e-02,-5.597209110419498757e-06,3.854815661907196045e-01,3.640211885794997215e-03,2.672524351510219276e-05,2.289842581376433372e-03,-1.221212837845087051e-02,-1.607729122042655945e-02,1.000000000000000000e+00,-1.105172268580645323e-04,0.000000000000000000e+00
1.600134611129760742e+00,4.676820678710937500e+02,-2.451801681518554688e+01,-2.451801681518554688e+01,-1.495811389759182930e-03,-1.798705596923828125e+02,-1.831054833019152284e-04,-1.741609764099121094e+01,-3.857754915952682495e-02,-4.824893039767630398e-06,2.279319018125534058e-01,3.121422370895743370e-03,6.693740033369977027e-06,2.441282849758863449e-03,-1.265271287411451340e-02,-2.624788880348205566e-02,1.000000000000000000e+00,-1.150948664871975780e-04,0.000000000000000000e+00
1.715513467788696289e+00,4.676820678710937500e+02,-2.451801681518554688e+01,-2.451801681518554688e+01,-1.495811389759182930e-03,-1.798705596923828125e+02,-1.831054833019152284e-04,-1.741609764099121094e+01,-3.857754915952682495e-02,-4.824893039767630398e-06,2.279319018125534058e-01,3.121422370895743370e-03,6.693740033369977027e-06,2.441282849758863449e-03,-1.265271287411451340e-02,-2.624788880348205566e-02,1.000000000000000000e+00,-1.150948664871975780e-04,0.000000000000000000e+00
1.715513467788696289e+00,4.676820678710937500e+02,-2.451801681518554688e+01,-2.451801681518554688e+01,-1.495811389759182930e-03,-1.798705596923828125e+02,-1.831054833019152284e-04,-1.741609764099121094e+01,-3.857754915952682495e-02,-4.824893039767630398e-06,2.279319018125534058e-01,3.121422370895743370e-03,6.693740033369977027e-06,2.441282849758863449e-03,-1.265271287411451340e-02,-2.624788880348205566e-02,1.000000000000000000e+00,-1.150948664871975780e-04,0.000000000000000000e+00
1.715513467788696289e+00,4.659481201171875000e+02,-2.452186393737792969e+01,-2.452186393737792969e+01,-1.269732136279344559e-02,-1.798738555908203125e+02,4.204825745546258986e-05,-1.728704833984375000e+01,-3.781082481145858765e-02,-3.356374236318515614e-06,1.322204113006591797e+00,7.855649106204509735e-03,1.504604460933478549e-05,3.087654942646622658e-03,-1.384848952293395996e-01,-3.663940727710723877e-02,1.000000000000000000e+00,-9.242466330761089921e-05,0.000000000000000000e+00
1.813115119934082031e+00,4.659481201171875000e+02,-2.452186393737792969e+01,-2.452186393737792969e+01,-1.269732136279344559e-02,-1.798738555908203125e+02,4.204825745546258986e-05,-1.728704833984375000e+01,-3.781082481145858765e-02,-3.356374236318515614e-06,1.322204113006591797e+00,7.855649106204509735e-03,1.504604460933478549e-05,3.087654942646622658e-03,-1.384848952293395996e-01,-3.663940727710723877e-02,1.000000000000000000e+00,-9.242466330761089921e-05,0.000000000000000000e+00
1.813115119934082031e+00,4.659481201171875000e+02,-2.452186393737792969e+01,-2.452186393737792969e+01,-1.269732136279344559e-02,-1.798738555908203125e+02,4.204825745546258986e-05,-1.728704833984375000e+01,-3.781082481145858765e-02,-3.356374236318515614e-06,1.322204113006591797e+00,7.855649106204509735e-03,1.504604460933478549e-05,3.087654942646622658e-03,-1.384848952293395996e-01,-3.663940727710723877e-02,1.000000000000000000e+00,-9.242466330761089921e-05,0.000000000000000000e+00
1.813115119934082031e+00,4.659481201171875000e+02,-2.452186393737792969e+01,-2.452186393737792969e+01,-1.269732136279344559e-02,-1.798738555908203125e+02,4.204825745546258986e-05,-1.728704833984375000e+01,-3.781082481145858765e-02,-3.356374236318515614e-06,1.322204113006591797e+00,7.855649106204509735e-03,1.504604460933478549e-05,3.087654942646622658e-03,-1.384848952293395996e-01,-3.663940727710723877e-02,1.000000000000000000e+00,-9.242466330761089921e-05,0.000000000000000000e+00
1.813115119934082031e+00,4.642621459960937500e+02,-2.452556419372558594e+01,-2.452556419372558594e+01,-1.547720748931169510e-02,-1.798766479492187500e+02,1.977260253624990582e-04,-1.728245353698730469e+01,-3.737653046846389771e-02,-2.860557479777980916e-08,5.534591153264045715e-02,5.231218412518501282e-03,4.008406904176808894e-05,1.405166578479111195e-03,6.311613321304321289e-02,-2.226853370666503906e-02,1.000000000000000000e+00,-4.163469566265121102e-05,0.000000000000000000e+00
1.896134853363037109e+00,4.642621459960937500e+02,-2.452556419372558594e+01,-2.452556419372558594e+01,-1.547720748931169510e-02,-1.798766479492187500e+02,1.977260253624990582e-04,-1.728245353698730469e+01,-3.737653046846389771e-02,-2.860557479777980916e-08,5.534591153264045715e-02,5.231218412518501282e-03,4.008406904176808894e-05,1.405166578479111195e-03,6.311613321304321289e-02,-2.226853370666503906e-02,1.000000000000000000e+00,-4.163469566265121102e-05,0.000000000000000000e+00
1.896134853363037109e+00,4.642621459960937500e+02,-2.452556419372558594e+01,-2.452556419372558594e+01,-1.547720748931169510e-02,-1.798766479492187500e+02,1.977260253624990582e-04,-1.728245353698730469e+01,-3.737653046846389771e-02,-2.860557479777980916e-08,5.534591153264045715e-02,5.231218412518501282e-03,4.008406904176808894e-05,1.405166578479111195e-03,6.311613321304321289e-02,-2.226853370666503906e-02,1.000000000000000000e+00,-4.163469566265121102e-05,0.000000000000000000e+00
1.896134853363037109e+00,4.642621459960937500e+02,-2.452556419372558594e+01,-2.452556419372558594e+01,-1.547720748931169510e-02,-1.798766479492187500e+02,1.977260253624990582e-04,-1.728245353698730469e+01,-3.737653046846389771e-02,-2.860557479777980916e-08,5.534591153264045715e-02,5.231218412518501282e-03,4.008406904176808894e-05,1.405166578479111195e-03,6.311613321304321289e-02,-2.226853370666503906e-02,1.000000000000000000e+00,-4.163469566265121102e-05,0.000000000000000000e+00
1.896134853363037109e+00,4.642621459960937500e+02,-2.452556419372558594e+01,-2.452556419372558594e+01,-1.547720748931169510e-02,-1.798766479492187500e+02,1.977260253624990582e-04,-1.728245353698730469e+01,-3.737653046846389771e-02,-2.860557479777980916e-08,5.534591153264045715e-02,5.231218412518501282e-03,4.008406904176808894e-05,1.405166578479111195e-03,6.311613321304321289e-02,-2.226853370666503906e-02,1.000000000000000000e+00,-4.163469566265121102e-05,0.000000000000000000e+00
1.896134853363037109e+00,4.642621459960937500e+02,-2.452556419372558594e+01,-2.452556419372558594e+01,-1.547720748931169510e-02,-1.798766479492187500e+02,1.977260253624990582e-04,-1.728245353698730469e+01,-3.737653046846389771e-02,-2.860557479777980916e-08,5.534591153264045715e-02,5.231218412518501282e-03,4.008406904176808894e-05,1.405166578479111195e-03,6.311613321304321289e-02,-2.226853370666503906e-02,1.000000000000000000e+00,-4.163469566265121102e-05,0.000000000000000000e+00
1.896134853363037109e+00,4.642621459960937500e+02,-2.452556419372558594e+01,-2.452556419372558594e+01,-1.547720748931169510e-02,-1.798766479492187500e+02,1.977260253624990582e-04,-1.728245353698730469e+01,-3.737653046846389771e-02,-2.860557479777980916e-08,5.534591153264045715e-02,5.231218412518501282e-03,4.008406904176808894e-05,1.405166578479111195e-03,6.311613321304321289e-02,-2.226853370666503906e-02,1.000000000000000000e+00,-4.163469566265121102e-05,0.000000000000000000e+00
1.896134853363037109e+00,4.642621459960937500e+02,-2.452556419372558594e+01,-2.452556419372558594e+01,-1.547720748931169510e-02,-1.798766479492187500e+02,1.977260253624990582e-04,-1.728245353698730469e+01,-3.737653046846389771e-02,-2.860557479777980916e-08,5.534591153264045715e-02,5.231218412518501282e-03,4.008406904176808894e-05,1.405166578479111195e-03,6.311613321304321289e-02,-2.226853370666503906e-02,1.000000000000000000e+00,-4.163469566265121102e-05,0.000000000000000000e+00
2.195794820785522461e+00,4.595414733886718750e+02,-2.453573608398437500e+01,-2.453573608398437500e+01,4.289358481764793396e-02,-1.798748321533203125e+02,-1.831054687500000000e-04,-1.752528762817382812e+01,-3.808445483446121216e-02,-4.071594503329833969e-06,-3.306842446327209473e-01,-6.092186551541090012e-03,-3.467793430900201201e-05,-2.448301296681165695e-03,3.613816807046532631e-03,1.685289479792118073e-02,0.000000000000000000e+00,2.702985511859878898e-05,1.000000000000000000e+00
2.195794820785522461e+00,4.595414733886718750e+02,-2.453573608398437500e+01,-2.453573608398437500e+01,4.289358481764793396e-02,-1.798748321533203125e+02,-1.831054687500000000e-04,-1.752528762817382812e+01,-3.808445483446121216e-02,-4.071594503329833969e-06,-3.306842446327209473e-01,-6.092186551541090012e-03,-3.467793430900201201e-05,-2.448301296681165695e-03,3.613816807046532631e-03,1.685289479792118073e-02,0.000000000000000000e+00,2.702985511859878898e-05,1.000000000000000000e+00
2.195794820785522461e+00,4.595414733886718750e+02,-2.453573608398437500e+01,-2.453573608398437500e+01,4.289358481764793396e-02,-1.798748321533203125e+02,-1.831054687500000000e-04,-1.752528762817382812e+01,-3.808445483446121216e-02,-4.071594503329833969e-06,-3.306842446327209473e-01,-6.092186551541090012e-03,-3.467793430900201201e-05,-2.448301296681165695e-03,3.613816807046532631e-03,1.685289479792118073e-02,0.000000000000000000e+00,2.702985511859878898e-05,1.000000000000000000e+00
2.195794820785522461e+00,4.595414733886718750e+02,-2.453573608398437500e+01,-2.453573608398437500e+01,4.289358481764793396e-02,-1.798748321533203125e+02,-1.831054687500000000e-04,-1.752528762817382812e+01,-3.808445483446121216e-02,-4.071594503329833969e-06,-3.306842446327209473e-01,-6.092186551541090012e-03,-3.467793430900201201e-05,-2.448301296681165695e-03,3.613816807046532631e-03,1.685289479792118073e-02,0.000000000000000000e+00,2.702985511859878898e-05,1.000000000000000000e+00
2.195794820785522461e+00,4.595414733886718750e+02,-2.453573608398437500e+01,-2.453573608398437500e+01,4.289358481764793396e-02,-1.798748321533203125e+02,-1.831054687500000000e-04,-1.752528762817382812e+01,-3.808445483446121216e-02,-4.071594503329833969e-06,-3.306842446327209473e-01,-6.092186551541090012e-03,-3.467793430900201201e-05,-2.448301296681165695e-03,3.613816807046532631e-03,1.685289479792118073e-02,0.000000000000000000e+00,2.702985511859878898e-05,1.000000000000000000e+00
2.195794820785522461e+00,4.595414733886718750e+02,-2.453573608398437500e+01,-2.453573608398437500e+01,4.289358481764793396e-02,-1.798748321533203125e+02,-1.831054687500000000e-04,-1.752528762817382812e+01,-3.808445483446121216e-02,-4.071594503329833969e-06,-3.306842446327209473e-01,-6.092186551541090012e-03,-3.467793430900201201e-05,-2.448301296681165695e-03,3.613816807046532631e-03,1.685289479792118073e-02,0.000000000000000000e+00,2.702985511859878898e-05,1.000000000000000000e+00
2.195794820785522461e+00,4.595414733886718750e+02,-2.453573608398437500e+01,-2.453573608398437500e+01,4.289358481764793396e-02,-1.798748321533203125e+02,-1.831054687500000000e-04,-1.752528762817382812e+01,-3.808445483446121216e-02,-4.071594503329833969e-06,-3.306842446327209473e-01,-6.092186551541090012e-03,-3.467793430900201201e-05,-2.448301296681165695e-03,3.613816807046532631e-03,1.685289479792118073e-02,0.000000000000000000e+00,2.702985511859878898e-05,1.000000000000000000e+00
2.195794820785522461e+00,4.595414733886718750e+02,-2.453573608398437500e+01,-2.453573608398437500e+01,4.289358481764793396e-02,-1.798748321533203125e+02,-1.831054687500000000e-04,-1.752528762817382812e+01,-3.808445483446121216e-02,-4.071594503329833969e-06,-3.306842446327209473e-01,-6.092186551541090012e-03,-3.467793430900201201e-05,-2.448301296681165695e-03,3.613816807046532631e-03,1.685289479792118073e-02,0.000000000000000000e+00,2.702985511859878898e-05,1.000000000000000000e+00
2.195794820785522461e+00,4.595414733886718750e+02,-2.453573608398437500e+01,-2.453573608398437500e+01,4.289358481764793396e-02,-1.798748321533203125e+02,-1.831054687500000000e-04,-1.752528762817382812e+01,-3.808445483446121216e-02,-4.071594503329833969e-06,-3.306842446327209473e-01,-6.092186551541090012e-03,-3.467793430900201201e-05,-2.448301296681165695e-03,3.613816807046532631e-03,1.685289479792118073e-02,0.000000000000000000e+00,2.702985511859878898e-05,1.000000000000000000e+00
2.195794820785522461e+00,4.595414733886718750e+02,-2.453573608398437500e+01,-2.453573608398437500e+01,4.289358481764793396e-02,-1.798748321533203125e+02,-1.831054687500000000e-04,-1.752528762817382812e+01,-3.808445483446121216e-02,-4.071594503329833969e-06,-3.306842446327209473e-01,-6.092186551541090012e-03,-3.467793430900201201e-05,-2.448301296681165695e-03,3.613816807046532631e-03,1.685289479792118073e-02,0.000000000000000000e+00,2.702985511859878898e-05,1.000000000000000000e+00
2.374083757400512695e+00,4.586177978515625000e+02,-2.453774642944335938e+01,-2.453774642944335938e+01,2.725245244801044464e-02,-1.798745727539062500e+02,-2.441405813442543149e-04,-1.731277847290039062e+01,-3.772561997175216675e-02,-4.281429482944076881e-06,1.191936850547790527e+00,2.012659097090363503e-03,-1.176937757918494754e-06,7.338686264120042324e-04,-4.919261038303375244e-01,-4.416095092892646790e-03,0.000000000000000000e+00,3.923688836948713288e-06,1.000000000000000000e+00
2.374083757400512695e+00,4.586177978515625000e+02,-2.453774642944335938e+01,-2.453774642944335938e+01,2.725245244801044464e-02,-1.798745727539062500e+02,-2.441405813442543149e-04,-1.731277847290039062e+01,-3.772561997175216675e-02,-4.281429482944076881e-06,1.191936850547790527e+00,2.012659097090363503e-03,-1.176937757918494754e-06,7.338686264120042324e-04,-4.919261038303375244e-01,-4.416095092892646790e-03,0.000000000000000000e+00,3.923688836948713288e-06,1.000000000000000000e+00
2.374083757400512695e+00,4.586177978515625000e+02,-2.453774642944335938e+01,-2.453774642944335938e+01,2.725245244801044464e-02,-1.798745727539062500e+02,-2.441405813442543149e-04,-1.731277847290039062e+01,-3.772561997175216675e-02,-4.281429482944076881e-06,1.191936850547790527e+00,2.012659097090363503e-03,-1.176937757918494754e-06,7.338686264120042324e-04,-4.919261038303375244e-01,-4.416095092892646790e-03,0.000000000000000000e+00,3.923688836948713288e-06,1.000000000000000000e+00
2.447860002517700195e+00,4.569167480468750000e+02,-2.454148101806640625e+01,-2.454148101806640625e+01,-4.785230383276939392e-02,-1.798774414062500000e+02,-3.051756903005298227e-05,-1.688895797729492188e+01,-3.671570122241973877e-02,-3.241952072130516171e-06,5.744674205780029297e+00,1.368894241750240326e-02,1.408959542459342629e-05,4.815717693418264389e-03,-6.008772253990173340e-01,-3.417082875967025757e-02,1.000000000000000000e+00,1.743861616887443233e-06,0.000000000000000000e+00
2.447860002517700195e+00,4.569167480468750000e+02,-2.454148101806640625e+01,-2.454148101806640625e+01,-4.785230383276939392e-02,-1.798774414062500000e+02,-3.051756903005298227e-05,-1.688895797729492188e+01,-3.671570122241973877e-02,-3.241952072130516171e-06,5.744674205780029297e+00,1.368894241750240326e-02,1.408959542459342629e-05,4.815717693418264389e-03,-6.008772253990173340e-01,-3.417082875967025757e-02,1.000000000000000000e+00,1.743861616887443233e-06,0.000000000000000000e+00
2.500878810882568359e+00,4.556770935058593750e+02,-2.454419326782226562e+01,-2.454419326782226562e+01,-7.702404260635375977e-02,-1.798793945312500000e+02,1.184019420179538429e-04,-1.671652984619140625e+01,-3.623601421713829041e-02,2.965489329653792083e-06,3.252206802368164062e+00,9.047487750649452209e-03,1.170799878309480846e-04,2.843333408236503601e-03,-3.792763650417327881e-01,-2.643232606351375580e-02,0.000000000000000000e+00,5.253382914816029370e-05,1.000000000000000000e+00
2.500878810882568359e+00,4.556770935058593750e+02,-2.454419326782226562e+01,-2.454419326782226562e+01,-7.702404260635375977e-02,-1.798793945312500000e+02,1.184019420179538429e-04,-1.671652984619140625e+01,-3.623601421713829041e-02,2.965489329653792083e-06,3.252206802368164062e+00,9.047487750649452209e-03,1.170799878309480846e-04,2.843333408236503601e-03,-3.792763650417327881e-01,-2.643232606351375580e-02,0.000000000000000000e+00,5.253382914816029370e-05,1.000000000000000000e+00
2.560195446014404297e+00,4.548001403808593750e+02,-2.454611015319824219e+01,-2.454611015319824219e+01,-1.033885702490806580e-01,-1.798810272216796875e+02,1.966720883501693606e-04,-1.642155647277832031e+01,-3.555195033550262451e-02,4.300501132092904299e-06,4.972860813140869141e+00,1.153241191059350967e-02,2.250653233204502612e-05,3.001789562404155731e-03,-5.972059369087219238e-01,-3.520651906728744507e-02,0.000000000000000000e+00,8.741106285015121102e-05,1.000000000000000000e+00
2.560195446014404297e+00,4.548001403808593750e+02,-2.454611015319824219e+01,-2.454611015319824219e+01,-1.033885702490806580e-01,-1.798810272216796875e+02,1.966720883501693606e-04,-1.642155647277832031e+01,-3.555195033550262451e-02,4.300501132092904299e-06,4.972860813140869141e+00,1.153241191059350967e-02,2.250653233204502612e-05,3.001789562404155731e-03,-5.972059369087219238e-01,-3.520651906728744507e-02,0.000000000000000000e+00,8.741106285015121102e-05,1.000000000000000000e+00
2.560195446014404297e+00,4.548001403808593750e+02,-2.454611015319824219e+01,-2.454611015319824219e+01,-1.033885702490806580e-01,-1.798810272216796875e+02,1.966720883501693606e-04,-1.642155647277832031e+01,-3.555195033550262451e-02,4.300501132092904299e-06,4.972860813140869141e+00,1.153241191059350967e-02,2.250653233204502612e-05,3.001789562404155731e-03,-5.972059369087219238e-01,-3.520651906728744507e-02,0.000000000000000000e+00,8.741106285015121102e-05,1.000000000000000000e+00
2.618730545043945312e+00,4.538414001464843750e+02,-2.454821395874023438e+01,-2.454821395874023438e+01,-1.467875838279724121e-01,-1.798835601806640625e+02,3.089573874603956938e-04,-1.603854370117187500e+01,-3.467064350843429565e-02,6.579376758963917382e-07,6.543301105499267578e+00,1.505604013800621033e-02,-6.222870433703064919e-05,4.193938337266445160e-03,-7.150523662567138672e-01,-4.492196440696716309e-02,5.000000000000000000e-01,1.292637462029233575e-04,0.000000000000000000e+00
2.618730545043945312e+00,4.538414001464843750e+02,-2.454821395874023438e+01,-2.454821395874023438e+01,-1.467875838279724121e-01,-1.798835601806640625e+02,3.089573874603956938e-04,-1.603854370117187500e+01,-3.467064350843429565e-02,6.579376758963917382e-07,6.543301105499267578e+00,1.505604013800621033e-02,-6.222870433703064919e-05,4.193938337266445160e-03,-7.150523662567138672e-01,-4.492196440696716309e-02,5.000000000000000000e-01,1.292637462029233575e-04,0.000000000000000000e+00
2.677334070205688477e+00,4.529091186523437500e+02,-2.455024147033691406e+01,-2.455024147033691406e+01,-1.728515923023223877e-01,-1.798854370117187500e+02,4.692188231274485588e-04,-1.588235092163085938e+01,-3.411929309368133545e-02,4.386259604416409275e-07,2.665245532989501953e+00,9.408144280314445496e-03,-3.742295575648313388e-06,3.371878992766141891e-03,-2.726830542087554932e-01,-2.264753729104995728e-02,5.000000000000000000e-01,1.637050154386088252e-04,0.000000000000000000e+00
2.677334070205688477e+00,4.529091186523437500e+02,-2.455024147033691406e+01,-2.455024147033691406e+01,-1.728515923023223877e-01,-1.798854370117187500e+02,4.692188231274485588e-04,-1.588235092163085938e+01,-3.411929309368133545e-02,4.386259604416409275e-07,2.665245532989501953e+00,9.408144280314445496e-03,-3.742295575648313388e-06,3.371878992766141891e-03,-2.726830542087554932e-01,-2.264753729104995728e-02,5.000000000000000000e-01,1.637050154386088252e-04,0.000000000000000000e+00
2.677334070205688477e+00,4.529091186523437500e+02,-2.455024147033691406e+01,-2.455024147033691406e+01,-1.728515923023223877e-01,-1.798854370117187500e+02,4.692188231274485588e-04,-1.588235092163085938e+01,-3.411929309368133545e-02,4.386259604416409275e-07,2.665245532989501953e+00,9.408144280314445496e-03,-3.742295575648313388e-06,3.371878992766141891e-03,-2.726830542087554932e-01,-2.264753729104995728e-02,5.000000000000000000e-01,1.637050154386088252e-04,0.000000000000000000e+00
2.677334070205688477e+00,4.529091186523437500e+02,-2.455024147033691406e+01,-2.455024147033691406e+01,-1.728515923023223877e-01,-1.798854370117187500e+02,4.692188231274485588e-04,-1.588235092163085938e+01,-3.411929309368133545e-02,4.386259604416409275e-07,2.665245532989501953e+00,9.408144280314445496e-03,-3.742295575648313388e-06,3.371878992766141891e-03,-2.726830542087554932e-01,-2.264753729104995728e-02,5.000000000000000000e-01,1.637050154386088252e-04,0.000000000000000000e+00
2.755024909973144531e+00,4.519823608398437500e+02,-2.455223655700683594e+01,-2.455223655700683594e+01,-1.766628324985504150e-01,-1.798857269287109375e+02,5.093911895528435707e-04,-1.577713680267333984e+01,-3.388515487313270569e-02,5.940520622971234843e-06,1.354266762733459473e+00,3.013717243447899818e-03,7.081780495354905725e-05,1.829193206503987312e-05,3.745016455650329590e-02,3.656731918454170227e-03,5.000000000000000000e-01,2.190726081607863307e-04,0.000000000000000000e+00
2.755024909973144531e+00,4.519823608398437500e+02,-2.455223655700683594e+01,-2.455223655700683594e+01,-1.766628324985504150e-01,-1.798857269287109375e+02,5.093911895528435707e-04,-1.577713680267333984e+01,-3.388515487313270569e-02,5.940520622971234843e-06,1.354266762733459473e+00,3.013717243447899818e-03,7.081780495354905725e-05,1.829193206503987312e-05,3.745016455650329590e-02,3.656731918454170227e-03,5.000000000000000000e-01,2.190726081607863307e-04,0.000000000000000000e+00
2.755024909973144531e+00,4.519823608398437500e+02,-2.455223655700683594e+01,-2.455223655700683594e+01,-1.766628324985504150e-01,-1.798857269287109375e+02,5.093911895528435707e-04,-1.577713680267333984e+01,-3.388515487313270569e-02,5.940520622971234843e-06,1.354266762733459473e+00,3.013717243447899818e-03,7.081780495354905725e-05,1.829193206503987312e-05,3.745016455650329590e-02,3.656731918454170227e-03,5.000000000000000000e-01,2.190726081607863307e-04,0.000000000000000000e+00
2.830169916152954102e+00,4.507619018554687500e+02,-2.455475807189941406e+01,-2.455475807189941406e+01,-1.631185710430145264e-01,-1.798868713378906250e+02,1.163644948974251747e-03,-1.566477966308593750e+01,-3.152539953589439392e-02,1.345425334875471890e-05,1.495204329490661621e+00,3.140268847346305847e-02,9.998978202929720283e-05,6.715367082506418228e-03,2.410383522510528564e-01,-2.403760328888893127e-02,5.000000000000000000e-01,-1.318795402767136693e-04,0.000000000000000000e+00
2.830169916152954102e+00,4.507619018554687500e+02,-2.455475807189941406e+01,-2.455475807189941406e+01,-1.631185710430145264e-01,-1.798868713378906250e+02,1.163644948974251747e-03,-1.566477966308593750e+01,-3.152539953589439392e-02,1.345425334875471890e-05,1.495204329490661621e+00,3.140268847346305847e-02,9.998978202929720283e-05,6.715367082506418228e-03,2.410383522510528564e-01,-2.403760328888893127e-02,5.000000000000000000e-01,-1.318795402767136693e-04,0.000000000000000000e+00
2.830169916152954102e+00,4.507619018554687500e+02,-2.455475807189941406e+01,-2.455475807189941406e+01,-1.631185710430145264e-01,-1.798868713378906250e+02,1.163644948974251747e-03,-1.566477966308593750e+01,-3.152539953589439392e-02,1.345425334875471890e-05,1.495204329490661621e+00,3.140268847346305847e-02,9.998978202929720283e-05,6.715367082506418228e-03,2.410383522510528564e-01,-2.403760328888893127e-02,5.000000000000000000e-01,-1.318795402767136693e-04,0.000000000000000000e+00
2.830169916152954102e+00,4.507619018554687500e+02,-2.455475807189941406e+01,-2.455475807189941406e+01,-1.631185710430145264e-01,-1.798868713378906250e+02,1.163644948974251747e-03,-1.566477966308593750e+01,-3.152539953589439392e-02,1.345425334875471890e-05,1.495204329490661621e+00,3.140268847346305847e-02,9.998978202929720283e-05,6.715367082506418228e-03,2.410383522510528564e-01,-2.403760328888893127e-02,5.000000000000000000e-01,-1.318795402767136693e-04,0.000000000000000000e+00
2.830169916152954102e+00,4.507619018554687500e+02,-2.455475807189941406e+01,-2.455475807189941406e+01,-1.631185710430145264e-01,-1.798868713378906250e+02,1.163644948974251747e-03,-1.566477966308593750e+01,-3.152539953589439392e-02,1.345425334875471890e-05,1.495204329490661621e+00,3.140268847346305847e-02,9.998978202929720283e-05,6.715367082506418228e-03,2.410383522510528564e-01,-2.403760328888893127e-02,5.000000000000000000e-01,-1.318795402767136693e-04,0.000000000000000000e+00
