# Time,X,Y,Z,Roll,Pitch,Yaw,Vx,Vy,Vz,Ax,Ay,Az,Wx,Wy,Wz,Throttle,Steer,Brake
0.000000000000000000e+00,1.752735290527343750e+02,4.873501968383789062e+01,4.873501968383789062e+01,-2.868679352104663849e-02,-5.996702238917350769e-02,2.114054223056882620e-04,1.692086601257324219e+01,-1.655623130500316620e-02,1.495149899710668251e-05,-5.643815040588378906e+00,8.072211639955639839e-04,4.285543764126487076e-05,-6.112291477620601654e-03,1.107994437217712402e+00,-7.142008095979690552e-02,1.000000000000000000e+00,-2.790801227092742920e-05,0.000000000000000000e+00
1.045818328857421875e-01,1.752735290527343750e+02,4.873501968383789062e+01,4.873501968383789062e+01,-2.868679352104663849e-02,-5.996702238917350769e-02,2.114054223056882620e-04,1.692086601257324219e+01,-1.655623130500316620e-02,1.495149899710668251e-05,-5.643815040588378906e+00,8.072211639955639839e-04,4.285543764126487076e-05,-6.112291477620601654e-03,1.107994437217712402e+00,-7.142008095979690552e-02,1.000000000000000000e+00,-2.790801227092742920e-05,0.000000000000000000e+00
1.045818328857421875e-01,1.752735290527343750e+02,4.873501968383789062e+01,4.873501968383789062e+01,-2.868679352104663849e-02,-5.996702238917350769e-02,2.114054223056882620e-04,1.692086601257324219e+01,-1.655623130500316620e-02,1.495149899710668251e-05,-5.643815040588378906e+00,8.072211639955639839e-04,4.285543764126487076e-05,-6.112291477620601654e-03,1.107994437217712402e+00,-7.142008095979690552e-02,1.000000000000000000e+00,-2.790801227092742920e-05,0.000000000000000000e+00
1.045818328857421875e-01,1.752735290527343750e+02,4.873501968383789062e+01,4.873501968383789062e+01,-2.868679352104663849e-02,-5.996702238917350769e-02,2.114054223056882620e-04,1.692086601257324219e+01,-1.655623130500316620e-02,1.495149899710668251e-05,-5.643815040588378906e+00,8.072211639955639839e-04,4.285543764126487076e-05,-6.112291477620601654e-03,1.107994437217712402e+00,-7.142008095979690552e-02,1.000000000000000000e+00,-2.790801227092742920e-05,0.000000000000000000e+00
1.045818328857421875e-01,1.752735290527343750e+02,4.873501968383789062e+01,4.873501968383789062e+01,-2.868679352104663849e-02,-5.996702238917350769e-02,2.114054223056882620e-04,1.692086601257324219e+01,-1.655623130500316620e-02,1.495149899710668251e-05,-5.643815040588378906e+00,8.072211639955639839e-04,4.285543764126487076e-05,-6.112291477620601654e-03,1.107994437217712402e+00,-7.142008095979690552e-02,1.000000000000000000e+00,-2.790801227092742920e-05,0.000000000000000000e+00
1.045818328857421875e-01,1.752735290527343750e+02,4.873501968383789062e+01,4.873501968383789062e+01,-2.868679352104663849e-02,-5.996702238917350769e-02,2.114054223056882620e-04,1.692086601257324219e+01,-1.655623130500316620e-02,1.495149899710668251e-05,-5.643815040588378906e+00,8.072211639955639839e-04,4.285543764126487076e-05,-6.112291477620601654e-03,1.107994437217712402e+00,-7.142008095979690552e-02,1.000000000000000000e+00,-2.790801227092742920e-05,0.000000000000000000e+00
1.045818328857421875e-01,1.769447937011718750e+02,4.873336791992187500e+01,4.873336791992187500e+01,-9.267883002758026123e-02,-6.433105468750000000e-02,7.823155028745532036e-04,1.661553001403808594e+01,-1.682981848716735840e-02,1.273896486964076757e-05,-2.916045904159545898e+00,-2.612835727632045746e-03,-2.113033224304672331e-05,-5.192292388528585434e-03,2.935490906238555908e-01,-2.480617538094520569e-02,1.000000000000000000e+00,7.782657485222443938e-05,0.000000000000000000e+00
2.092907428741455078e-01,1.769447937011718750e+02,4.873336791992187500e+01,4.873336791992187500e+01,-9.267883002758026123e-02,-6.433105468750000000e-02,7.823155028745532036e-04,1.661553001403808594e+01,-1.682981848716735840e-02,1.273896486964076757e-05,-2.916045904159545898e+00,-2.612835727632045746e-03,-2.113033224304672331e-05,-5.192292388528585434e-03,2.935490906238555908e-01,-2.480617538094520569e-02,1.000000000000000000e+00,7.782657485222443938e-05,0.000000000000000000e+00
2.092907428741455078e-01,1.769447937011718750e+02,4.873336791992187500e+01,4.873336791992187500e+01,-9.267883002758026123e-02,-6.433105468750000000e-02,7.823155028745532036e-04,1.661553001403808594e+01,-1.682981848716735840e-02,1.273896486964076757e-05,-2.916045904159545898e+00,-2.612835727632045746e-03,-2.113033224304672331e-05,-5.192292388528585434e-03,2.935490906238555908e-01,-2.480617538094520569e-02,1.000000000000000000e+00,7.782657485222443938e-05,0.000000000000000000e+00
2.092907428741455078e-01,1.769447937011718750e+02,4.873336791992187500e+01,4.873336791992187500e+01,-9.267883002758026123e-02,-6.433105468750000000e-02,7.823155028745532036e-04,1.661553001403808594e+01,-1.682981848716735840e-02,1.273896486964076757e-05,-2.916045904159545898e+00,-2.612835727632045746e-03,-2.113033224304672331e-05,-5.192292388528585434e-03,2.935490906238555908e-01,-2.480617538094520569e-02,1.000000000000000000e+00,7.782657485222443938e-05,0.000000000000000000e+00
2.092907428741455078e-01,1.769447937011718750e+02,4.873336791992187500e+01,4.873336791992187500e+01,-9.267883002758026123e-02,-6.433105468750000000e-02,7.823155028745532036e-04,1.661553001403808594e+01,-1.682981848716735840e-02,1.273896486964076757e-05,-2.916045904159545898e+00,-2.612835727632045746e-03,-2.113033224304672331e-05,-5.192292388528585434e-03,2.935490906238555908e-01,-2.480617538094520569e-02,1.000000000000000000e+00,7.782657485222443938e-05,0.000000000000000000e+00
2.092907428741455078e-01,1.786019134521484375e+02,4.873169708251953125e+01,4.873169708251953125e+01,-8.834849298000335693e-02,-6.277465075254440308e-02,7.305609178729355335e-04,1.655443572998046875e+01,-1.651307009160518646e-02,1.823121419874951243e-05,-8.187543153762817383e-01,4.244899842888116837e-03,7.360431482084095478e-05,2.782381372526288033e-03,-2.014619261026382446e-01,3.765910118818283081e-02,1.000000000000000000e+00,1.949092838913202286e-04,0.000000000000000000e+00
2.839093208312988281e-01,1.786019134521484375e+02,4.873169708251953125e+01,4.873169708251953125e+01,-8.834849298000335693e-02,-6.277465075254440308e-02,7.305609178729355335e-04,1.655443572998046875e+01,-1.651307009160518646e-02,1.823121419874951243e-05,-8.187543153762817383e-01,4.244899842888116837e-03,7.360431482084095478e-05,2.782381372526288033e-03,-2.014619261026382446e-01,3.765910118818283081e-02,1.000000000000000000e+00,1.949092838913202286e-04,0.000000000000000000e+00
2.839093208312988281e-01,1.786019134521484375e+02,4.873169708251953125e+01,4.873169708251953125e+01,-8.834849298000335693e-02,-6.277465075254440308e-02,7.305609178729355335e-04,1.655443572998046875e+01,-1.651307009160518646e-02,1.823121419874951243e-05,-8.187543153762817383e-01,4.244899842888116837e-03,7.360431482084095478e-05,2.782381372526288033e-03,-2.014619261026382446e-01,3.765910118818283081e-02,1.000000000000000000e+00,1.949092838913202286e-04,0.000000000000000000e+00
2.839093208312988281e-01,1.786019134521484375e+02,4.873169708251953125e+01,4.873169708251953125e+01,-8.834849298000335693e-02,-6.277465075254440308e-02,7.305609178729355335e-04,1.655443572998046875e+01,-1.651307009160518646e-02,1.823121419874951243e-05,-8.187543153762817383e-01,4.244899842888116837e-03,7.360431482084095478e-05,2.782381372526288033e-03,-2.014619261026382446e-01,3.765910118818283081e-02,1.000000000000000000e+00,1.949092838913202286e-04,0.000000000000000000e+00
2.839093208312988281e-01,1.786019134521484375e+02,4.873169708251953125e+01,4.873169708251953125e+01,-8.834849298000335693e-02,-6.277465075254440308e-02,7.305609178729355335e-04,1.655443572998046875e+01,-1.651307009160518646e-02,1.823121419874951243e-05,-8.187543153762817383e-01,4.244899842888116837e-03,7.360431482084095478e-05,2.782381372526288033e-03,-2.014619261026382446e-01,3.765910118818283081e-02,1.000000000000000000e+00,1.949092838913202286e-04,0.000000000000000000e+00
3.569011688232421875e-01,1.798361511230468750e+02,4.873047637939453125e+01,4.873047637939453125e+01,-7.070611417293548584e-02,-5.895995721220970154e-02,3.449269279371947050e-04,1.652901077270507812e+01,-1.597916521131992340e-02,1.548535874462686479e-05,-3.483259975910186768e-01,7.314582355320453644e-03,-3.761865809792652726e-05,6.289012264460325241e-03,-2.446001321077346802e-01,5.764783918857574463e-02,1.000000000000000000e+00,1.970151497516781092e-04,0.000000000000000000e+00
3.569011688232421875e-01,1.798361511230468750e+02,4.873047637939453125e+01,4.873047637939453125e+01,-7.070611417293548584e-02,-5.895995721220970154e-02,3.449269279371947050e-04,1.652901077270507812e+01,-1.597916521131992340e-02,1.548535874462686479e-05,-3.483259975910186768e-01,7.314582355320453644e-03,-3.761865809792652726e-05,6.289012264460325241e-03,-2.446001321077346802e-01,5.764783918857574463e-02,1.000000000000000000e+00,1.970151497516781092e-04,0.000000000000000000e+00
3.569011688232421875e-01,1.798361511230468750e+02,4.873047637939453125e+01,4.873047637939453125e+01,-7.070611417293548584e-02,-5.895995721220970154e-02,3.449269279371947050e-04,1.652901077270507812e+01,-1.597916521131992340e-02,1.548535874462686479e-05,-3.483259975910186768e-01,7.314582355320453644e-03,-3.761865809792652726e-05,6.289012264460325241e-03,-2.446001321077346802e-01,5.764783918857574463e-02,1.000000000000000000e+00,1.970151497516781092e-04,0.000000000000000000e+00
3.569011688232421875e-01,1.798361511230468750e+02,4.873047637939453125e+01,4.873047637939453125e+01,-7.070611417293548584e-02,-5.895995721220970154e-02,3.449269279371947050e-04,1.652901077270507812e+01,-1.597916521131992340e-02,1.548535874462686479e-05,-3.483259975910186768e-01,7.314582355320453644e-03,-3.761865809792652726e-05,6.289012264460325241e-03,-2.446001321077346802e-01,5.764783918857574463e-02,1.000000000000000000e+00,1.970151497516781092e-04,0.000000000000000000e+00
4.765405654907226562e-01,1.810416717529296875e+02,4.872931671142578125e+01,4.872931671142578125e+01,-5.410875380039215088e-02,-5.502318963408470154e-02,-6.103515261202119291e-05,1.650420761108398438e+01,-1.553474366664886475e-02,1.315878398600034416e-05,-2.073160111904144287e-01,3.714675549417734146e-03,-1.944656105479225516e-05,5.610221065580844879e-03,-2.122261971235275269e-01,5.206596851348876953e-02,1.000000000000000000e+00,1.242614816874265671e-04,0.000000000000000000e+00
4.765405654907226562e-01,1.810416717529296875e+02,4.872931671142578125e+01,4.872931671142578125e+01,-5.410875380039215088e-02,-5.502318963408470154e-02,-6.103515261202119291e-05,1.650420761108398438e+01,-1.553474366664886475e-02,1.315878398600034416e-05,-2.073160111904144287e-01,3.714675549417734146e-03,-1.944656105479225516e-05,5.610221065580844879e-03,-2.122261971235275269e-01,5.206596851348876953e-02,1.000000000000000000e+00,1.242614816874265671e-04,0.000000000000000000e+00
4.765405654907226562e-01,1.810416717529296875e+02,4.872931671142578125e+01,4.872931671142578125e+01,-5.410875380039215088e-02,-5.502318963408470154e-02,-6.103515261202119291e-05,1.650420761108398438e+01,-1.553474366664886475e-02,1.315878398600034416e-05,-2.073160111904144287e-01,3.714675549417734146e-03,-1.944656105479225516e-05,5.610221065580844879e-03,-2.122261971235275269e-01,5.206596851348876953e-02,1.000000000000000000e+00,1.242614816874265671e-04,0.000000000000000000e+00
4.765405654907226562e-01,1.810416717529296875e+02,4.872931671142578125e+01,4.872931671142578125e+01,-5.410875380039215088e-02,-5.502318963408470154e-02,-6.103515261202119291e-05,1.650420761108398438e+01,-1.553474366664886475e-02,1.315878398600034416e-05,-2.073160111904144287e-01,3.714675549417734146e-03,-1.944656105479225516e-05,5.610221065580844879e-03,-2.122261971235275269e-01,5.206596851348876953e-02,1.000000000000000000e+00,1.242614816874265671e-04,0.000000000000000000e+00
4.765405654907226562e-01,1.810416717529296875e+02,4.872931671142578125e+01,4.872931671142578125e+01,-5.410875380039215088e-02,-5.502318963408470154e-02,-6.103515261202119291e-05,1.650420761108398438e+01,-1.553474366664886475e-02,1.315878398600034416e-05,-2.073160111904144287e-01,3.714675549417734146e-03,-1.944656105479225516e-05,5.610221065580844879e-03,-2.122261971235275269e-01,5.206596851348876953e-02,1.000000000000000000e+00,1.242614816874265671e-04,0.000000000000000000e+00
4.765405654907226562e-01,1.810416717529296875e+02,4.872931671142578125e+01,4.872931671142578125e+01,-5.410875380039215088e-02,-5.502318963408470154e-02,-6.103515261202119291e-05,1.650420761108398438e+01,-1.553474366664886475e-02,1.315878398600034416e-05,-2.073160111904144287e-01,3.714675549417734146e-03,-1.944656105479225516e-05,5.610221065580844879e-03,-2.122261971235275269e-01,5.206596851348876953e-02,1.000000000000000000e+00,1.242614816874265671e-04,0.000000000000000000e+00
4.765405654907226562e-01,1.810416717529296875e+02,4.872931671142578125e+01,4.872931671142578125e+01,-5.410875380039215088e-02,-5.502318963408470154e-02,-6.103515261202119291e-05,1.650420761108398438e+01,-1.553474366664886475e-02,1.315878398600034416e-05,-2.073160111904144287e-01,3.714675549417734146e-03,-1.944656105479225516e-05,5.610221065580844879e-03,-2.122261971235275269e-01,5.206596851348876953e-02,1.000000000000000000e+00,1.242614816874265671e-04,0.000000000000000000e+00
6.200885772705078125e-01,1.826902923583984375e+02,4.872777557373046875e+01,4.872777557373046875e+01,-3.625464066863059998e-02,-5.123900249600410461e-02,-4.882811626885086298e-04,1.647030448913574219e+01,-1.499180868268013000e-02,7.761615052004344761e-06,-2.361796796321868896e-01,3.782253712415695190e-03,-3.759835453820414841e-05,3.988526761531829834e-03,-1.497861593961715698e-01,3.079468943178653717e-02,1.000000000000000000e+00,5.186195630813017488e-05,0.000000000000000000e+00
6.200885772705078125e-01,1.826902923583984375e+02,4.872777557373046875e+01,4.872777557373046875e+01,-3.625464066863059998e-02,-5.123900249600410461e-02,-4.882811626885086298e-04,1.647030448913574219e+01,-1.499180868268013000e-02,7.761615052004344761e-06,-2.361796796321868896e-01,3.782253712415695190e-03,-3.759835453820414841e-05,3.988526761531829834e-03,-1.497861593961715698e-01,3.079468943178653717e-02,1.000000000000000000e+00,5.186195630813017488e-05,0.000000000000000000e+00
6.200885772705078125e-01,1.826902923583984375e+02,4.872777557373046875e+01,4.872777557373046875e+01,-3.625464066863059998e-02,-5.123900249600410461e-02,-4.882811626885086298e-04,1.647030448913574219e+01,-1.499180868268013000e-02,7.761615052004344761e-06,-2.361796796321868896e-01,3.782253712415695190e-03,-3.759835453820414841e-05,3.988526761531829834e-03,-1.497861593961715698e-01,3.079468943178653717e-02,1.000000000000000000e+00,5.186195630813017488e-05,0.000000000000000000e+00
6.200885772705078125e-01,1.826902923583984375e+02,4.872777557373046875e+01,4.872777557373046875e+01,-3.625464066863059998e-02,-5.123900249600410461e-02,-4.882811626885086298e-04,1.647030448913574219e+01,-1.499180868268013000e-02,7.761615052004344761e-06,-2.361796796321868896e-01,3.782253712415695190e-03,-3.759835453820414841e-05,3.988526761531829834e-03,-1.497861593961715698e-01,3.079468943178653717e-02,1.000000000000000000e+00,5.186195630813017488e-05,0.000000000000000000e+00
6.200885772705078125e-01,1.826902923583984375e+02,4.872777557373046875e+01,4.872777557373046875e+01,-3.625464066863059998e-02,-5.123900249600410461e-02,-4.882811626885086298e-04,1.647030448913574219e+01,-1.499180868268013000e-02,7.761615052004344761e-06,-2.361796796321868896e-01,3.782253712415695190e-03,-3.759835453820414841e-05,3.988526761531829834e-03,-1.497861593961715698e-01,3.079468943178653717e-02,1.000000000000000000e+00,5.186195630813017488e-05,0.000000000000000000e+00
6.200885772705078125e-01,1.826902923583984375e+02,4.872777557373046875e+01,4.872777557373046875e+01,-3.625464066863059998e-02,-5.123900249600410461e-02,-4.882811626885086298e-04,1.647030448913574219e+01,-1.499180868268013000e-02,7.761615052004344761e-06,-2.361796796321868896e-01,3.782253712415695190e-03,-3.759835453820414841e-05,3.988526761531829834e-03,-1.497861593961715698e-01,3.079468943178653717e-02,1.000000000000000000e+00,5.186195630813017488e-05,0.000000000000000000e+00
7.946169376373291016e-01,1.843354644775390625e+02,4.872629165649414062e+01,4.872629165649414062e+01,-2.454086765646934509e-02,-4.949950426816940308e-02,-6.713866605423390865e-04,1.643648719787597656e+01,-1.460661180317401886e-02,2.383788569204625674e-06,-1.937638670206069946e-01,2.207073150202631950e-03,-3.081348404521122575e-05,1.342643867246806622e-03,-9.681008756160736084e-02,1.083991490304470062e-02,1.000000000000000000e+00,1.993030309677124023e-06,0.000000000000000000e+00
7.946169376373291016e-01,1.843354644775390625e+02,4.872629165649414062e+01,4.872629165649414062e+01,-2.454086765646934509e-02,-4.949950426816940308e-02,-6.713866605423390865e-04,1.643648719787597656e+01,-1.460661180317401886e-02,2.383788569204625674e-06,-1.937638670206069946e-01,2.207073150202631950e-03,-3.081348404521122575e-05,1.342643867246806622e-03,-9.681008756160736084e-02,1.083991490304470062e-02,1.000000000000000000e+00,1.993030309677124023e-06,0.000000000000000000e+00
7.946169376373291016e-01,1.843354644775390625e+02,4.872629165649414062e+01,4.872629165649414062e+01,-2.454086765646934509e-02,-4.949950426816940308e-02,-6.713866605423390865e-04,1.643648719787597656e+01,-1.460661180317401886e-02,2.383788569204625674e-06,-1.937638670206069946e-01,2.207073150202631950e-03,-3.081348404521122575e-05,1.342643867246806622e-03,-9.681008756160736084e-02,1.083991490304470062e-02,1.000000000000000000e+00,1.993030309677124023e-06,0.000000000000000000e+00
7.946169376373291016e-01,1.843354644775390625e+02,4.872629165649414062e+01,4.872629165649414062e+01,-2.454086765646934509e-02,-4.949950426816940308e-02,-6.713866605423390865e-04,1.643648719787597656e+01,-1.460661180317401886e-02,2.383788569204625674e-06,-1.937638670206069946e-01,2.207073150202631950e-03,-3.081348404521122575e-05,1.342643867246806622e-03,-9.681008756160736084e-02,1.083991490304470062e-02,1.000000000000000000e+00,1.993030309677124023e-06,0.000000000000000000e+00
8.783230781555175781e-01,1.859772186279296875e+02,4.872482681274414062e+01,4.872482681274414062e+01,-1.702766120433807373e-02,-4.977415874600410461e-02,-5.493164644576609135e-04,1.640275192260742188e+01,-1.466880924999713898e-02,-9.916559520206646994e-07,-4.030203223228454590e-01,-7.430452387779951096e-04,-4.032493234262801707e-05,-2.160567557439208031e-03,-6.159884482622146606e-02,-9.602944366633892059e-03,1.000000000000000000e+00,-5.210684685152955353e-05,0.000000000000000000e+00
8.783230781555175781e-01,1.859772186279296875e+02,4.872482681274414062e+01,4.872482681274414062e+01,-1.702766120433807373e-02,-4.977415874600410461e-02,-5.493164644576609135e-04,1.640275192260742188e+01,-1.466880924999713898e-02,-9.916559520206646994e-07,-4.030203223228454590e-01,-7.430452387779951096e-04,-4.032493234262801707e-05,-2.160567557439208031e-03,-6.159884482622146606e-02,-9.602944366633892059e-03,1.000000000000000000e+00,-5.210684685152955353e-05,0.000000000000000000e+00
9.483780860900878906e-01,1.873263244628906250e+02,4.872360610961914062e+01,4.872360610961914062e+01,-5.145181342959403992e-02,-5.264281481504440308e-02,-2.441406104480847716e-04,1.595164299011230469e+01,-1.459770742803812027e-02,-4.052550139022059739e-06,-6.439352989196777344e+00,1.014942768961191177e-03,-4.369272573967464268e-05,-4.455663263797760010e-03,5.116809010505676270e-01,-4.556905105710029602e-02,1.000000000000000000e+00,-6.903325993334874511e-05,0.000000000000000000e+00
9.483780860900878906e-01,1.873263244628906250e+02,4.872360610961914062e+01,4.872360610961914062e+01,-5.145181342959403992e-02,-5.264281481504440308e-02,-2.441406104480847716e-04,1.595164299011230469e+01,-1.459770742803812027e-02,-4.052550139022059739e-06,-6.439352989196777344e+00,1.014942768961191177e-03,-4.369272573967464268e-05,-4.455663263797760010e-03,5.116809010505676270e-01,-4.556905105710029602e-02,1.000000000000000000e+00,-6.903325993334874511e-05,0.000000000000000000e+00
9.483780860900878906e-01,1.873263244628906250e+02,4.872360610961914062e+01,4.872360610961914062e+01,-5.145181342959403992e-02,-5.264281481504440308e-02,-2.441406104480847716e-04,1.595164299011230469e+01,-1.459770742803812027e-02,-4.052550139022059739e-06,-6.439352989196777344e+00,1.014942768961191177e-03,-4.369272573967464268e-05,-4.455663263797760010e-03,5.116809010505676270e-01,-4.556905105710029602e-02,1.000000000000000000e+00,-6.903325993334874511e-05,0.000000000000000000e+00
9.483780860900878906e-01,1.873263244628906250e+02,4.872360610961914062e+01,4.872360610961914062e+01,-5.145181342959403992e-02,-5.264281481504440308e-02,-2.441406104480847716e-04,1.595164299011230469e+01,-1.459770742803812027e-02,-4.052550139022059739e-06,-6.439352989196777344e+00,1.014942768961191177e-03,-4.369272573967464268e-05,-4.455663263797760010e-03,5.116809010505676270e-01,-4.556905105710029602e-02,1.000000000000000000e+00,-6.903325993334874511e-05,0.000000000000000000e+00
9.483780860900878906e-01,1.884341888427734375e+02,4.872259140014648438e+01,4.872259140014648438e+01,-7.839690893888473511e-02,-5.569457635283470154e-02,1.168205781141296029e-04,1.574643421173095703e+01,-1.477504242211580276e-02,-1.563806677040702198e-06,-2.604204893112182617e+00,-2.250472316518425941e-03,3.158343679388053715e-05,-5.313737317919731140e-03,2.695708572864532471e-01,-4.098782688379287720e-02,1.000000000000000000e+00,-3.165132511639967561e-05,0.000000000000000000e+00
1.027177095413208008e+00,1.884341888427734375e+02,4.872259140014648438e+01,4.872259140014648438e+01,-7.839690893888473511e-02,-5.569457635283470154e-02,1.168205781141296029e-04,1.574643421173095703e+01,-1.477504242211580276e-02,-1.563806677040702198e-06,-2.604204893112182617e+00,-2.250472316518425941e-03,3.158343679388053715e-05,-5.313737317919731140e-03,2.695708572864532471e-01,-4.098782688379287720e-02,1.000000000000000000e+00,-3.165132511639967561e-05,0.000000000000000000e+00
1.027177095413208008e+00,1.884341888427734375e+02,4.872259140014648438e+01,4.872259140014648438e+01,-7.839690893888473511e-02,-5.569457635283470154e-02,1.168205781141296029e-04,1.574643421173095703e+01,-1.477504242211580276e-02,-1.563806677040702198e-06,-2.604204893112182617e+00,-2.250472316518425941e-03,3.158343679388053715e-05,-5.313737317919731140e-03,2.695708572864532471e-01,-4.098782688379287720e-02,1.000000000000000000e+00,-3.165132511639967561e-05,0.000000000000000000e+00
1.095043420791625977e+00,1.896701507568359375e+02,4.872142028808593750e+01,4.872142028808593750e+01,-8.306192606687545776e-02,-5.786131694912910461e-02,4.697262775152921677e-04,1.566313076019287109e+01,-1.507408544421195984e-02,1.382609752909047529e-06,-1.227463722229003906e+00,-4.406353458762168884e-03,4.341499516158364713e-05,-4.150131251662969589e-03,-7.800292968750000000e-02,-1.877496019005775452e-02,1.000000000000000000e+00,1.228656583407428116e-05,0.000000000000000000e+00
1.095043420791625977e+00,1.896701507568359375e+02,4.872142028808593750e+01,4.872142028808593750e+01,-8.306192606687545776e-02,-5.786131694912910461e-02,4.697262775152921677e-04,1.566313076019287109e+01,-1.507408544421195984e-02,1.382609752909047529e-06,-1.227463722229003906e+00,-4.406353458762168884e-03,4.341499516158364713e-05,-4.150131251662969589e-03,-7.800292968750000000e-02,-1.877496019005775452e-02,1.000000000000000000e+00,1.228656583407428116e-05,0.000000000000000000e+00
1.095043420791625977e+00,1.896701507568359375e+02,4.872142028808593750e+01,4.872142028808593750e+01,-8.306192606687545776e-02,-5.786131694912910461e-02,4.697262775152921677e-04,1.566313076019287109e+01,-1.507408544421195984e-02,1.382609752909047529e-06,-1.227463722229003906e+00,-4.406353458762168884e-03,4.341499516158364713e-05,-4.150131251662969589e-03,-7.800292968750000000e-02,-1.877496019005775452e-02,1.000000000000000000e+00,1.228656583407428116e-05,0.000000000000000000e+00
1.095043420791625977e+00,1.896701507568359375e+02,4.872142028808593750e+01,4.872142028808593750e+01,-8.306192606687545776e-02,-5.786131694912910461e-02,4.697262775152921677e-04,1.566313076019287109e+01,-1.507408544421195984e-02,1.382609752909047529e-06,-1.227463722229003906e+00,-4.406353458762168884e-03,4.341499516158364713e-05,-4.150131251662969589e-03,-7.800292968750000000e-02,-1.877496019005775452e-02,1.000000000000000000e+00,1.228656583407428116e-05,0.000000000000000000e+00
1.168572425842285156e+00,1.907338104248046875e+02,4.872039413452148438e+01,4.872039413452148438e+01,-6.872536242008209229e-02,-5.813597887754440308e-02,5.884667043574154377e-04,1.568588066101074219e+01,-1.521786022931337357e-02,5.435205821413546801e-06,3.094003498554229736e-01,-1.955347834154963493e-03,5.511560812010429800e-05,-1.022933167405426502e-03,-2.876564264297485352e-01,3.832762362435460091e-03,1.000000000000000000e+00,5.281046105665154755e-05,0.000000000000000000e+00
1.168572425842285156e+00,1.907338104248046875e+02,4.872039413452148438e+01,4.872039413452148438e+01,-6.872536242008209229e-02,-5.813597887754440308e-02,5.884667043574154377e-04,1.568588066101074219e+01,-1.521786022931337357e-02,5.435205821413546801e-06,3.094003498554229736e-01,-1.955347834154963493e-03,5.511560812010429800e-05,-1.022933167405426502e-03,-2.876564264297485352e-01,3.832762362435460091e-03,1.000000000000000000e+00,5.281046105665154755e-05,0.000000000000000000e+00
1.168572425842285156e+00,1.907338104248046875e+02,4.872039413452148438e+01,4.872039413452148438e+01,-6.872536242008209229e-02,-5.813597887754440308e-02,5.884667043574154377e-04,1.568588066101074219e+01,-1.521786022931337357e-02,5.435205821413546801e-06,3.094003498554229736e-01,-1.955347834154963493e-03,5.511560812010429800e-05,-1.022933167405426502e-03,-2.876564264297485352e-01,3.832762362435460091e-03,1.000000000000000000e+00,5.281046105665154755e-05,0.000000000000000000e+00
1.168572425842285156e+00,1.907338104248046875e+02,4.872039413452148438e+01,4.872039413452148438e+01,-6.872536242008209229e-02,-5.813597887754440308e-02,5.884667043574154377e-04,1.568588066101074219e+01,-1.521786022931337357e-02,5.435205821413546801e-06,3.094003498554229736e-01,-1.955347834154963493e-03,5.511560812010429800e-05,-1.022933167405426502e-03,-2.876564264297485352e-01,3.832762362435460091e-03,1.000000000000000000e+00,5.281046105665154755e-05,0.000000000000000000e+00
1.168572425842285156e+00,1.918909912109375000e+02,4.871926498413085938e+01,4.871926498413085938e+01,-4.159585013985633850e-02,-5.694579333066940308e-02,4.991395398974418640e-04,1.577612590789794922e+01,-1.522719673812389374e-02,5.253973085928009823e-06,1.202493190765380859e+00,-1.244064187631011009e-04,-2.414876462353277020e-06,1.901269541122019291e-03,-4.054754376411437988e-01,2.326417528092861176e-02,1.000000000000000000e+00,7.009711407590657473e-05,0.000000000000000000e+00
1.243620872497558594e+00,1.918909912109375000e+02,4.871926498413085938e+01,4.871926498413085938e+01,-4.159585013985633850e-02,-5.694579333066940308e-02,4.991395398974418640e-04,1.577612590789794922e+01,-1.522719673812389374e-02,5.253973085928009823e-06,1.202493190765380859e+00,-1.244064187631011009e-04,-2.414876462353277020e-06,1.901269541122019291e-03,-4.054754376411437988e-01,2.326417528092861176e-02,1.000000000000000000e+00,7.009711407590657473e-05,0.000000000000000000e+00
1.243620872497558594e+00,1.918909912109375000e+02,4.871926498413085938e+01,4.871926498413085938e+01,-4.159585013985633850e-02,-5.694579333066940308e-02,4.991395398974418640e-04,1.577612590789794922e+01,-1.522719673812389374e-02,5.253973085928009823e-06,1.202493190765380859e+00,-1.244064187631011009e-04,-2.414876462353277020e-06,1.901269541122019291e-03,-4.054754376411437988e-01,2.326417528092861176e-02,1.000000000000000000e+00,7.009711407590657473e-05,0.000000000000000000e+00
1.243620872497558594e+00,1.918909912109375000e+02,4.871926498413085938e+01,4.871926498413085938e+01,-4.159585013985633850e-02,-5.694579333066940308e-02,4.991395398974418640e-04,1.577612590789794922e+01,-1.522719673812389374e-02,5.253973085928009823e-06,1.202493190765380859e+00,-1.244064187631011009e-04,-2.414876462353277020e-06,1.901269541122019291e-03,-4.054754376411437988e-01,2.326417528092861176e-02,1.000000000000000000e+00,7.009711407590657473e-05,0.000000000000000000e+00
1.312042951583862305e+00,1.930812835693359375e+02,4.871811294555664062e+01,4.871811294555664062e+01,-9.398339316248893738e-03,-5.477904900908470154e-02,2.641296014189720154e-04,1.591705131530761719e+01,-1.517423987388610840e-02,7.532896120210352819e-07,2.059648275375366211e+00,7.739733555354177952e-04,-6.577823660336434841e-05,3.422437002882361412e-03,-4.343772232532501221e-01,3.239649534225463867e-02,1.000000000000000000e+00,5.389684883994050324e-05,0.000000000000000000e+00
1.312042951583862305e+00,1.930812835693359375e+02,4.871811294555664062e+01,4.871811294555664062e+01,-9.398339316248893738e-03,-5.477904900908470154e-02,2.641296014189720154e-04,1.591705131530761719e+01,-1.517423987388610840e-02,7.532896120210352819e-07,2.059648275375366211e+00,7.739733555354177952e-04,-6.577823660336434841e-05,3.422437002882361412e-03,-4.343772232532501221e-01,3.239649534225463867e-02,1.000000000000000000e+00,5.389684883994050324e-05,0.000000000000000000e+00
1.312042951583862305e+00,1.941769561767578125e+02,4.871706390380859375e+01,4.871706390380859375e+01,1.929528266191482544e-02,-5.258178338408470154e-02,1.206970046041533351e-05,1.607576751708984375e+01,-1.511177420616149902e-02,-3.413686954445438460e-06,2.232722282409667969e+00,8.787286933511495590e-04,-5.861846875632181764e-05,3.587331157177686691e-03,-4.121627509593963623e-01,3.229727223515510559e-02,1.000000000000000000e+00,2.106074316543526947e-05,0.000000000000000000e+00
1.383129358291625977e+00,1.941769561767578125e+02,4.871706390380859375e+01,4.871706390380859375e+01,1.929528266191482544e-02,-5.258178338408470154e-02,1.206970046041533351e-05,1.607576751708984375e+01,-1.511177420616149902e-02,-3.413686954445438460e-06,2.232722282409667969e+00,8.787286933511495590e-04,-5.861846875632181764e-05,3.587331157177686691e-03,-4.121627509593963623e-01,3.229727223515510559e-02,1.000000000000000000e+00,2.106074316543526947e-05,0.000000000000000000e+00
1.383129358291625977e+00,1.941769561767578125e+02,4.871706390380859375e+01,4.871706390380859375e+01,1.929528266191482544e-02,-5.258178338408470154e-02,1.206970046041533351e-05,1.607576751708984375e+01,-1.511177420616149902e-02,-3.413686954445438460e-06,2.232722282409667969e+00,8.787286933511495590e-04,-5.861846875632181764e-05,3.587331157177686691e-03,-4.121627509593963623e-01,3.229727223515510559e-02,1.000000000000000000e+00,2.106074316543526947e-05,0.000000000000000000e+00
1.450951814651489258e+00,1.953277893066406250e+02,4.871598434448242188e+01,4.871598434448242188e+01,4.721709340810775757e-02,-5.050658807158470154e-02,-2.441405813442543149e-04,1.626218795776367188e+01,-1.503279060125350952e-02,-5.349351795302936807e-06,2.748653650283813477e+00,1.164564164355397224e-03,-2.854017657227814198e-05,3.458573482930660248e-03,-3.748912513256072998e-01,2.793133817613124847e-02,1.000000000000000000e+00,-9.603984835848677903e-06,0.000000000000000000e+00
1.450951814651489258e+00,1.953277893066406250e+02,4.871598434448242188e+01,4.871598434448242188e+01,4.721709340810775757e-02,-5.050658807158470154e-02,-2.441405813442543149e-04,1.626218795776367188e+01,-1.503279060125350952e-02,-5.349351795302936807e-06,2.748653650283813477e+00,1.164564164355397224e-03,-2.854017657227814198e-05,3.458573482930660248e-03,-3.748912513256072998e-01,2.793133817613124847e-02,1.000000000000000000e+00,-9.603984835848677903e-06,0.000000000000000000e+00
1.450951814651489258e+00,1.953277893066406250e+02,4.871598434448242188e+01,4.871598434448242188e+01,4.721709340810775757e-02,-5.050658807158470154e-02,-2.441405813442543149e-04,1.626218795776367188e+01,-1.503279060125350952e-02,-5.349351795302936807e-06,2.748653650283813477e+00,1.164564164355397224e-03,-2.854017657227814198e-05,3.458573482930660248e-03,-3.748912513256072998e-01,2.793133817613124847e-02,1.000000000000000000e+00,-9.603984835848677903e-06,0.000000000000000000e+00
1.527701377868652344e+00,1.964386749267578125e+02,4.871495437622070312e+01,4.871495437622070312e+01,7.054218649864196777e-02,-4.898070916533470154e-02,-4.272460355423390865e-04,1.645499229431152344e+01,-1.502852328121662140e-02,-9.335204595117829740e-06,2.512122869491577148e+00,5.560057979892008007e-05,-5.193323158891871572e-05,2.345710759982466698e-03,-3.255457580089569092e-01,1.998579129576683044e-02,1.000000000000000000e+00,-4.712045119958929718e-05,0.000000000000000000e+00
1.527701377868652344e+00,1.964386749267578125e+02,4.871495437622070312e+01,4.871495437622070312e+01,7.054218649864196777e-02,-4.898070916533470154e-02,-4.272460355423390865e-04,1.645499229431152344e+01,-1.502852328121662140e-02,-9.335204595117829740e-06,2.512122869491577148e+00,5.560057979892008007e-05,-5.193323158891871572e-05,2.345710759982466698e-03,-3.255457580089569092e-01,1.998579129576683044e-02,1.000000000000000000e+00,-4.712045119958929718e-05,0.000000000000000000e+00
1.527701377868652344e+00,1.964386749267578125e+02,4.871495437622070312e+01,4.871495437622070312e+01,7.054218649864196777e-02,-4.898070916533470154e-02,-4.272460355423390865e-04,1.645499229431152344e+01,-1.502852328121662140e-02,-9.335204595117829740e-06,2.512122869491577148e+00,5.560057979892008007e-05,-5.193323158891871572e-05,2.345710759982466698e-03,-3.255457580089569092e-01,1.998579129576683044e-02,1.000000000000000000e+00,-4.712045119958929718e-05,0.000000000000000000e+00
1.600134611129760742e+00,1.977123413085937500e+02,4.871379470825195312e+01,4.871379470825195312e+01,9.347113221883773804e-02,-4.800415039062500000e-02,-5.493164062500000000e-04,1.668564796447753906e+01,-1.513849571347236633e-02,-1.171885833173291758e-05,3.184390068054199219e+00,-1.518259290605783463e-03,-3.290829044999554753e-05,9.322057012468576431e-04,-2.742763757705688477e-01,9.049559012055397034e-03,1.000000000000000000e+00,-8.323173824464902282e-05,0.000000000000000000e+00
1.600134611129760742e+00,1.977123413085937500e+02,4.871379470825195312e+01,4.871379470825195312e+01,9.347113221883773804e-02,-4.800415039062500000e-02,-5.493164062500000000e-04,1.668564796447753906e+01,-1.513849571347236633e-02,-1.171885833173291758e-05,3.184390068054199219e+00,-1.518259290605783463e-03,-3.290829044999554753e-05,9.322057012468576431e-04,-2.742763757705688477e-01,9.049559012055397034e-03,1.000000000000000000e+00,-8.323173824464902282e-05,0.000000000000000000e+00
1.600134611129760742e+00,1.977123413085937500e+02,4.871379470825195312e+01,4.871379470825195312e+01,9.347113221883773804e-02,-4.800415039062500000e-02,-5.493164062500000000e-04,1.668564796447753906e+01,-1.513849571347236633e-02,-1.171885833173291758e-05,3.184390068054199219e+00,-1.518259290605783463e-03,-3.290829044999554753e-05,9.322057012468576431e-04,-2.742763757705688477e-01,9.049559012055397034e-03,1.000000000000000000e+00,-8.323173824464902282e-05,0.000000000000000000e+00
1.600134611129760742e+00,1.977123413085937500e+02,4.871379470825195312e+01,4.871379470825195312e+01,9.347113221883773804e-02,-4.800415039062500000e-02,-5.493164062500000000e-04,1.668564796447753906e+01,-1.513849571347236633e-02,-1.171885833173291758e-05,3.184390068054199219e+00,-1.518259290605783463e-03,-3.290829044999554753e-05,9.322057012468576431e-04,-2.742763757705688477e-01,9.049559012055397034e-03,1.000000000000000000e+00,-8.323173824464902282e-05,0.000000000000000000e+00
1.600134611129760742e+00,1.977123413085937500e+02,4.871379470825195312e+01,4.871379470825195312e+01,9.347113221883773804e-02,-4.800415039062500000e-02,-5.493164062500000000e-04,1.668564796447753906e+01,-1.513849571347236633e-02,-1.171885833173291758e-05,3.184390068054199219e+00,-1.518259290605783463e-03,-3.290829044999554753e-05,9.322057012468576431e-04,-2.742763757705688477e-01,9.049559012055397034e-03,1.000000000000000000e+00,-8.323173824464902282e-05,0.000000000000000000e+00
1.600134611129760742e+00,1.989290924072265625e+02,4.871291351318359375e+01,4.871291351318359375e+01,1.070905327796936035e-01,-3.970336541533470154e-02,-2.685546875000000000e-03,1.684778976440429688e+01,-1.018040068447589874e-02,-1.259621330973459408e-05,1.405299067497253418e+00,4.297230020165443420e-02,-7.604122401971835643e-06,3.678662329912185669e-02,-8.519052714109420776e-02,1.676753312349319458e-01,0.000000000000000000e+00,7.576383650302886963e-04,1.000000000000000000e+00
1.715513467788696289e+00,1.989290924072265625e+02,4.871291351318359375e+01,4.871291351318359375e+01,1.070905327796936035e-01,-3.970336541533470154e-02,-2.685546875000000000e-03,1.684778976440429688e+01,-1.018040068447589874e-02,-1.259621330973459408e-05,1.405299067497253418e+00,4.297230020165443420e-02,-7.604122401971835643e-06,3.678662329912185669e-02,-8.519052714109420776e-02,1.676753312349319458e-01,0.000000000000000000e+00,7.576383650302886963e-04,1.000000000000000000e+00
1.715513467788696289e+00,1.989290924072265625e+02,4.871291351318359375e+01,4.871291351318359375e+01,1.070905327796936035e-01,-3.970336541533470154e-02,-2.685546875000000000e-03,1.684778976440429688e+01,-1.018040068447589874e-02,-1.259621330973459408e-05,1.405299067497253418e+00,4.297230020165443420e-02,-7.604122401971835643e-06,3.678662329912185669e-02,-8.519052714109420776e-02,1.676753312349319458e-01,0.000000000000000000e+00,7.576383650302886963e-04,1.000000000000000000e+00
1.715513467788696289e+00,1.989290924072265625e+02,4.871291351318359375e+01,4.871291351318359375e+01,1.070905327796936035e-01,-3.970336541533470154e-02,-2.685546875000000000e-03,1.684778976440429688e+01,-1.018040068447589874e-02,-1.259621330973459408e-05,1.405299067497253418e+00,4.297230020165443420e-02,-7.604122401971835643e-06,3.678662329912185669e-02,-8.519052714109420776e-02,1.676753312349319458e-01,0.000000000000000000e+00,7.576383650302886963e-04,1.000000000000000000e+00
1.813115119934082031e+00,2.006039428710937500e+02,4.871230697631835938e+01,4.871230697631835938e+01,7.138230651617050171e-02,-1.385498140007257462e-02,-7.202147971838712692e-03,1.658773231506347656e+01,-2.158480463549494743e-03,-4.729436113848350942e-06,-2.664478063583374023e+00,8.219041675329208374e-02,8.060086111072450876e-05,4.177955165505409241e-02,7.198966145515441895e-01,2.946955561637878418e-01,0.000000000000000000e+00,1.043201657012104988e-03,1.000000000000000000e+00
1.813115119934082031e+00,2.006039428710937500e+02,4.871230697631835938e+01,4.871230697631835938e+01,7.138230651617050171e-02,-1.385498140007257462e-02,-7.202147971838712692e-03,1.658773231506347656e+01,-2.158480463549494743e-03,-4.729436113848350942e-06,-2.664478063583374023e+00,8.219041675329208374e-02,8.060086111072450876e-05,4.177955165505409241e-02,7.198966145515441895e-01,2.946955561637878418e-01,0.000000000000000000e+00,1.043201657012104988e-03,1.000000000000000000e+00
1.813115119934082031e+00,2.006039428710937500e+02,4.871230697631835938e+01,4.871230697631835938e+01,7.138230651617050171e-02,-1.385498140007257462e-02,-7.202147971838712692e-03,1.658773231506347656e+01,-2.158480463549494743e-03,-4.729436113848350942e-06,-2.664478063583374023e+00,8.219041675329208374e-02,8.060086111072450876e-05,4.177955165505409241e-02,7.198966145515441895e-01,2.946955561637878418e-01,0.000000000000000000e+00,1.043201657012104988e-03,1.000000000000000000e+00
1.813115119934082031e+00,2.006039428710937500e+02,4.871230697631835938e+01,4.871230697631835938e+01,7.138230651617050171e-02,-1.385498140007257462e-02,-7.202147971838712692e-03,1.658773231506347656e+01,-2.158480463549494743e-03,-4.729436113848350942e-06,-2.664478063583374023e+00,8.219041675329208374e-02,8.060086111072450876e-05,4.177955165505409241e-02,7.198966145515441895e-01,2.946955561637878418e-01,0.000000000000000000e+00,1.043201657012104988e-03,1.000000000000000000e+00
1.896134853363037109e+00,2.021831970214843750e+02,4.871347427368164062e+01,4.871347427368164062e+01,-3.145984932780265808e-02,5.403608083724975586e-02,-1.931762509047985077e-02,1.586420822143554688e+01,2.350972592830657959e-02,1.821221644604520407e-06,-8.715085983276367188e+00,3.091819882392883301e-01,7.890482811490073800e-05,1.324519515037536621e-01,1.205047607421875000e+00,8.962259888648986816e-01,0.000000000000000000e+00,3.725640941411256790e-03,1.000000000000000000e+00
1.896134853363037109e+00,2.021831970214843750e+02,4.871347427368164062e+01,4.871347427368164062e+01,-3.145984932780265808e-02,5.403608083724975586e-02,-1.931762509047985077e-02,1.586420822143554688e+01,2.350972592830657959e-02,1.821221644604520407e-06,-8.715085983276367188e+00,3.091819882392883301e-01,7.890482811490073800e-05,1.324519515037536621e-01,1.205047607421875000e+00,8.962259888648986816e-01,0.000000000000000000e+00,3.725640941411256790e-03,1.000000000000000000e+00
1.896134853363037109e+00,2.021831970214843750e+02,4.871347427368164062e+01,4.871347427368164062e+01,-3.145984932780265808e-02,5.403608083724975586e-02,-1.931762509047985077e-02,1.586420822143554688e+01,2.350972592830657959e-02,1.821221644604520407e-06,-8.715085983276367188e+00,3.091819882392883301e-01,7.890482811490073800e-05,1.324519515037536621e-01,1.205047607421875000e+00,8.962259888648986816e-01,0.000000000000000000e+00,3.725640941411256790e-03,1.000000000000000000e+00
1.896134853363037109e+00,2.021831970214843750e+02,4.871347427368164062e+01,4.871347427368164062e+01,-3.145984932780265808e-02,5.403608083724975586e-02,-1.931762509047985077e-02,1.586420822143554688e+01,2.350972592830657959e-02,1.821221644604520407e-06,-8.715085983276367188e+00,3.091819882392883301e-01,7.890482811490073800e-05,1.324519515037536621e-01,1.205047607421875000e+00,8.962259888648986816e-01,0.000000000000000000e+00,3.725640941411256790e-03,1.000000000000000000e+00
1.896134853363037109e+00,2.021831970214843750e+02,4.871347427368164062e+01,4.871347427368164062e+01,-3.145984932780265808e-02,5.403608083724975586e-02,-1.931762509047985077e-02,1.586420822143554688e+01,2.350972592830657959e-02,1.821221644604520407e-06,-8.715085983276367188e+00,3.091819882392883301e-01,7.890482811490073800e-05,1.324519515037536621e-01,1.205047607421875000e+00,8.962259888648986816e-01,0.000000000000000000e+00,3.725640941411256790e-03,1.000000000000000000e+00
1.896134853363037109e+00,2.021831970214843750e+02,4.871347427368164062e+01,4.871347427368164062e+01,-3.145984932780265808e-02,5.403608083724975586e-02,-1.931762509047985077e-02,1.586420822143554688e+01,2.350972592830657959e-02,1.821221644604520407e-06,-8.715085983276367188e+00,3.091819882392883301e-01,7.890482811490073800e-05,1.324519515037536621e-01,1.205047607421875000e+00,8.962259888648986816e-01,0.000000000000000000e+00,3.725640941411256790e-03,1.000000000000000000e+00
1.896134853363037109e+00,2.021831970214843750e+02,4.871347427368164062e+01,4.871347427368164062e+01,-3.145984932780265808e-02,5.403608083724975586e-02,-1.931762509047985077e-02,1.586420822143554688e+01,2.350972592830657959e-02,1.821221644604520407e-06,-8.715085983276367188e+00,3.091819882392883301e-01,7.890482811490073800e-05,1.324519515037536621e-01,1.205047607421875000e+00,8.962259888648986816e-01,0.000000000000000000e+00,3.725640941411256790e-03,1.000000000000000000e+00
2.195794820785522461e+00,2.062341308593750000e+02,4.873761749267578125e+01,4.873761749267578125e+01,-1.725442260503768921e-01,6.070216298103332520e-01,-8.505248278379440308e-02,1.455980396270751953e+01,1.673819273710250854e-01,9.916763701767195016e-06,-3.051398754119873047e+00,9.856238365173339844e-01,1.742839522194117308e-04,2.335639297962188721e-01,-2.820238173007965088e-01,2.601512670516967773e+00,1.000000000000000000e+00,7.875720970332622528e-03,0.000000000000000000e+00
2.195794820785522461e+00,2.062341308593750000e+02,4.873761749267578125e+01,4.873761749267578125e+01,-1.725442260503768921e-01,6.070216298103332520e-01,-8.505248278379440308e-02,1.455980396270751953e+01,1.673819273710250854e-01,9.916763701767195016e-06,-3.051398754119873047e+00,9.856238365173339844e-01,1.742839522194117308e-04,2.335639297962188721e-01,-2.820238173007965088e-01,2.601512670516967773e+00,1.000000000000000000e+00,7.875720970332622528e-03,0.000000000000000000e+00
2.195794820785522461e+00,2.062341308593750000e+02,4.873761749267578125e+01,4.873761749267578125e+01,-1.725442260503768921e-01,6.070216298103332520e-01,-8.505248278379440308e-02,1.455980396270751953e+01,1.673819273710250854e-01,9.916763701767195016e-06,-3.051398754119873047e+00,9.856238365173339844e-01,1.742839522194117308e-04,2.335639297962188721e-01,-2.820238173007965088e-01,2.601512670516967773e+00,1.000000000000000000e+00,7.875720970332622528e-03,0.000000000000000000e+00
2.195794820785522461e+00,2.062341308593750000e+02,4.873761749267578125e+01,4.873761749267578125e+01,-1.725442260503768921e-01,6.070216298103332520e-01,-8.505248278379440308e-02,1.455980396270751953e+01,1.673819273710250854e-01,9.916763701767195016e-06,-3.051398754119873047e+00,9.856238365173339844e-01,1.742839522194117308e-04,2.335639297962188721e-01,-2.820238173007965088e-01,2.601512670516967773e+00,1.000000000000000000e+00,7.875720970332622528e-03,0.000000000000000000e+00
2.195794820785522461e+00,2.062341308593750000e+02,4.873761749267578125e+01,4.873761749267578125e+01,-1.725442260503768921e-01,6.070216298103332520e-01,-8.505248278379440308e-02,1.455980396270751953e+01,1.673819273710250854e-01,9.916763701767195016e-06,-3.051398754119873047e+00,9.856238365173339844e-01,1.742839522194117308e-04,2.335639297962188721e-01,-2.820238173007965088e-01,2.601512670516967773e+00,1.000000000000000000e+00,7.875720970332622528e-03,0.000000000000000000e+00
2.195794820785522461e+00,2.062341308593750000e+02,4.873761749267578125e+01,4.873761749267578125e+01,-1.725442260503768921e-01,6.070216298103332520e-01,-8.505248278379440308e-02,1.455980396270751953e+01,1.673819273710250854e-01,9.916763701767195016e-06,-3.051398754119873047e+00,9.856238365173339844e-01,1.742839522194117308e-04,2.335639297962188721e-01,-2.820238173007965088e-01,2.601512670516967773e+00,1.000000000000000000e+00,7.875720970332622528e-03,0.000000000000000000e+00
2.195794820785522461e+00,2.062341308593750000e+02,4.873761749267578125e+01,4.873761749267578125e+01,-1.725442260503768921e-01,6.070216298103332520e-01,-8.505248278379440308e-02,1.455980396270751953e+01,1.673819273710250854e-01,9.916763701767195016e-06,-3.051398754119873047e+00,9.856238365173339844e-01,1.742839522194117308e-04,2.335639297962188721e-01,-2.820238173007965088e-01,2.601512670516967773e+00,1.000000000000000000e+00,7.875720970332622528e-03,0.000000000000000000e+00
2.195794820785522461e+00,2.062341308593750000e+02,4.873761749267578125e+01,4.873761749267578125e+01,-1.725442260503768921e-01,6.070216298103332520e-01,-8.505248278379440308e-02,1.455980396270751953e+01,1.673819273710250854e-01,9.916763701767195016e-06,-3.051398754119873047e+00,9.856238365173339844e-01,1.742839522194117308e-04,2.335639297962188721e-01,-2.820238173007965088e-01,2.601512670516967773e+00,1.000000000000000000e+00,7.875720970332622528e-03,0.000000000000000000e+00
2.195794820785522461e+00,2.062341308593750000e+02,4.873761749267578125e+01,4.873761749267578125e+01,-1.725442260503768921e-01,6.070216298103332520e-01,-8.505248278379440308e-02,1.455980396270751953e+01,1.673819273710250854e-01,9.916763701767195016e-06,-3.051398754119873047e+00,9.856238365173339844e-01,1.742839522194117308e-04,2.335639297962188721e-01,-2.820238173007965088e-01,2.601512670516967773e+00,1.000000000000000000e+00,7.875720970332622528e-03,0.000000000000000000e+00
2.195794820785522461e+00,2.062341308593750000e+02,4.873761749267578125e+01,4.873761749267578125e+01,-1.725442260503768921e-01,6.070216298103332520e-01,-8.505248278379440308e-02,1.455980396270751953e+01,1.673819273710250854e-01,9.916763701767195016e-06,-3.051398754119873047e+00,9.856238365173339844e-01,1.742839522194117308e-04,2.335639297962188721e-01,-2.820238173007965088e-01,2.601512670516967773e+00,1.000000000000000000e+00,7.875720970332622528e-03,0.000000000000000000e+00
2.374083757400512695e+00,2.070064392089843750e+02,4.874706268310546875e+01,4.874706268310546875e+01,-1.511520743370056152e-01,7.420677542686462402e-01,-9.503172338008880615e-02,1.455010223388671875e+01,1.976945698261260986e-01,1.344502288702642545e-05,-5.441576242446899414e-02,1.700197607278823853e-01,1.978955697268247604e-05,1.791927963495254517e-01,-4.655744433403015137e-01,2.517220258712768555e+00,1.000000000000000000e+00,6.972553674131631851e-03,0.000000000000000000e+00
2.374083757400512695e+00,2.070064392089843750e+02,4.874706268310546875e+01,4.874706268310546875e+01,-1.511520743370056152e-01,7.420677542686462402e-01,-9.503172338008880615e-02,1.455010223388671875e+01,1.976945698261260986e-01,1.344502288702642545e-05,-5.441576242446899414e-02,1.700197607278823853e-01,1.978955697268247604e-05,1.791927963495254517e-01,-4.655744433403015137e-01,2.517220258712768555e+00,1.000000000000000000e+00,6.972553674131631851e-03,0.000000000000000000e+00
2.374083757400512695e+00,2.070064392089843750e+02,4.874706268310546875e+01,4.874706268310546875e+01,-1.511520743370056152e-01,7.420677542686462402e-01,-9.503172338008880615e-02,1.455010223388671875e+01,1.976945698261260986e-01,1.344502288702642545e-05,-5.441576242446899414e-02,1.700197607278823853e-01,1.978955697268247604e-05,1.791927963495254517e-01,-4.655744433403015137e-01,2.517220258712768555e+00,1.000000000000000000e+00,6.972553674131631851e-03,0.000000000000000000e+00
2.447860002517700195e+00,2.084667358398437500e+02,4.876824951171875000e+01,4.876824951171875000e+01,-9.237147122621536255e-02,9.400118589401245117e-01,-9.869384765625000000e-02,1.465083122253417969e+01,2.364964187145233154e-01,1.682001129665877670e-05,1.365330934524536133e+00,5.259395837783813477e-01,4.574627746478654444e-05,1.437376067042350769e-02,-6.201490759849548340e-01,1.725761175155639648e+00,1.000000000000000000e+00,3.851420478895306587e-03,0.000000000000000000e+00
2.447860002517700195e+00,2.084667358398437500e+02,4.876824951171875000e+01,4.876824951171875000e+01,-9.237147122621536255e-02,9.400118589401245117e-01,-9.869384765625000000e-02,1.465083122253417969e+01,2.364964187145233154e-01,1.682001129665877670e-05,1.365330934524536133e+00,5.259395837783813477e-01,4.574627746478654444e-05,1.437376067042350769e-02,-6.201490759849548340e-01,1.725761175155639648e+00,1.000000000000000000e+00,3.851420478895306587e-03,0.000000000000000000e+00
2.500878810882568359e+00,2.095539398193359375e+02,4.878622055053710938e+01,4.878622055053710938e+01,-4.782498255372047424e-02,1.037538170814514160e+00,-9.341429173946380615e-02,1.479246997833251953e+01,2.579004764556884766e-01,7.532915333285927773e-06,2.671481370925903320e+00,4.037068784236907959e-01,-1.751660602167248726e-04,-7.923110574483871460e-02,-6.011429429054260254e-01,1.121597647666931152e+00,1.000000000000000000e+00,1.775831682607531548e-03,0.000000000000000000e+00
2.500878810882568359e+00,2.095539398193359375e+02,4.878622055053710938e+01,4.878622055053710938e+01,-4.782498255372047424e-02,1.037538170814514160e+00,-9.341429173946380615e-02,1.479246997833251953e+01,2.579004764556884766e-01,7.532915333285927773e-06,2.671481370925903320e+00,4.037068784236907959e-01,-1.751660602167248726e-04,-7.923110574483871460e-02,-6.011429429054260254e-01,1.121597647666931152e+00,1.000000000000000000e+00,1.775831682607531548e-03,0.000000000000000000e+00
2.500878810882568359e+00,2.095539398193359375e+02,4.878622055053710938e+01,4.878622055053710938e+01,-4.782498255372047424e-02,1.037538170814514160e+00,-9.341429173946380615e-02,1.479246997833251953e+01,2.579004764556884766e-01,7.532915333285927773e-06,2.671481370925903320e+00,4.037068784236907959e-01,-1.751660602167248726e-04,-7.923110574483871460e-02,-6.011429429054260254e-01,1.121597647666931152e+00,1.000000000000000000e+00,1.775831682607531548e-03,0.000000000000000000e+00
2.560195446014404297e+00,2.103381042480468750e+02,4.879947662353515625e+01,4.879947662353515625e+01,-2.682898193597793579e-02,1.062719106674194336e+00,-8.120729029178619385e-02,1.478159427642822266e+01,2.517415881156921387e-01,3.985830062447348610e-06,-1.833499372005462646e-01,-1.038307100534439087e-01,-5.979916386422701180e-05,-2.667040526866912842e-01,-3.065223097801208496e-01,1.578966826200485229e-01,1.000000000000000000e+00,-2.908510621637105942e-03,0.000000000000000000e+00
2.560195446014404297e+00,2.103381042480468750e+02,4.879947662353515625e+01,4.879947662353515625e+01,-2.682898193597793579e-02,1.062719106674194336e+00,-8.120729029178619385e-02,1.478159427642822266e+01,2.517415881156921387e-01,3.985830062447348610e-06,-1.833499372005462646e-01,-1.038307100534439087e-01,-5.979916386422701180e-05,-2.667040526866912842e-01,-3.065223097801208496e-01,1.578966826200485229e-01,1.000000000000000000e+00,-2.908510621637105942e-03,0.000000000000000000e+00
2.560195446014404297e+00,2.112143249511718750e+02,4.881400680541992188e+01,4.881400680541992188e+01,-1.513569802045822144e-02,1.040080904960632324e+00,-6.182860955595970154e-02,1.476416015625000000e+01,2.426625937223434448e-01,1.439834591110411566e-06,-2.978404462337493896e-01,-1.551034301519393921e-01,-4.349519076640717685e-05,-3.297765851020812988e-01,-1.503903269767761230e-01,-6.386265754699707031e-01,1.000000000000000000e+00,-4.167812876403331757e-03,0.000000000000000000e+00
2.618730545043945312e+00,2.112143249511718750e+02,4.881400680541992188e+01,4.881400680541992188e+01,-1.513569802045822144e-02,1.040080904960632324e+00,-6.182860955595970154e-02,1.476416015625000000e+01,2.426625937223434448e-01,1.439834591110411566e-06,-2.978404462337493896e-01,-1.551034301519393921e-01,-4.349519076640717685e-05,-3.297765851020812988e-01,-1.503903269767761230e-01,-6.386265754699707031e-01,1.000000000000000000e+00,-4.167812876403331757e-03,0.000000000000000000e+00
2.618730545043945312e+00,2.120779571533203125e+02,4.882746505737304688e+01,4.882746505737304688e+01,-9.739848785102367401e-03,9.688398838043212891e-01,-3.808594495058059692e-02,1.474708843231201172e+01,2.202058583498001099e-01,-5.530501425710099284e-07,-2.913088202476501465e-01,-3.831976950168609619e-01,-3.400622881599701941e-05,-4.194924831390380859e-01,-7.619354873895645142e-02,-1.493326783180236816e+00,1.000000000000000000e+00,-6.854408886283636093e-03,0.000000000000000000e+00
2.677334070205688477e+00,2.120779571533203125e+02,4.882746505737304688e+01,4.882746505737304688e+01,-9.739848785102367401e-03,9.688398838043212891e-01,-3.808594495058059692e-02,1.474708843231201172e+01,2.202058583498001099e-01,-5.530501425710099284e-07,-2.913088202476501465e-01,-3.831976950168609619e-01,-3.400622881599701941e-05,-4.194924831390380859e-01,-7.619354873895645142e-02,-1.493326783180236816e+00,1.000000000000000000e+00,-6.854408886283636093e-03,0.000000000000000000e+00
2.677334070205688477e+00,2.120779571533203125e+02,4.882746505737304688e+01,4.882746505737304688e+01,-9.739848785102367401e-03,9.688398838043212891e-01,-3.808594495058059692e-02,1.474708843231201172e+01,2.202058583498001099e-01,-5.530501425710099284e-07,-2.913088202476501465e-01,-3.831976950168609619e-01,-3.400622881599701941e-05,-4.194924831390380859e-01,-7.619354873895645142e-02,-1.493326783180236816e+00,1.000000000000000000e+00,-6.854408886283636093e-03,0.000000000000000000e+00
2.677334070205688477e+00,2.120779571533203125e+02,4.882746505737304688e+01,4.882746505737304688e+01,-9.739848785102367401e-03,9.688398838043212891e-01,-3.808594495058059692e-02,1.474708843231201172e+01,2.202058583498001099e-01,-5.530501425710099284e-07,-2.913088202476501465e-01,-3.831976950168609619e-01,-3.400622881599701941e-05,-4.194924831390380859e-01,-7.619354873895645142e-02,-1.493326783180236816e+00,1.000000000000000000e+00,-6.854408886283636093e-03,0.000000000000000000e+00
2.755024909973144531e+00,2.129415893554687500e+02,4.883969497680664062e+01,4.883969497680664062e+01,-7.076075766235589981e-03,8.611932992935180664e-01,-1.330566406250000000e-02,1.473002433776855469e+01,1.956301778554916382e-01,-4.901167812931817025e-06,-2.196410149335861206e-01,-3.163266181945800781e-01,-5.596693154075182974e-05,-4.155480265617370605e-01,-4.073984920978546143e-02,-2.000743389129638672e+00,1.000000000000000000e+00,-7.258689496666193008e-03,0.000000000000000000e+00
2.755024909973144531e+00,2.129415893554687500e+02,4.883969497680664062e+01,4.883969497680664062e+01,-7.076075766235589981e-03,8.611932992935180664e-01,-1.330566406250000000e-02,1.473002433776855469e+01,1.956301778554916382e-01,-4.901167812931817025e-06,-2.196410149335861206e-01,-3.163266181945800781e-01,-5.596693154075182974e-05,-4.155480265617370605e-01,-4.073984920978546143e-02,-2.000743389129638672e+00,1.000000000000000000e+00,-7.258689496666193008e-03,0.000000000000000000e+00
2.755024909973144531e+00,2.129415893554687500e+02,4.883969497680664062e+01,4.883969497680664062e+01,-7.076075766235589981e-03,8.611932992935180664e-01,-1.330566406250000000e-02,1.473002433776855469e+01,1.956301778554916382e-01,-4.901167812931817025e-06,-2.196410149335861206e-01,-3.163266181945800781e-01,-5.596693154075182974e-05,-4.155480265617370605e-01,-4.073984920978546143e-02,-2.000743389129638672e+00,1.000000000000000000e+00,-7.258689496666193008e-03,0.000000000000000000e+00
2.830169916152954102e+00,2.140849304199218750e+02,4.885334396362304688e+01,4.885334396362304688e+01,-5.402679555118083954e-03,6.795768737792968750e-01,1.997087895870208740e-02,1.470743083953857422e+01,1.529448628425598145e-01,-5.587663054029690102e-06,-3.006653189659118652e-01,-5.680392384529113770e-01,-9.135606887866742909e-06,-4.161609113216400146e-01,-1.995964348316192627e-02,-2.503105401992797852e+00,1.000000000000000000e+00,-8.186044171452522278e-03,0.000000000000000000e+00
2.830169916152954102e+00,2.140849304199218750e+02,4.885334396362304688e+01,4.885334396362304688e+01,-5.402679555118083954e-03,6.795768737792968750e-01,1.997087895870208740e-02,1.470743083953857422e+01,1.529448628425598145e-01,-5.587663054029690102e-06,-3.006653189659118652e-01,-5.680392384529113770e-01,-9.135606887866742909e-06,-4.161609113216400146e-01,-1.995964348316192627e-02,-2.503105401992797852e+00,1.000000000000000000e+00,-8.186044171452522278e-03,0.000000000000000000e+00
2.830169916152954102e+00,2.140849304199218750e+02,4.885334396362304688e+01,4.885334396362304688e+01,-5.402679555118083954e-03,6.795768737792968750e-01,1.997087895870208740e-02,1.470743083953857422e+01,1.529448628425598145e-01,-5.587663054029690102e-06,-3.006653189659118652e-01,-5.680392384529113770e-01,-9.135606887866742909e-06,-4.161609113216400146e-01,-1.995964348316192627e-02,-2.503105401992797852e+00,1.000000000000000000e+00,-8.186044171452522278e-03,0.000000000000000000e+00
2.830169916152954102e+00,2.140849304199218750e+02,4.885334396362304688e+01,4.885334396362304688e+01,-5.402679555118083954e-03,6.795768737792968750e-01,1.997087895870208740e-02,1.470743083953857422e+01,1.529448628425598145e-01,-5.587663054029690102e-06,-3.006653189659118652e-01,-5.680392384529113770e-01,-9.135606887866742909e-06,-4.161609113216400146e-01,-1.995964348316192627e-02,-2.503105401992797852e+00,1.000000000000000000e+00,-8.186044171452522278e-03,0.000000000000000000e+00
2.830169916152954102e+00,2.140849304199218750e+02,4.885334396362304688e+01,4.885334396362304688e+01,-5.402679555118083954e-03,6.795768737792968750e-01,1.997087895870208740e-02,1.470743083953857422e+01,1.529448628425598145e-01,-5.587663054029690102e-06,-3.006653189659118652e-01,-5.680392384529113770e-01,-9.135606887866742909e-06,-4.161609113216400146e-01,-1.995964348316192627e-02,-2.503105401992797852e+00,1.000000000000000000e+00,-8.186044171452522278e-03,0.000000000000000000e+00
2.917726278305053711e+00,2.151891326904296875e+02,4.886352539062500000e+01,4.886352539062500000e+01,-4.699169658124446869e-03,4.885246753692626953e-01,4.717431589961051941e-02,1.468554496765136719e+01,1.116678416728973389e-01,-3.976224434154573828e-06,-2.499632239341735840e-01,-4.714336991310119629e-01,1.840458571678027511e-05,-3.384120166301727295e-01,-1.021728478372097015e-02,-2.561560869216918945e+00,1.000000000000000000e+00,-7.476131431758403778e-03,0.000000000000000000e+00
