# Time,X,Y,Z,Roll,Pitch,Yaw,Vx,Vy,Vz,Ax,Ay,Az,Wx,Wy,Wz,Throttle,Steer,Brake
0.000000000000000000e+00,2.256239624023437500e+02,2.516019744873046875e+02,2.516019744873046875e+02,-1.491713225841522217e-01,1.221252419054508209e-02,-6.289672851562500000e-02,4.791577816009521484e+00,1.528966357000172138e-03,-6.372628267854452133e-03,-4.340341567993164062e+00,-3.961678594350814819e-03,-6.103466451168060303e-02,-6.266701966524124146e-03,1.072712779045104980e+00,-1.916287839412689209e-02,1.000000000000000000e+00,9.236315963789820671e-05,0.000000000000000000e+00
1.045818328857421875e-01,2.256239624023437500e+02,2.516019744873046875e+02,2.516019744873046875e+02,-1.491713225841522217e-01,1.221252419054508209e-02,-6.289672851562500000e-02,4.791577816009521484e+00,1.528966357000172138e-03,-6.372628267854452133e-03,-4.340341567993164062e+00,-3.961678594350814819e-03,-6.103466451168060303e-02,-6.266701966524124146e-03,1.072712779045104980e+00,-1.916287839412689209e-02,1.000000000000000000e+00,9.236315963789820671e-05,0.000000000000000000e+00
1.045818328857421875e-01,2.256239624023437500e+02,2.516019744873046875e+02,2.516019744873046875e+02,-1.491713225841522217e-01,1.221252419054508209e-02,-6.289672851562500000e-02,4.791577816009521484e+00,1.528966357000172138e-03,-6.372628267854452133e-03,-4.340341567993164062e+00,-3.961678594350814819e-03,-6.103466451168060303e-02,-6.266701966524124146e-03,1.072712779045104980e+00,-1.916287839412689209e-02,1.000000000000000000e+00,9.236315963789820671e-05,0.000000000000000000e+00
1.045818328857421875e-01,2.256239624023437500e+02,2.516019744873046875e+02,2.516019744873046875e+02,-1.491713225841522217e-01,1.221252419054508209e-02,-6.289672851562500000e-02,4.791577816009521484e+00,1.528966357000172138e-03,-6.372628267854452133e-03,-4.340341567993164062e+00,-3.961678594350814819e-03,-6.103466451168060303e-02,-6.266701966524124146e-03,1.072712779045104980e+00,-1.916287839412689209e-02,1.000000000000000000e+00,9.236315963789820671e-05,0.000000000000000000e+00
1.045818328857421875e-01,2.256239624023437500e+02,2.516019744873046875e+02,2.516019744873046875e+02,-1.491713225841522217e-01,1.221252419054508209e-02,-6.289672851562500000e-02,4.791577816009521484e+00,1.528966357000172138e-03,-6.372628267854452133e-03,-4.340341567993164062e+00,-3.961678594350814819e-03,-6.103466451168060303e-02,-6.266701966524124146e-03,1.072712779045104980e+00,-1.916287839412689209e-02,1.000000000000000000e+00,9.236315963789820671e-05,0.000000000000000000e+00
1.045818328857421875e-01,2.256239624023437500e+02,2.516019744873046875e+02,2.516019744873046875e+02,-1.491713225841522217e-01,1.221252419054508209e-02,-6.289672851562500000e-02,4.791577816009521484e+00,1.528966357000172138e-03,-6.372628267854452133e-03,-4.340341567993164062e+00,-3.961678594350814819e-03,-6.103466451168060303e-02,-6.266701966524124146e-03,1.072712779045104980e+00,-1.916287839412689209e-02,1.000000000000000000e+00,9.236315963789820671e-05,0.000000000000000000e+00
1.045818328857421875e-01,2.260942993164062500e+02,2.516020812988281250e+02,2.516020812988281250e+02,-1.962654739618301392e-01,1.212879456579685211e-02,-6.253050267696380615e-02,4.704563617706298828e+00,1.514130504801869392e-03,-2.345171058550477028e-03,-8.310104012489318848e-01,-1.416866289218887687e-04,3.846336156129837036e-02,-1.880189520306885242e-03,-1.264893412590026855e-01,1.261527277529239655e-02,1.000000000000000000e+00,1.188450041809119284e-04,0.000000000000000000e+00
2.092907428741455078e-01,2.260942993164062500e+02,2.516020812988281250e+02,2.516020812988281250e+02,-1.962654739618301392e-01,1.212879456579685211e-02,-6.253050267696380615e-02,4.704563617706298828e+00,1.514130504801869392e-03,-2.345171058550477028e-03,-8.310104012489318848e-01,-1.416866289218887687e-04,3.846336156129837036e-02,-1.880189520306885242e-03,-1.264893412590026855e-01,1.261527277529239655e-02,1.000000000000000000e+00,1.188450041809119284e-04,0.000000000000000000e+00
2.092907428741455078e-01,2.260942993164062500e+02,2.516020812988281250e+02,2.516020812988281250e+02,-1.962654739618301392e-01,1.212879456579685211e-02,-6.253050267696380615e-02,4.704563617706298828e+00,1.514130504801869392e-03,-2.345171058550477028e-03,-8.310104012489318848e-01,-1.416866289218887687e-04,3.846336156129837036e-02,-1.880189520306885242e-03,-1.264893412590026855e-01,1.261527277529239655e-02,1.000000000000000000e+00,1.188450041809119284e-04,0.000000000000000000e+00
2.092907428741455078e-01,2.260942993164062500e+02,2.516020812988281250e+02,2.516020812988281250e+02,-1.962654739618301392e-01,1.212879456579685211e-02,-6.253050267696380615e-02,4.704563617706298828e+00,1.514130504801869392e-03,-2.345171058550477028e-03,-8.310104012489318848e-01,-1.416866289218887687e-04,3.846336156129837036e-02,-1.880189520306885242e-03,-1.264893412590026855e-01,1.261527277529239655e-02,1.000000000000000000e+00,1.188450041809119284e-04,0.000000000000000000e+00
2.092907428741455078e-01,2.260942993164062500e+02,2.516020812988281250e+02,2.516020812988281250e+02,-1.962654739618301392e-01,1.212879456579685211e-02,-6.253050267696380615e-02,4.704563617706298828e+00,1.514130504801869392e-03,-2.345171058550477028e-03,-8.310104012489318848e-01,-1.416866289218887687e-04,3.846336156129837036e-02,-1.880189520306885242e-03,-1.264893412590026855e-01,1.261527277529239655e-02,1.000000000000000000e+00,1.188450041809119284e-04,0.000000000000000000e+00
2.092907428741455078e-01,2.265760650634765625e+02,2.516022033691406250e+02,2.516022033691406250e+02,-1.094742640852928162e-01,1.492050103843212128e-02,-6.280516833066940308e-02,4.910947322845458984e+00,1.794451265595853329e-03,4.736110859084874392e-04,2.765848875045776367e+00,3.756715450435876846e-03,3.777587413787841797e-02,5.528599489480257034e-03,-1.281863212585449219e+00,3.606568649411201477e-02,1.000000000000000000e+00,1.379353489028289914e-04,0.000000000000000000e+00
2.839093208312988281e-01,2.265760650634765625e+02,2.516022033691406250e+02,2.516022033691406250e+02,-1.094742640852928162e-01,1.492050103843212128e-02,-6.280516833066940308e-02,4.910947322845458984e+00,1.794451265595853329e-03,4.736110859084874392e-04,2.765848875045776367e+00,3.756715450435876846e-03,3.777587413787841797e-02,5.528599489480257034e-03,-1.281863212585449219e+00,3.606568649411201477e-02,1.000000000000000000e+00,1.379353489028289914e-04,0.000000000000000000e+00
2.839093208312988281e-01,2.265760650634765625e+02,2.516022033691406250e+02,2.516022033691406250e+02,-1.094742640852928162e-01,1.492050103843212128e-02,-6.280516833066940308e-02,4.910947322845458984e+00,1.794451265595853329e-03,4.736110859084874392e-04,2.765848875045776367e+00,3.756715450435876846e-03,3.777587413787841797e-02,5.528599489480257034e-03,-1.281863212585449219e+00,3.606568649411201477e-02,1.000000000000000000e+00,1.379353489028289914e-04,0.000000000000000000e+00
2.839093208312988281e-01,2.265760650634765625e+02,2.516022033691406250e+02,2.516022033691406250e+02,-1.094742640852928162e-01,1.492050103843212128e-02,-6.280516833066940308e-02,4.910947322845458984e+00,1.794451265595853329e-03,4.736110859084874392e-04,2.765848875045776367e+00,3.756715450435876846e-03,3.777587413787841797e-02,5.528599489480257034e-03,-1.281863212585449219e+00,3.606568649411201477e-02,1.000000000000000000e+00,1.379353489028289914e-04,0.000000000000000000e+00
2.839093208312988281e-01,2.265760650634765625e+02,2.516022033691406250e+02,2.516022033691406250e+02,-1.094742640852928162e-01,1.492050103843212128e-02,-6.280516833066940308e-02,4.910947322845458984e+00,1.794451265595853329e-03,4.736110859084874392e-04,2.765848875045776367e+00,3.756715450435876846e-03,3.777587413787841797e-02,5.528599489480257034e-03,-1.281863212585449219e+00,3.606568649411201477e-02,1.000000000000000000e+00,1.379353489028289914e-04,0.000000000000000000e+00
3.569011688232421875e-01,2.269537963867187500e+02,2.516022796630859375e+02,2.516022796630859375e+02,8.285018615424633026e-03,1.787372678518295288e-02,-6.329344213008880615e-02,5.146862506866455078e+00,2.006816910579800606e-03,1.197108812630176544e-02,3.232075691223144531e+00,2.909443341195583344e-03,1.575172692537307739e-01,8.878304623067378998e-03,-1.773407340049743652e+00,4.189668595790863037e-02,1.000000000000000000e+00,1.133425830630585551e-04,0.000000000000000000e+00
3.569011688232421875e-01,2.269537963867187500e+02,2.516022796630859375e+02,2.516022796630859375e+02,8.285018615424633026e-03,1.787372678518295288e-02,-6.329344213008880615e-02,5.146862506866455078e+00,2.006816910579800606e-03,1.197108812630176544e-02,3.232075691223144531e+00,2.909443341195583344e-03,1.575172692537307739e-01,8.878304623067378998e-03,-1.773407340049743652e+00,4.189668595790863037e-02,1.000000000000000000e+00,1.133425830630585551e-04,0.000000000000000000e+00
3.569011688232421875e-01,2.269537963867187500e+02,2.516022796630859375e+02,2.516022796630859375e+02,8.285018615424633026e-03,1.787372678518295288e-02,-6.329344213008880615e-02,5.146862506866455078e+00,2.006816910579800606e-03,1.197108812630176544e-02,3.232075691223144531e+00,2.909443341195583344e-03,1.575172692537307739e-01,8.878304623067378998e-03,-1.773407340049743652e+00,4.189668595790863037e-02,1.000000000000000000e+00,1.133425830630585551e-04,0.000000000000000000e+00
3.569011688232421875e-01,2.269537963867187500e+02,2.516022796630859375e+02,2.516022796630859375e+02,8.285018615424633026e-03,1.787372678518295288e-02,-6.329344213008880615e-02,5.146862506866455078e+00,2.006816910579800606e-03,1.197108812630176544e-02,3.232075691223144531e+00,2.909443341195583344e-03,1.575172692537307739e-01,8.878304623067378998e-03,-1.773407340049743652e+00,4.189668595790863037e-02,1.000000000000000000e+00,1.133425830630585551e-04,0.000000000000000000e+00
4.765405654907226562e-01,2.273420104980468750e+02,2.516024627685546875e+02,2.516024627685546875e+02,1.327788680791854858e-01,2.093918062746524811e-02,-6.387328356504440308e-02,5.413942813873291016e+00,2.220174297690391541e-03,3.967917058616876602e-03,2.232377529144287109e+00,1.783337211236357689e-03,-6.689411401748657227e-02,9.455598890781402588e-03,-1.651864409446716309e+00,4.307826980948448181e-02,1.000000000000000000e+00,7.764424663037061691e-05,0.000000000000000000e+00
4.765405654907226562e-01,2.273420104980468750e+02,2.516024627685546875e+02,2.516024627685546875e+02,1.327788680791854858e-01,2.093918062746524811e-02,-6.387328356504440308e-02,5.413942813873291016e+00,2.220174297690391541e-03,3.967917058616876602e-03,2.232377529144287109e+00,1.783337211236357689e-03,-6.689411401748657227e-02,9.455598890781402588e-03,-1.651864409446716309e+00,4.307826980948448181e-02,1.000000000000000000e+00,7.764424663037061691e-05,0.000000000000000000e+00
4.765405654907226562e-01,2.273420104980468750e+02,2.516024627685546875e+02,2.516024627685546875e+02,1.327788680791854858e-01,2.093918062746524811e-02,-6.387328356504440308e-02,5.413942813873291016e+00,2.220174297690391541e-03,3.967917058616876602e-03,2.232377529144287109e+00,1.783337211236357689e-03,-6.689411401748657227e-02,9.455598890781402588e-03,-1.651864409446716309e+00,4.307826980948448181e-02,1.000000000000000000e+00,7.764424663037061691e-05,0.000000000000000000e+00
4.765405654907226562e-01,2.273420104980468750e+02,2.516024627685546875e+02,2.516024627685546875e+02,1.327788680791854858e-01,2.093918062746524811e-02,-6.387328356504440308e-02,5.413942813873291016e+00,2.220174297690391541e-03,3.967917058616876602e-03,2.232377529144287109e+00,1.783337211236357689e-03,-6.689411401748657227e-02,9.455598890781402588e-03,-1.651864409446716309e+00,4.307826980948448181e-02,1.000000000000000000e+00,7.764424663037061691e-05,0.000000000000000000e+00
4.765405654907226562e-01,2.273420104980468750e+02,2.516024627685546875e+02,2.516024627685546875e+02,1.327788680791854858e-01,2.093918062746524811e-02,-6.387328356504440308e-02,5.413942813873291016e+00,2.220174297690391541e-03,3.967917058616876602e-03,2.232377529144287109e+00,1.783337211236357689e-03,-6.689411401748657227e-02,9.455598890781402588e-03,-1.651864409446716309e+00,4.307826980948448181e-02,1.000000000000000000e+00,7.764424663037061691e-05,0.000000000000000000e+00
4.765405654907226562e-01,2.273420104980468750e+02,2.516024627685546875e+02,2.516024627685546875e+02,1.327788680791854858e-01,2.093918062746524811e-02,-6.387328356504440308e-02,5.413942813873291016e+00,2.220174297690391541e-03,3.967917058616876602e-03,2.232377529144287109e+00,1.783337211236357689e-03,-6.689411401748657227e-02,9.455598890781402588e-03,-1.651864409446716309e+00,4.307826980948448181e-02,1.000000000000000000e+00,7.764424663037061691e-05,0.000000000000000000e+00
4.765405654907226562e-01,2.273420104980468750e+02,2.516024627685546875e+02,2.516024627685546875e+02,1.327788680791854858e-01,2.093918062746524811e-02,-6.387328356504440308e-02,5.413942813873291016e+00,2.220174297690391541e-03,3.967917058616876602e-03,2.232377529144287109e+00,1.783337211236357689e-03,-6.689411401748657227e-02,9.455598890781402588e-03,-1.651864409446716309e+00,4.307826980948448181e-02,1.000000000000000000e+00,7.764424663037061691e-05,0.000000000000000000e+00
6.200885772705078125e-01,2.279075775146484375e+02,2.516026458740234375e+02,2.516026458740234375e+02,2.820048332214355469e-01,2.478730492293834686e-02,-6.451415270566940308e-02,5.831735134124755859e+00,2.381854690611362457e-03,1.594849891262128949e-04,2.910470962524414062e+00,1.126315793953835964e-03,-2.653072029352188110e-02,7.899196818470954895e-03,-1.491354942321777344e+00,4.166096448898315430e-02,1.000000000000000000e+00,3.406591758903232403e-06,0.000000000000000000e+00
6.200885772705078125e-01,2.279075775146484375e+02,2.516026458740234375e+02,2.516026458740234375e+02,2.820048332214355469e-01,2.478730492293834686e-02,-6.451415270566940308e-02,5.831735134124755859e+00,2.381854690611362457e-03,1.594849891262128949e-04,2.910470962524414062e+00,1.126315793953835964e-03,-2.653072029352188110e-02,7.899196818470954895e-03,-1.491354942321777344e+00,4.166096448898315430e-02,1.000000000000000000e+00,3.406591758903232403e-06,0.000000000000000000e+00
6.200885772705078125e-01,2.279075775146484375e+02,2.516026458740234375e+02,2.516026458740234375e+02,2.820048332214355469e-01,2.478730492293834686e-02,-6.451415270566940308e-02,5.831735134124755859e+00,2.381854690611362457e-03,1.594849891262128949e-04,2.910470962524414062e+00,1.126315793953835964e-03,-2.653072029352188110e-02,7.899196818470954895e-03,-1.491354942321777344e+00,4.166096448898315430e-02,1.000000000000000000e+00,3.406591758903232403e-06,0.000000000000000000e+00
6.200885772705078125e-01,2.279075775146484375e+02,2.516026458740234375e+02,2.516026458740234375e+02,2.820048332214355469e-01,2.478730492293834686e-02,-6.451415270566940308e-02,5.831735134124755859e+00,2.381854690611362457e-03,1.594849891262128949e-04,2.910470962524414062e+00,1.126315793953835964e-03,-2.653072029352188110e-02,7.899196818470954895e-03,-1.491354942321777344e+00,4.166096448898315430e-02,1.000000000000000000e+00,3.406591758903232403e-06,0.000000000000000000e+00
6.200885772705078125e-01,2.279075775146484375e+02,2.516026458740234375e+02,2.516026458740234375e+02,2.820048332214355469e-01,2.478730492293834686e-02,-6.451415270566940308e-02,5.831735134124755859e+00,2.381854690611362457e-03,1.594849891262128949e-04,2.910470962524414062e+00,1.126315793953835964e-03,-2.653072029352188110e-02,7.899196818470954895e-03,-1.491354942321777344e+00,4.166096448898315430e-02,1.000000000000000000e+00,3.406591758903232403e-06,0.000000000000000000e+00
6.200885772705078125e-01,2.279075775146484375e+02,2.516026458740234375e+02,2.516026458740234375e+02,2.820048332214355469e-01,2.478730492293834686e-02,-6.451415270566940308e-02,5.831735134124755859e+00,2.381854690611362457e-03,1.594849891262128949e-04,2.910470962524414062e+00,1.126315793953835964e-03,-2.653072029352188110e-02,7.899196818470954895e-03,-1.491354942321777344e+00,4.166096448898315430e-02,1.000000000000000000e+00,3.406591758903232403e-06,0.000000000000000000e+00
7.946169376373291016e-01,2.285133514404296875e+02,2.516028442382812500e+02,2.516028442382812500e+02,3.909873366355895996e-01,2.830859459936618805e-02,-6.500242650508880615e-02,6.249025344848632812e+00,2.577065955847501755e-03,-7.095298497006297112e-04,2.390959262847900391e+00,1.118507352657616138e-03,-4.979218356311321259e-03,6.618423853069543839e-03,-1.140264630317687988e+00,3.625233471393585205e-02,1.000000000000000000e+00,-6.035824844730086625e-05,0.000000000000000000e+00
7.946169376373291016e-01,2.285133514404296875e+02,2.516028442382812500e+02,2.516028442382812500e+02,3.909873366355895996e-01,2.830859459936618805e-02,-6.500242650508880615e-02,6.249025344848632812e+00,2.577065955847501755e-03,-7.095298497006297112e-04,2.390959262847900391e+00,1.118507352657616138e-03,-4.979218356311321259e-03,6.618423853069543839e-03,-1.140264630317687988e+00,3.625233471393585205e-02,1.000000000000000000e+00,-6.035824844730086625e-05,0.000000000000000000e+00
7.946169376373291016e-01,2.285133514404296875e+02,2.516028442382812500e+02,2.516028442382812500e+02,3.909873366355895996e-01,2.830859459936618805e-02,-6.500242650508880615e-02,6.249025344848632812e+00,2.577065955847501755e-03,-7.095298497006297112e-04,2.390959262847900391e+00,1.118507352657616138e-03,-4.979218356311321259e-03,6.618423853069543839e-03,-1.140264630317687988e+00,3.625233471393585205e-02,1.000000000000000000e+00,-6.035824844730086625e-05,0.000000000000000000e+00
8.783230781555175781e-01,2.291614074707031250e+02,2.516030578613281250e+02,2.516030578613281250e+02,4.675947129726409912e-01,3.097850084304809570e-02,-6.533812731504440308e-02,6.673197269439697266e+00,2.731911372393369675e-03,-7.064595702104270458e-04,5.067393302917480469e+00,1.849869266152381897e-03,3.667926284833811224e-05,4.641275387257337570e-03,-8.111847043037414551e-01,2.581605315208435059e-02,1.000000000000000000e+00,-1.271994260605424643e-04,0.000000000000000000e+00
8.783230781555175781e-01,2.291614074707031250e+02,2.516030578613281250e+02,2.516030578613281250e+02,4.675947129726409912e-01,3.097850084304809570e-02,-6.533812731504440308e-02,6.673197269439697266e+00,2.731911372393369675e-03,-7.064595702104270458e-04,5.067393302917480469e+00,1.849869266152381897e-03,3.667926284833811224e-05,4.641275387257337570e-03,-8.111847043037414551e-01,2.581605315208435059e-02,1.000000000000000000e+00,-1.271994260605424643e-04,0.000000000000000000e+00
8.783230781555175781e-01,2.291614074707031250e+02,2.516030578613281250e+02,2.516030578613281250e+02,4.675947129726409912e-01,3.097850084304809570e-02,-6.533812731504440308e-02,6.673197269439697266e+00,2.731911372393369675e-03,-7.064595702104270458e-04,5.067393302917480469e+00,1.849869266152381897e-03,3.667926284833811224e-05,4.641275387257337570e-03,-8.111847043037414551e-01,2.581605315208435059e-02,1.000000000000000000e+00,-1.271994260605424643e-04,0.000000000000000000e+00
9.483780860900878906e-01,2.297309570312500000e+02,2.516033020019531250e+02,2.516033020019531250e+02,4.817400574684143066e-01,3.141620382666587830e-02,-6.542968004941940308e-02,6.862704277038574219e+00,2.700084354728460312e-03,-5.307315150275826454e-04,2.705117225646972656e+00,-4.543146642390638590e-04,2.508429577574133873e-03,-5.857442156411707401e-04,3.384249210357666016e-01,-1.397820562124252319e-02,0.000000000000000000e+00,-1.787879737094044685e-04,1.000000000000000000e+00
9.483780860900878906e-01,2.297309570312500000e+02,2.516033020019531250e+02,2.516033020019531250e+02,4.817400574684143066e-01,3.141620382666587830e-02,-6.542968004941940308e-02,6.862704277038574219e+00,2.700084354728460312e-03,-5.307315150275826454e-04,2.705117225646972656e+00,-4.543146642390638590e-04,2.508429577574133873e-03,-5.857442156411707401e-04,3.384249210357666016e-01,-1.397820562124252319e-02,0.000000000000000000e+00,-1.787879737094044685e-04,1.000000000000000000e+00
9.483780860900878906e-01,2.297309570312500000e+02,2.516033020019531250e+02,2.516033020019531250e+02,4.817400574684143066e-01,3.141620382666587830e-02,-6.542968004941940308e-02,6.862704277038574219e+00,2.700084354728460312e-03,-5.307315150275826454e-04,2.705117225646972656e+00,-4.543146642390638590e-04,2.508429577574133873e-03,-5.857442156411707401e-04,3.384249210357666016e-01,-1.397820562124252319e-02,0.000000000000000000e+00,-1.787879737094044685e-04,1.000000000000000000e+00
9.483780860900878906e-01,2.297309570312500000e+02,2.516033020019531250e+02,2.516033020019531250e+02,4.817400574684143066e-01,3.141620382666587830e-02,-6.542968004941940308e-02,6.862704277038574219e+00,2.700084354728460312e-03,-5.307315150275826454e-04,2.705117225646972656e+00,-4.543146642390638590e-04,2.508429577574133873e-03,-5.857442156411707401e-04,3.384249210357666016e-01,-1.397820562124252319e-02,0.000000000000000000e+00,-1.787879737094044685e-04,1.000000000000000000e+00
9.483780860900878906e-01,2.302062683105468750e+02,2.516035156250000000e+02,2.516035156250000000e+02,3.907072842121124268e-01,2.851198986172676086e-02,-6.515501439571380615e-02,6.705439090728759766e+00,2.494626445695757866e-03,-3.448384522926062346e-04,-1.995776176452636719e+00,-2.607366535812616348e-03,2.359078731387853622e-03,-8.174175396561622620e-03,1.993193149566650391e+00,-6.294447928667068481e-02,0.000000000000000000e+00,-1.846064842538908124e-04,1.000000000000000000e+00
1.027177095413208008e+00,2.302062683105468750e+02,2.516035156250000000e+02,2.516035156250000000e+02,3.907072842121124268e-01,2.851198986172676086e-02,-6.515501439571380615e-02,6.705439090728759766e+00,2.494626445695757866e-03,-3.448384522926062346e-04,-1.995776176452636719e+00,-2.607366535812616348e-03,2.359078731387853622e-03,-8.174175396561622620e-03,1.993193149566650391e+00,-6.294447928667068481e-02,0.000000000000000000e+00,-1.846064842538908124e-04,1.000000000000000000e+00
1.027177095413208008e+00,2.302062683105468750e+02,2.516035156250000000e+02,2.516035156250000000e+02,3.907072842121124268e-01,2.851198986172676086e-02,-6.515501439571380615e-02,6.705439090728759766e+00,2.494626445695757866e-03,-3.448384522926062346e-04,-1.995776176452636719e+00,-2.607366535812616348e-03,2.359078731387853622e-03,-8.174175396561622620e-03,1.993193149566650391e+00,-6.294447928667068481e-02,0.000000000000000000e+00,-1.846064842538908124e-04,1.000000000000000000e+00
1.095043420791625977e+00,2.307088470458984375e+02,2.516037902832031250e+02,2.516037902832031250e+02,1.468763798475265503e-01,2.098836377263069153e-02,-6.430052220821380615e-02,6.169353485107421875e+00,2.216004533693194389e-03,-1.601062103873118758e-04,-7.899139881134033203e+00,-4.105451516807079315e-03,2.722001401707530022e-03,-1.604718156158924103e-02,3.617306470870971680e+00,-1.189256459474563599e-01,0.000000000000000000e+00,-1.525401166873052716e-04,1.000000000000000000e+00
1.095043420791625977e+00,2.307088470458984375e+02,2.516037902832031250e+02,2.516037902832031250e+02,1.468763798475265503e-01,2.098836377263069153e-02,-6.430052220821380615e-02,6.169353485107421875e+00,2.216004533693194389e-03,-1.601062103873118758e-04,-7.899139881134033203e+00,-4.105451516807079315e-03,2.722001401707530022e-03,-1.604718156158924103e-02,3.617306470870971680e+00,-1.189256459474563599e-01,0.000000000000000000e+00,-1.525401166873052716e-04,1.000000000000000000e+00
1.095043420791625977e+00,2.307088470458984375e+02,2.516037902832031250e+02,2.516037902832031250e+02,1.468763798475265503e-01,2.098836377263069153e-02,-6.430052220821380615e-02,6.169353485107421875e+00,2.216004533693194389e-03,-1.601062103873118758e-04,-7.899139881134033203e+00,-4.105451516807079315e-03,2.722001401707530022e-03,-1.604718156158924103e-02,3.617306470870971680e+00,-1.189256459474563599e-01,0.000000000000000000e+00,-1.525401166873052716e-04,1.000000000000000000e+00
1.095043420791625977e+00,2.307088470458984375e+02,2.516037902832031250e+02,2.516037902832031250e+02,1.468763798475265503e-01,2.098836377263069153e-02,-6.430052220821380615e-02,6.169353485107421875e+00,2.216004533693194389e-03,-1.601062103873118758e-04,-7.899139881134033203e+00,-4.105451516807079315e-03,2.722001401707530022e-03,-1.604718156158924103e-02,3.617306470870971680e+00,-1.189256459474563599e-01,0.000000000000000000e+00,-1.525401166873052716e-04,1.000000000000000000e+00
1.168572425842285156e+00,2.311046752929687500e+02,2.516040344238281250e+02,2.516040344238281250e+02,-9.325939416885375977e-02,1.056713890284299850e-02,-6.320188939571380615e-02,5.696948528289794922e+00,1.830383203923702240e-03,-1.237605902133509517e-04,-6.424742698669433594e+00,-5.244479048997163773e-03,4.943031235598027706e-04,-2.281807921826839447e-02,3.199337959289550781e+00,-1.539651006460189819e-01,1.000000000000000000e+00,-5.107852484798058867e-05,0.000000000000000000e+00
1.168572425842285156e+00,2.311046752929687500e+02,2.516040344238281250e+02,2.516040344238281250e+02,-9.325939416885375977e-02,1.056713890284299850e-02,-6.320188939571380615e-02,5.696948528289794922e+00,1.830383203923702240e-03,-1.237605902133509517e-04,-6.424742698669433594e+00,-5.244479048997163773e-03,4.943031235598027706e-04,-2.281807921826839447e-02,3.199337959289550781e+00,-1.539651006460189819e-01,1.000000000000000000e+00,-5.107852484798058867e-05,0.000000000000000000e+00
1.168572425842285156e+00,2.311046752929687500e+02,2.516040344238281250e+02,2.516040344238281250e+02,-9.325939416885375977e-02,1.056713890284299850e-02,-6.320188939571380615e-02,5.696948528289794922e+00,1.830383203923702240e-03,-1.237605902133509517e-04,-6.424742698669433594e+00,-5.244479048997163773e-03,4.943031235598027706e-04,-2.281807921826839447e-02,3.199337959289550781e+00,-1.539651006460189819e-01,1.000000000000000000e+00,-5.107852484798058867e-05,0.000000000000000000e+00
1.168572425842285156e+00,2.311046752929687500e+02,2.516040344238281250e+02,2.516040344238281250e+02,-9.325939416885375977e-02,1.056713890284299850e-02,-6.320188939571380615e-02,5.696948528289794922e+00,1.830383203923702240e-03,-1.237605902133509517e-04,-6.424742698669433594e+00,-5.244479048997163773e-03,4.943031235598027706e-04,-2.281807921826839447e-02,3.199337959289550781e+00,-1.539651006460189819e-01,1.000000000000000000e+00,-5.107852484798058867e-05,0.000000000000000000e+00
1.168572425842285156e+00,2.315142517089843750e+02,2.516041870117187500e+02,2.516041870117187500e+02,-2.382506430149078369e-01,5.205110181123018265e-03,-6.188964098691940308e-02,5.547206401824951172e+00,1.384911942295730114e-03,-1.461100328015163541e-04,-1.995272874832153320e+00,-5.935782566666603088e-03,-2.978002012241631746e-04,-1.531814038753509521e-02,1.118726611137390137e+00,-4.104078561067581177e-02,1.000000000000000000e+00,1.018946277326904237e-04,0.000000000000000000e+00
1.243620872497558594e+00,2.315142517089843750e+02,2.516041870117187500e+02,2.516041870117187500e+02,-2.382506430149078369e-01,5.205110181123018265e-03,-6.188964098691940308e-02,5.547206401824951172e+00,1.384911942295730114e-03,-1.461100328015163541e-04,-1.995272874832153320e+00,-5.935782566666603088e-03,-2.978002012241631746e-04,-1.531814038753509521e-02,1.118726611137390137e+00,-4.104078561067581177e-02,1.000000000000000000e+00,1.018946277326904237e-04,0.000000000000000000e+00
1.243620872497558594e+00,2.315142517089843750e+02,2.516041870117187500e+02,2.516041870117187500e+02,-2.382506430149078369e-01,5.205110181123018265e-03,-6.188964098691940308e-02,5.547206401824951172e+00,1.384911942295730114e-03,-1.461100328015163541e-04,-1.995272874832153320e+00,-5.935782566666603088e-03,-2.978002012241631746e-04,-1.531814038753509521e-02,1.118726611137390137e+00,-4.104078561067581177e-02,1.000000000000000000e+00,1.018946277326904237e-04,0.000000000000000000e+00
1.243620872497558594e+00,2.315142517089843750e+02,2.516041870117187500e+02,2.516041870117187500e+02,-2.382506430149078369e-01,5.205110181123018265e-03,-6.188964098691940308e-02,5.547206401824951172e+00,1.384911942295730114e-03,-1.461100328015163541e-04,-1.995272874832153320e+00,-5.935782566666603088e-03,-2.978002012241631746e-04,-1.531814038753509521e-02,1.118726611137390137e+00,-4.104078561067581177e-02,1.000000000000000000e+00,1.018946277326904237e-04,0.000000000000000000e+00
1.312042951583862305e+00,2.319297943115234375e+02,2.516042785644531250e+02,2.516042785644531250e+02,-2.500873506069183350e-01,5.992249585688114166e-03,-6.161499395966529846e-02,5.543838977813720703e+00,1.526160747744143009e-03,-1.065189644577912986e-04,-4.921545833349227905e-02,2.064374741166830063e-03,5.786300171166658401e-04,1.502764553151791915e-05,-3.402729034423828125e-01,4.286062344908714294e-02,1.000000000000000000e+00,1.933698949869722128e-04,0.000000000000000000e+00
1.312042951583862305e+00,2.319297943115234375e+02,2.516042785644531250e+02,2.516042785644531250e+02,-2.500873506069183350e-01,5.992249585688114166e-03,-6.161499395966529846e-02,5.543838977813720703e+00,1.526160747744143009e-03,-1.065189644577912986e-04,-4.921545833349227905e-02,2.064374741166830063e-03,5.786300171166658401e-04,1.502764553151791915e-05,-3.402729034423828125e-01,4.286062344908714294e-02,1.000000000000000000e+00,1.933698949869722128e-04,0.000000000000000000e+00
1.312042951583862305e+00,2.323158721923828125e+02,2.516043548583984375e+02,2.516043548583984375e+02,-1.791353672742843628e-01,8.415014483034610748e-03,-6.192015856504440308e-02,5.701257228851318359e+00,1.684439019300043583e-03,-4.863073627348057926e-05,2.214463472366333008e+00,2.226561540737748146e-03,8.143360610119998455e-04,7.051838096231222153e-03,-1.409064769744873047e+00,4.397336393594741821e-02,1.000000000000000000e+00,1.950609148479998112e-04,0.000000000000000000e+00
1.383129358291625977e+00,2.323158721923828125e+02,2.516043548583984375e+02,2.516043548583984375e+02,-1.791353672742843628e-01,8.415014483034610748e-03,-6.192015856504440308e-02,5.701257228851318359e+00,1.684439019300043583e-03,-4.863073627348057926e-05,2.214463472366333008e+00,2.226561540737748146e-03,8.143360610119998455e-04,7.051838096231222153e-03,-1.409064769744873047e+00,4.397336393594741821e-02,1.000000000000000000e+00,1.950609148479998112e-04,0.000000000000000000e+00
1.383129358291625977e+00,2.323158721923828125e+02,2.516043548583984375e+02,2.516043548583984375e+02,-1.791353672742843628e-01,8.415014483034610748e-03,-6.192015856504440308e-02,5.701257228851318359e+00,1.684439019300043583e-03,-4.863073627348057926e-05,2.214463472366333008e+00,2.226561540737748146e-03,8.143360610119998455e-04,7.051838096231222153e-03,-1.409064769744873047e+00,4.397336393594741821e-02,1.000000000000000000e+00,1.950609148479998112e-04,0.000000000000000000e+00
1.450951814651489258e+00,2.327288208007812500e+02,2.516044158935546875e+02,2.516044158935546875e+02,-6.839068233966827393e-02,1.198889687657356262e-02,-6.256102025508880615e-02,5.865258693695068359e+00,1.927373814396560192e-03,-1.611480365681927651e-05,2.418099880218505859e+00,3.581922734156250954e-03,4.794272535946220160e-04,1.109042298048734665e-02,-1.580576300621032715e+00,5.331515520811080933e-02,1.000000000000000000e+00,1.773769181454554200e-04,0.000000000000000000e+00
1.450951814651489258e+00,2.327288208007812500e+02,2.516044158935546875e+02,2.516044158935546875e+02,-6.839068233966827393e-02,1.198889687657356262e-02,-6.256102025508880615e-02,5.865258693695068359e+00,1.927373814396560192e-03,-1.611480365681927651e-05,2.418099880218505859e+00,3.581922734156250954e-03,4.794272535946220160e-04,1.109042298048734665e-02,-1.580576300621032715e+00,5.331515520811080933e-02,1.000000000000000000e+00,1.773769181454554200e-04,0.000000000000000000e+00
1.450951814651489258e+00,2.327288208007812500e+02,2.516044158935546875e+02,2.516044158935546875e+02,-6.839068233966827393e-02,1.198889687657356262e-02,-6.256102025508880615e-02,5.865258693695068359e+00,1.927373814396560192e-03,-1.611480365681927651e-05,2.418099880218505859e+00,3.581922734156250954e-03,4.794272535946220160e-04,1.109042298048734665e-02,-1.580576300621032715e+00,5.331515520811080933e-02,1.000000000000000000e+00,1.773769181454554200e-04,0.000000000000000000e+00
1.527701377868652344e+00,2.331374511718750000e+02,2.516045074462890625e+02,2.516045074462890625e+02,4.746981337666511536e-02,1.569690369069576263e-02,-6.323242187500000000e-02,6.108426570892333984e+00,2.160826232284307480e-03,-1.565720776852685958e-05,3.168329238891601562e+00,3.041742602363228798e-03,5.962195245956536382e-06,1.142386347055435181e-02,-1.748118758201599121e+00,5.601138249039649963e-02,1.000000000000000000e+00,1.339784939773380756e-04,0.000000000000000000e+00
1.527701377868652344e+00,2.331374511718750000e+02,2.516045074462890625e+02,2.516045074462890625e+02,4.746981337666511536e-02,1.569690369069576263e-02,-6.323242187500000000e-02,6.108426570892333984e+00,2.160826232284307480e-03,-1.565720776852685958e-05,3.168329238891601562e+00,3.041742602363228798e-03,5.962195245956536382e-06,1.142386347055435181e-02,-1.748118758201599121e+00,5.601138249039649963e-02,1.000000000000000000e+00,1.339784939773380756e-04,0.000000000000000000e+00
1.527701377868652344e+00,2.331374511718750000e+02,2.516045074462890625e+02,2.516045074462890625e+02,4.746981337666511536e-02,1.569690369069576263e-02,-6.323242187500000000e-02,6.108426570892333984e+00,2.160826232284307480e-03,-1.565720776852685958e-05,3.168329238891601562e+00,3.041742602363228798e-03,5.962195245956536382e-06,1.142386347055435181e-02,-1.748118758201599121e+00,5.601138249039649963e-02,1.000000000000000000e+00,1.339784939773380756e-04,0.000000000000000000e+00
1.600134611129760742e+00,2.336187286376953125e+02,2.516046600341796875e+02,2.516046600341796875e+02,1.690540015697479248e-01,1.978749781847000122e-02,-6.399536132812500000e-02,6.355460166931152344e+00,2.445649355649948120e-03,-3.884672696585766971e-05,3.410500764846801758e+00,3.932216204702854156e-03,-3.201502840965986252e-04,1.110736932605504990e-02,-1.392692089080810547e+00,5.263835191726684570e-02,1.000000000000000000e+00,8.964286826085299253e-05,0.000000000000000000e+00
1.600134611129760742e+00,2.336187286376953125e+02,2.516046600341796875e+02,2.516046600341796875e+02,1.690540015697479248e-01,1.978749781847000122e-02,-6.399536132812500000e-02,6.355460166931152344e+00,2.445649355649948120e-03,-3.884672696585766971e-05,3.410500764846801758e+00,3.932216204702854156e-03,-3.201502840965986252e-04,1.110736932605504990e-02,-1.392692089080810547e+00,5.263835191726684570e-02,1.000000000000000000e+00,8.964286826085299253e-05,0.000000000000000000e+00
1.600134611129760742e+00,2.336187286376953125e+02,2.516046600341796875e+02,2.516046600341796875e+02,1.690540015697479248e-01,1.978749781847000122e-02,-6.399536132812500000e-02,6.355460166931152344e+00,2.445649355649948120e-03,-3.884672696585766971e-05,3.410500764846801758e+00,3.932216204702854156e-03,-3.201502840965986252e-04,1.110736932605504990e-02,-1.392692089080810547e+00,5.263835191726684570e-02,1.000000000000000000e+00,8.964286826085299253e-05,0.000000000000000000e+00
1.600134611129760742e+00,2.336187286376953125e+02,2.516046600341796875e+02,2.516046600341796875e+02,1.690540015697479248e-01,1.978749781847000122e-02,-6.399536132812500000e-02,6.355460166931152344e+00,2.445649355649948120e-03,-3.884672696585766971e-05,3.410500764846801758e+00,3.932216204702854156e-03,-3.201502840965986252e-04,1.110736932605504990e-02,-1.392692089080810547e+00,5.263835191726684570e-02,1.000000000000000000e+00,8.964286826085299253e-05,0.000000000000000000e+00
1.600134611129760742e+00,2.336187286376953125e+02,2.516046600341796875e+02,2.516046600341796875e+02,1.690540015697479248e-01,1.978749781847000122e-02,-6.399536132812500000e-02,6.355460166931152344e+00,2.445649355649948120e-03,-3.884672696585766971e-05,3.410500764846801758e+00,3.932216204702854156e-03,-3.201502840965986252e-04,1.110736932605504990e-02,-1.392692089080810547e+00,5.263835191726684570e-02,1.000000000000000000e+00,8.964286826085299253e-05,0.000000000000000000e+00
1.600134611129760742e+00,2.340851745605468750e+02,2.516048431396484375e+02,2.516048431396484375e+02,2.252459675073623657e-01,2.184031158685684204e-02,-6.439208984375000000e-02,6.382009983062744141e+00,2.408427884802222252e-03,-4.354799602879211307e-05,2.301098853349685669e-01,-3.226021653972566128e-04,-4.074636308359913528e-05,3.867513500154018402e-03,1.130856201052665710e-01,-3.929826430976390839e-03,0.000000000000000000e+00,5.515874363481998444e-06,1.000000000000000000e+00
1.715513467788696289e+00,2.340851745605468750e+02,2.516048431396484375e+02,2.516048431396484375e+02,2.252459675073623657e-01,2.184031158685684204e-02,-6.439208984375000000e-02,6.382009983062744141e+00,2.408427884802222252e-03,-4.354799602879211307e-05,2.301098853349685669e-01,-3.226021653972566128e-04,-4.074636308359913528e-05,3.867513500154018402e-03,1.130856201052665710e-01,-3.929826430976390839e-03,0.000000000000000000e+00,5.515874363481998444e-06,1.000000000000000000e+00
1.715513467788696289e+00,2.340851745605468750e+02,2.516048431396484375e+02,2.516048431396484375e+02,2.252459675073623657e-01,2.184031158685684204e-02,-6.439208984375000000e-02,6.382009983062744141e+00,2.408427884802222252e-03,-4.354799602879211307e-05,2.301098853349685669e-01,-3.226021653972566128e-04,-4.074636308359913528e-05,3.867513500154018402e-03,1.130856201052665710e-01,-3.929826430976390839e-03,0.000000000000000000e+00,5.515874363481998444e-06,1.000000000000000000e+00
1.715513467788696289e+00,2.346708679199218750e+02,2.516051330566406250e+02,2.516051330566406250e+02,-3.708109632134437561e-02,1.447378192096948624e-02,-6.372069567441940308e-02,5.377132415771484375e+00,1.851345994509756565e-03,1.567579238326288760e-05,-1.029570293426513672e+01,-5.707709584385156631e-03,6.067908834666013718e-04,-1.428739912807941437e-02,4.447505950927734375e+00,-1.270488947629928589e-01,0.000000000000000000e+00,-3.601100615924224257e-05,1.000000000000000000e+00
1.813115119934082031e+00,2.346708679199218750e+02,2.516051330566406250e+02,2.516051330566406250e+02,-3.708109632134437561e-02,1.447378192096948624e-02,-6.372069567441940308e-02,5.377132415771484375e+00,1.851345994509756565e-03,1.567579238326288760e-05,-1.029570293426513672e+01,-5.707709584385156631e-03,6.067908834666013718e-04,-1.428739912807941437e-02,4.447505950927734375e+00,-1.270488947629928589e-01,0.000000000000000000e+00,-3.601100615924224257e-05,1.000000000000000000e+00
1.813115119934082031e+00,2.346708679199218750e+02,2.516051330566406250e+02,2.516051330566406250e+02,-3.708109632134437561e-02,1.447378192096948624e-02,-6.372069567441940308e-02,5.377132415771484375e+00,1.851345994509756565e-03,1.567579238326288760e-05,-1.029570293426513672e+01,-5.707709584385156631e-03,6.067908834666013718e-04,-1.428739912807941437e-02,4.447505950927734375e+00,-1.270488947629928589e-01,0.000000000000000000e+00,-3.601100615924224257e-05,1.000000000000000000e+00
1.813115119934082031e+00,2.346708679199218750e+02,2.516051330566406250e+02,2.516051330566406250e+02,-3.708109632134437561e-02,1.447378192096948624e-02,-6.372069567441940308e-02,5.377132415771484375e+00,1.851345994509756565e-03,1.567579238326288760e-05,-1.029570293426513672e+01,-5.707709584385156631e-03,6.067908834666013718e-04,-1.428739912807941437e-02,4.447505950927734375e+00,-1.270488947629928589e-01,0.000000000000000000e+00,-3.601100615924224257e-05,1.000000000000000000e+00
1.813115119934082031e+00,2.351109313964843750e+02,2.516054687500000000e+02,2.516054687500000000e+02,-5.106453895568847656e-01,-1.190185430459678173e-03,-6.167602539062500000e-02,4.046895503997802734e+00,8.729785331524908543e-04,-6.517847068607807159e-03,-1.602314186096191406e+01,-1.178475748747587204e-02,-7.869843393564224243e-02,-3.052929230034351349e-02,4.432494640350341797e+00,-1.278477311134338379e-01,1.000000000000000000e+00,6.735759961884468794e-05,0.000000000000000000e+00
1.896134853363037109e+00,2.351109313964843750e+02,2.516054687500000000e+02,2.516054687500000000e+02,-5.106453895568847656e-01,-1.190185430459678173e-03,-6.167602539062500000e-02,4.046895503997802734e+00,8.729785331524908543e-04,-6.517847068607807159e-03,-1.602314186096191406e+01,-1.178475748747587204e-02,-7.869843393564224243e-02,-3.052929230034351349e-02,4.432494640350341797e+00,-1.278477311134338379e-01,1.000000000000000000e+00,6.735759961884468794e-05,0.000000000000000000e+00
1.896134853363037109e+00,2.351109313964843750e+02,2.516054687500000000e+02,2.516054687500000000e+02,-5.106453895568847656e-01,-1.190185430459678173e-03,-6.167602539062500000e-02,4.046895503997802734e+00,8.729785331524908543e-04,-6.517847068607807159e-03,-1.602314186096191406e+01,-1.178475748747587204e-02,-7.869843393564224243e-02,-3.052929230034351349e-02,4.432494640350341797e+00,-1.278477311134338379e-01,1.000000000000000000e+00,6.735759961884468794e-05,0.000000000000000000e+00
1.896134853363037109e+00,2.351109313964843750e+02,2.516054687500000000e+02,2.516054687500000000e+02,-5.106453895568847656e-01,-1.190185430459678173e-03,-6.167602539062500000e-02,4.046895503997802734e+00,8.729785331524908543e-04,-6.517847068607807159e-03,-1.602314186096191406e+01,-1.178475748747587204e-02,-7.869843393564224243e-02,-3.052929230034351349e-02,4.432494640350341797e+00,-1.278477311134338379e-01,1.000000000000000000e+00,6.735759961884468794e-05,0.000000000000000000e+00
1.896134853363037109e+00,2.351109313964843750e+02,2.516054687500000000e+02,2.516054687500000000e+02,-5.106453895568847656e-01,-1.190185430459678173e-03,-6.167602539062500000e-02,4.046895503997802734e+00,8.729785331524908543e-04,-6.517847068607807159e-03,-1.602314186096191406e+01,-1.178475748747587204e-02,-7.869843393564224243e-02,-3.052929230034351349e-02,4.432494640350341797e+00,-1.278477311134338379e-01,1.000000000000000000e+00,6.735759961884468794e-05,0.000000000000000000e+00
1.896134853363037109e+00,2.351109313964843750e+02,2.516054687500000000e+02,2.516054687500000000e+02,-5.106453895568847656e-01,-1.190185430459678173e-03,-6.167602539062500000e-02,4.046895503997802734e+00,8.729785331524908543e-04,-6.517847068607807159e-03,-1.602314186096191406e+01,-1.178475748747587204e-02,-7.869843393564224243e-02,-3.052929230034351349e-02,4.432494640350341797e+00,-1.278477311134338379e-01,1.000000000000000000e+00,6.735759961884468794e-05,0.000000000000000000e+00
1.896134853363037109e+00,2.351109313964843750e+02,2.516054687500000000e+02,2.516054687500000000e+02,-5.106453895568847656e-01,-1.190185430459678173e-03,-6.167602539062500000e-02,4.046895503997802734e+00,8.729785331524908543e-04,-6.517847068607807159e-03,-1.602314186096191406e+01,-1.178475748747587204e-02,-7.869843393564224243e-02,-3.052929230034351349e-02,4.432494640350341797e+00,-1.278477311134338379e-01,1.000000000000000000e+00,6.735759961884468794e-05,0.000000000000000000e+00
1.896134853363037109e+00,2.351109313964843750e+02,2.516054687500000000e+02,2.516054687500000000e+02,-5.106453895568847656e-01,-1.190185430459678173e-03,-6.167602539062500000e-02,4.046895503997802734e+00,8.729785331524908543e-04,-6.517847068607807159e-03,-1.602314186096191406e+01,-1.178475748747587204e-02,-7.869843393564224243e-02,-3.052929230034351349e-02,4.432494640350341797e+00,-1.278477311134338379e-01,1.000000000000000000e+00,6.735759961884468794e-05,0.000000000000000000e+00
2.195794820785522461e+00,2.361901550292968750e+02,2.516057434082031250e+02,2.516057434082031250e+02,-4.027352631092071533e-01,3.389868186786770821e-03,-6.115722283720970154e-02,3.975240468978881836e+00,1.177725964225828648e-03,2.325929235666990280e-03,-1.123036146163940430e-01,8.871072204783558846e-04,3.146564960479736328e-02,8.620170876383781433e-03,-1.610108971595764160e+00,3.368388861417770386e-02,1.000000000000000000e+00,2.849950105883181095e-04,0.000000000000000000e+00
2.195794820785522461e+00,2.361901550292968750e+02,2.516057434082031250e+02,2.516057434082031250e+02,-4.027352631092071533e-01,3.389868186786770821e-03,-6.115722283720970154e-02,3.975240468978881836e+00,1.177725964225828648e-03,2.325929235666990280e-03,-1.123036146163940430e-01,8.871072204783558846e-04,3.146564960479736328e-02,8.620170876383781433e-03,-1.610108971595764160e+00,3.368388861417770386e-02,1.000000000000000000e+00,2.849950105883181095e-04,0.000000000000000000e+00
2.195794820785522461e+00,2.361901550292968750e+02,2.516057434082031250e+02,2.516057434082031250e+02,-4.027352631092071533e-01,3.389868186786770821e-03,-6.115722283720970154e-02,3.975240468978881836e+00,1.177725964225828648e-03,2.325929235666990280e-03,-1.123036146163940430e-01,8.871072204783558846e-04,3.146564960479736328e-02,8.620170876383781433e-03,-1.610108971595764160e+00,3.368388861417770386e-02,1.000000000000000000e+00,2.849950105883181095e-04,0.000000000000000000e+00
2.195794820785522461e+00,2.361901550292968750e+02,2.516057434082031250e+02,2.516057434082031250e+02,-4.027352631092071533e-01,3.389868186786770821e-03,-6.115722283720970154e-02,3.975240468978881836e+00,1.177725964225828648e-03,2.325929235666990280e-03,-1.123036146163940430e-01,8.871072204783558846e-04,3.146564960479736328e-02,8.620170876383781433e-03,-1.610108971595764160e+00,3.368388861417770386e-02,1.000000000000000000e+00,2.849950105883181095e-04,0.000000000000000000e+00
2.195794820785522461e+00,2.361901550292968750e+02,2.516057434082031250e+02,2.516057434082031250e+02,-4.027352631092071533e-01,3.389868186786770821e-03,-6.115722283720970154e-02,3.975240468978881836e+00,1.177725964225828648e-03,2.325929235666990280e-03,-1.123036146163940430e-01,8.871072204783558846e-04,3.146564960479736328e-02,8.620170876383781433e-03,-1.610108971595764160e+00,3.368388861417770386e-02,1.000000000000000000e+00,2.849950105883181095e-04,0.000000000000000000e+00
2.195794820785522461e+00,2.361901550292968750e+02,2.516057434082031250e+02,2.516057434082031250e+02,-4.027352631092071533e-01,3.389868186786770821e-03,-6.115722283720970154e-02,3.975240468978881836e+00,1.177725964225828648e-03,2.325929235666990280e-03,-1.123036146163940430e-01,8.871072204783558846e-04,3.146564960479736328e-02,8.620170876383781433e-03,-1.610108971595764160e+00,3.368388861417770386e-02,1.000000000000000000e+00,2.849950105883181095e-04,0.000000000000000000e+00
2.195794820785522461e+00,2.361901550292968750e+02,2.516057434082031250e+02,2.516057434082031250e+02,-4.027352631092071533e-01,3.389868186786770821e-03,-6.115722283720970154e-02,3.975240468978881836e+00,1.177725964225828648e-03,2.325929235666990280e-03,-1.123036146163940430e-01,8.871072204783558846e-04,3.146564960479736328e-02,8.620170876383781433e-03,-1.610108971595764160e+00,3.368388861417770386e-02,1.000000000000000000e+00,2.849950105883181095e-04,0.000000000000000000e+00
2.195794820785522461e+00,2.361901550292968750e+02,2.516057434082031250e+02,2.516057434082031250e+02,-4.027352631092071533e-01,3.389868186786770821e-03,-6.115722283720970154e-02,3.975240468978881836e+00,1.177725964225828648e-03,2.325929235666990280e-03,-1.123036146163940430e-01,8.871072204783558846e-04,3.146564960479736328e-02,8.620170876383781433e-03,-1.610108971595764160e+00,3.368388861417770386e-02,1.000000000000000000e+00,2.849950105883181095e-04,0.000000000000000000e+00
2.195794820785522461e+00,2.361901550292968750e+02,2.516057434082031250e+02,2.516057434082031250e+02,-4.027352631092071533e-01,3.389868186786770821e-03,-6.115722283720970154e-02,3.975240468978881836e+00,1.177725964225828648e-03,2.325929235666990280e-03,-1.123036146163940430e-01,8.871072204783558846e-04,3.146564960479736328e-02,8.620170876383781433e-03,-1.610108971595764160e+00,3.368388861417770386e-02,1.000000000000000000e+00,2.849950105883181095e-04,0.000000000000000000e+00
2.195794820785522461e+00,2.361901550292968750e+02,2.516057434082031250e+02,2.516057434082031250e+02,-4.027352631092071533e-01,3.389868186786770821e-03,-6.115722283720970154e-02,3.975240468978881836e+00,1.177725964225828648e-03,2.325929235666990280e-03,-1.123036146163940430e-01,8.871072204783558846e-04,3.146564960479736328e-02,8.620170876383781433e-03,-1.610108971595764160e+00,3.368388861417770386e-02,1.000000000000000000e+00,2.849950105883181095e-04,0.000000000000000000e+00
2.374083757400512695e+00,2.364126129150390625e+02,2.516057891845703125e+02,2.516057891845703125e+02,-2.689796686172485352e-01,6.283893249928951263e-03,-6.167603284120559692e-02,4.307448863983154297e+00,1.337711815722286701e-03,2.666109940037131310e-03,1.863314628601074219e+00,8.973403018899261951e-04,1.908030360937118530e-03,1.213141810148954391e-02,-2.996429443359375000e+00,6.519790738821029663e-02,1.000000000000000000e+00,2.444477868266403675e-04,0.000000000000000000e+00
2.374083757400512695e+00,2.364126129150390625e+02,2.516057891845703125e+02,2.516057891845703125e+02,-2.689796686172485352e-01,6.283893249928951263e-03,-6.167603284120559692e-02,4.307448863983154297e+00,1.337711815722286701e-03,2.666109940037131310e-03,1.863314628601074219e+00,8.973403018899261951e-04,1.908030360937118530e-03,1.213141810148954391e-02,-2.996429443359375000e+00,6.519790738821029663e-02,1.000000000000000000e+00,2.444477868266403675e-04,0.000000000000000000e+00
2.374083757400512695e+00,2.364126129150390625e+02,2.516057891845703125e+02,2.516057891845703125e+02,-2.689796686172485352e-01,6.283893249928951263e-03,-6.167603284120559692e-02,4.307448863983154297e+00,1.337711815722286701e-03,2.666109940037131310e-03,1.863314628601074219e+00,8.973403018899261951e-04,1.908030360937118530e-03,1.213141810148954391e-02,-2.996429443359375000e+00,6.519790738821029663e-02,1.000000000000000000e+00,2.444477868266403675e-04,0.000000000000000000e+00
2.447860002517700195e+00,2.368846588134765625e+02,2.516058959960937500e+02,2.516058959960937500e+02,6.875950843095779419e-02,1.374483574181795120e-02,-6.326292455196380615e-02,4.962586402893066406e+00,1.909694052301347256e-03,-5.925716832280158997e-04,8.880061149597167969e+00,7.752932608127593994e-03,-4.416979476809501648e-02,1.941769756376743317e-02,-3.310656070709228516e+00,7.883785665035247803e-02,1.000000000000000000e+00,2.060137921944260597e-04,0.000000000000000000e+00
2.447860002517700195e+00,2.368846588134765625e+02,2.516058959960937500e+02,2.516058959960937500e+02,6.875950843095779419e-02,1.374483574181795120e-02,-6.326292455196380615e-02,4.962586402893066406e+00,1.909694052301347256e-03,-5.925716832280158997e-04,8.880061149597167969e+00,7.752932608127593994e-03,-4.416979476809501648e-02,1.941769756376743317e-02,-3.310656070709228516e+00,7.883785665035247803e-02,1.000000000000000000e+00,2.060137921944260597e-04,0.000000000000000000e+00
2.500878810882568359e+00,2.372733306884765625e+02,2.516059722900390625e+02,2.516059722900390625e+02,3.041209876537322998e-01,1.901552826166152954e-02,-6.442259252071380615e-02,5.424613952636718750e+00,2.091889968141913414e-03,7.285206113010644913e-03,8.714407920837402344e+00,3.436439204961061478e-03,1.485845893621444702e-01,1.754475571215152740e-02,-2.863651275634765625e+00,6.879015266895294189e-02,1.000000000000000000e+00,9.443154704058542848e-05,0.000000000000000000e+00
2.500878810882568359e+00,2.372733306884765625e+02,2.516059722900390625e+02,2.516059722900390625e+02,3.041209876537322998e-01,1.901552826166152954e-02,-6.442259252071380615e-02,5.424613952636718750e+00,2.091889968141913414e-03,7.285206113010644913e-03,8.714407920837402344e+00,3.436439204961061478e-03,1.485845893621444702e-01,1.754475571215152740e-02,-2.863651275634765625e+00,6.879015266895294189e-02,1.000000000000000000e+00,9.443154704058542848e-05,0.000000000000000000e+00
2.500878810882568359e+00,2.375727081298828125e+02,2.516060333251953125e+02,2.516060333251953125e+02,4.304316639900207520e-01,2.230303734540939331e-02,-6.512451171875000000e-02,5.745213508605957031e+00,2.194114495068788528e-03,2.719670999795198441e-03,5.404884338378906250e+00,1.723370281979441643e-03,-7.696887850761413574e-02,1.321053411811590195e-02,-2.134382486343383789e+00,5.917467549443244934e-02,1.000000000000000000e+00,1.175871602754341438e-05,0.000000000000000000e+00
2.560195446014404297e+00,2.375727081298828125e+02,2.516060333251953125e+02,2.516060333251953125e+02,4.304316639900207520e-01,2.230303734540939331e-02,-6.512451171875000000e-02,5.745213508605957031e+00,2.194114495068788528e-03,2.719670999795198441e-03,5.404884338378906250e+00,1.723370281979441643e-03,-7.696887850761413574e-02,1.321053411811590195e-02,-2.134382486343383789e+00,5.917467549443244934e-02,1.000000000000000000e+00,1.175871602754341438e-05,0.000000000000000000e+00
2.560195446014404297e+00,2.375727081298828125e+02,2.516060333251953125e+02,2.516060333251953125e+02,4.304316639900207520e-01,2.230303734540939331e-02,-6.512451171875000000e-02,5.745213508605957031e+00,2.194114495068788528e-03,2.719670999795198441e-03,5.404884338378906250e+00,1.723370281979441643e-03,-7.696887850761413574e-02,1.321053411811590195e-02,-2.134382486343383789e+00,5.917467549443244934e-02,1.000000000000000000e+00,1.175871602754341438e-05,0.000000000000000000e+00
2.618730545043945312e+00,2.379275207519531250e+02,2.516061401367187500e+02,2.516061401367187500e+02,5.362039804458618164e-01,2.546400949358940125e-02,-6.570433825254440308e-02,6.091864585876464844e+00,2.373740077018737793e-03,3.415936080273240805e-04,5.922106266021728516e+00,3.068681573495268822e-03,-4.062652215361595154e-02,1.073662750422954559e-02,-1.506205439567565918e+00,5.034629628062248230e-02,1.000000000000000000e+00,-3.954968269681558013e-05,0.000000000000000000e+00
2.618730545043945312e+00,2.379275207519531250e+02,2.516061401367187500e+02,2.516061401367187500e+02,5.362039804458618164e-01,2.546400949358940125e-02,-6.570433825254440308e-02,6.091864585876464844e+00,2.373740077018737793e-03,3.415936080273240805e-04,5.922106266021728516e+00,3.068681573495268822e-03,-4.062652215361595154e-02,1.073662750422954559e-02,-1.506205439567565918e+00,5.034629628062248230e-02,1.000000000000000000e+00,-3.954968269681558013e-05,0.000000000000000000e+00
2.677334070205688477e+00,2.382975158691406250e+02,2.516062774658203125e+02,2.516062774658203125e+02,6.085152029991149902e-01,2.815040014684200287e-02,-6.613157689571380615e-02,6.427173137664794922e+00,2.526840893551707268e-03,-6.634503952227532864e-04,5.721644878387451172e+00,2.612484851852059364e-03,-1.714988984167575836e-02,7.653362583369016647e-03,-9.855345487594604492e-01,4.285984858870506287e-02,1.000000000000000000e+00,-9.286820568377152085e-05,0.000000000000000000e+00
2.677334070205688477e+00,2.382975158691406250e+02,2.516062774658203125e+02,2.516062774658203125e+02,6.085152029991149902e-01,2.815040014684200287e-02,-6.613157689571380615e-02,6.427173137664794922e+00,2.526840893551707268e-03,-6.634503952227532864e-04,5.721644878387451172e+00,2.612484851852059364e-03,-1.714988984167575836e-02,7.653362583369016647e-03,-9.855345487594604492e-01,4.285984858870506287e-02,1.000000000000000000e+00,-9.286820568377152085e-05,0.000000000000000000e+00
2.677334070205688477e+00,2.382975158691406250e+02,2.516062774658203125e+02,2.516062774658203125e+02,6.085152029991149902e-01,2.815040014684200287e-02,-6.613157689571380615e-02,6.427173137664794922e+00,2.526840893551707268e-03,-6.634503952227532864e-04,5.721644878387451172e+00,2.612484851852059364e-03,-1.714988984167575836e-02,7.653362583369016647e-03,-9.855345487594604492e-01,4.285984858870506287e-02,1.000000000000000000e+00,-9.286820568377152085e-05,0.000000000000000000e+00
2.677334070205688477e+00,2.382975158691406250e+02,2.516062774658203125e+02,2.516062774658203125e+02,6.085152029991149902e-01,2.815040014684200287e-02,-6.613157689571380615e-02,6.427173137664794922e+00,2.526840893551707268e-03,-6.634503952227532864e-04,5.721644878387451172e+00,2.612484851852059364e-03,-1.714988984167575836e-02,7.653362583369016647e-03,-9.855345487594604492e-01,4.285984858870506287e-02,1.000000000000000000e+00,-9.286820568377152085e-05,0.000000000000000000e+00
2.755024909973144531e+00,2.386873931884765625e+02,2.516064147949218750e+02,2.516064147949218750e+02,6.574466228485107422e-01,3.038568608462810516e-02,-6.643676012754440308e-02,6.760551452636718750e+00,2.668126719072461128e-03,-9.832467185333371162e-04,4.291089057922363281e+00,1.818564836867153645e-03,-4.116268362849950790e-03,5.006791092455387115e-03,-6.314384937286376953e-01,3.490398079156875610e-02,1.000000000000000000e+00,-1.416249433532357216e-04,0.000000000000000000e+00
2.755024909973144531e+00,2.386873931884765625e+02,2.516064147949218750e+02,2.516064147949218750e+02,6.574466228485107422e-01,3.038568608462810516e-02,-6.643676012754440308e-02,6.760551452636718750e+00,2.668126719072461128e-03,-9.832467185333371162e-04,4.291089057922363281e+00,1.818564836867153645e-03,-4.116268362849950790e-03,5.006791092455387115e-03,-6.314384937286376953e-01,3.490398079156875610e-02,1.000000000000000000e+00,-1.416249433532357216e-04,0.000000000000000000e+00
2.755024909973144531e+00,2.386873931884765625e+02,2.516064147949218750e+02,2.516064147949218750e+02,6.574466228485107422e-01,3.038568608462810516e-02,-6.643676012754440308e-02,6.760551452636718750e+00,2.668126719072461128e-03,-9.832467185333371162e-04,4.291089057922363281e+00,1.818564836867153645e-03,-4.116268362849950790e-03,5.006791092455387115e-03,-6.314384937286376953e-01,3.490398079156875610e-02,1.000000000000000000e+00,-1.416249433532357216e-04,0.000000000000000000e+00
2.830169916152954102e+00,2.392294616699218750e+02,2.516065979003906250e+02,2.516065979003906250e+02,6.720905900001525879e-01,3.172790631651878357e-02,-6.652830541133880615e-02,7.071830272674560547e+00,2.720045624300837517e-03,-9.373829234391450882e-04,4.142374992370605469e+00,6.909162038937211037e-04,6.103372434154152870e-04,-3.890339576173573732e-04,3.193191289901733398e-01,-2.088601933792233467e-03,0.000000000000000000e+00,-1.933981839101761580e-04,1.000000000000000000e+00
2.830169916152954102e+00,2.392294616699218750e+02,2.516065979003906250e+02,2.516065979003906250e+02,6.720905900001525879e-01,3.172790631651878357e-02,-6.652830541133880615e-02,7.071830272674560547e+00,2.720045624300837517e-03,-9.373829234391450882e-04,4.142374992370605469e+00,6.909162038937211037e-04,6.103372434154152870e-04,-3.890339576173573732e-04,3.193191289901733398e-01,-2.088601933792233467e-03,0.000000000000000000e+00,-1.933981839101761580e-04,1.000000000000000000e+00
2.830169916152954102e+00,2.392294616699218750e+02,2.516065979003906250e+02,2.516065979003906250e+02,6.720905900001525879e-01,3.172790631651878357e-02,-6.652830541133880615e-02,7.071830272674560547e+00,2.720045624300837517e-03,-9.373829234391450882e-04,4.142374992370605469e+00,6.909162038937211037e-04,6.103372434154152870e-04,-3.890339576173573732e-04,3.193191289901733398e-01,-2.088601933792233467e-03,0.000000000000000000e+00,-1.933981839101761580e-04,1.000000000000000000e+00
2.830169916152954102e+00,2.392294616699218750e+02,2.516065979003906250e+02,2.516065979003906250e+02,6.720905900001525879e-01,3.172790631651878357e-02,-6.652830541133880615e-02,7.071830272674560547e+00,2.720045624300837517e-03,-9.373829234391450882e-04,4.142374992370605469e+00,6.909162038937211037e-04,6.103372434154152870e-04,-3.890339576173573732e-04,3.193191289901733398e-01,-2.088601933792233467e-03,0.000000000000000000e+00,-1.933981839101761580e-04,1.000000000000000000e+00
2.830169916152954102e+00,2.392294616699218750e+02,2.516065979003906250e+02,2.516065979003906250e+02,6.720905900001525879e-01,3.172790631651878357e-02,-6.652830541133880615e-02,7.071830272674560547e+00,2.720045624300837517e-03,-9.373829234391450882e-04,4.142374992370605469e+00,6.909162038937211037e-04,6.103372434154152870e-04,-3.890339576173573732e-04,3.193191289901733398e-01,-2.088601933792233467e-03,0.000000000000000000e+00,-1.933981839101761580e-04,1.000000000000000000e+00
2.917726278305053711e+00,2.397574310302734375e+02,2.516068115234375000e+02,2.516068115234375000e+02,5.582586526870727539e-01,2.941007539629936218e-02,-6.619262695312500000e-02,6.955000400543212891e+00,2.593174111098051071e-03,-6.457883864641189575e-04,-1.334339022636413574e+00,-1.449026749469339848e-03,3.330363659188151360e-03,-9.611595422029495239e-03,2.387363433837890625e+00,-5.698925256729125977e-02,0.000000000000000000e+00,-1.944856048794463277e-04,1.000000000000000000e+00
