# Time,X,Y,Z,Roll,Pitch,Yaw,Vx,Vy,Vz,Ax,Ay,Az,Wx,Wy,Wz,Throttle,Steer,Brake
0.000000000000000000e+00,6.430422973632812500e+02,1.490643463134765625e+02,1.490643463134765625e+02,0.000000000000000000e+00,2.431558370590209961e-01,7.925785212137270719e-06,1.646530556342895579e-08,-7.138750923729730857e-09,1.230924157425761223e-03,1.920917611641925760e-07,-2.170317436878121953e-08,1.495576836168766022e-02,-2.112679248966742307e-05,-1.141348911914974451e-05,-5.960593796316970838e-09,0.000000000000000000e+00,-4.257316468283534050e-04,1.000000000000000000e+00
1.045818328857421875e-01,6.430422973632812500e+02,1.490643463134765625e+02,1.490643463134765625e+02,0.000000000000000000e+00,2.431558370590209961e-01,7.925785212137270719e-06,1.646530556342895579e-08,-7.138750923729730857e-09,1.230924157425761223e-03,1.920917611641925760e-07,-2.170317436878121953e-08,1.495576836168766022e-02,-2.112679248966742307e-05,-1.141348911914974451e-05,-5.960593796316970838e-09,0.000000000000000000e+00,-4.257316468283534050e-04,1.000000000000000000e+00
1.045818328857421875e-01,6.430422973632812500e+02,1.490643463134765625e+02,1.490643463134765625e+02,0.000000000000000000e+00,2.431558370590209961e-01,7.925785212137270719e-06,1.646530556342895579e-08,-7.138750923729730857e-09,1.230924157425761223e-03,1.920917611641925760e-07,-2.170317436878121953e-08,1.495576836168766022e-02,-2.112679248966742307e-05,-1.141348911914974451e-05,-5.960593796316970838e-09,0.000000000000000000e+00,-4.257316468283534050e-04,1.000000000000000000e+00
1.045818328857421875e-01,6.430422973632812500e+02,1.490643463134765625e+02,1.490643463134765625e+02,0.000000000000000000e+00,2.431558370590209961e-01,7.925785212137270719e-06,1.646530556342895579e-08,-7.138750923729730857e-09,1.230924157425761223e-03,1.920917611641925760e-07,-2.170317436878121953e-08,1.495576836168766022e-02,-2.112679248966742307e-05,-1.141348911914974451e-05,-5.960593796316970838e-09,0.000000000000000000e+00,-4.257316468283534050e-04,1.000000000000000000e+00
1.045818328857421875e-01,6.430422973632812500e+02,1.490643463134765625e+02,1.490643463134765625e+02,0.000000000000000000e+00,2.431558370590209961e-01,7.925785212137270719e-06,1.646530556342895579e-08,-7.138750923729730857e-09,1.230924157425761223e-03,1.920917611641925760e-07,-2.170317436878121953e-08,1.495576836168766022e-02,-2.112679248966742307e-05,-1.141348911914974451e-05,-5.960593796316970838e-09,0.000000000000000000e+00,-4.257316468283534050e-04,1.000000000000000000e+00
1.045818328857421875e-01,6.430422973632812500e+02,1.490643463134765625e+02,1.490643463134765625e+02,0.000000000000000000e+00,2.431558370590209961e-01,7.925785212137270719e-06,1.646530556342895579e-08,-7.138750923729730857e-09,1.230924157425761223e-03,1.920917611641925760e-07,-2.170317436878121953e-08,1.495576836168766022e-02,-2.112679248966742307e-05,-1.141348911914974451e-05,-5.960593796316970838e-09,0.000000000000000000e+00,-4.257316468283534050e-04,1.000000000000000000e+00
1.045818328857421875e-01,6.430422973632812500e+02,1.490643463134765625e+02,1.490643463134765625e+02,0.000000000000000000e+00,2.431558370590209961e-01,7.925785212137270719e-06,-2.356838990635878872e-08,7.913546795634829323e-08,-1.208428177051246166e-03,-3.823332406227564206e-07,8.239434237111709081e-07,-2.329650893807411194e-02,2.640037746459711343e-05,1.576658542035147548e-05,-3.787798519283569476e-09,0.000000000000000000e+00,-4.257316468283534050e-04,1.000000000000000000e+00
2.092907428741455078e-01,6.430422973632812500e+02,1.490643463134765625e+02,1.490643463134765625e+02,0.000000000000000000e+00,2.431558370590209961e-01,7.925785212137270719e-06,-2.356838990635878872e-08,7.913546795634829323e-08,-1.208428177051246166e-03,-3.823332406227564206e-07,8.239434237111709081e-07,-2.329650893807411194e-02,2.640037746459711343e-05,1.576658542035147548e-05,-3.787798519283569476e-09,0.000000000000000000e+00,-4.257316468283534050e-04,1.000000000000000000e+00
2.092907428741455078e-01,6.430422973632812500e+02,1.490643463134765625e+02,1.490643463134765625e+02,0.000000000000000000e+00,2.431558370590209961e-01,7.925785212137270719e-06,-2.356838990635878872e-08,7.913546795634829323e-08,-1.208428177051246166e-03,-3.823332406227564206e-07,8.239434237111709081e-07,-2.329650893807411194e-02,2.640037746459711343e-05,1.576658542035147548e-05,-3.787798519283569476e-09,0.000000000000000000e+00,-4.257316468283534050e-04,1.000000000000000000e+00
2.092907428741455078e-01,6.430422973632812500e+02,1.490643463134765625e+02,1.490643463134765625e+02,0.000000000000000000e+00,2.431558370590209961e-01,7.925785212137270719e-06,-2.356838990635878872e-08,7.913546795634829323e-08,-1.208428177051246166e-03,-3.823332406227564206e-07,8.239434237111709081e-07,-2.329650893807411194e-02,2.640037746459711343e-05,1.576658542035147548e-05,-3.787798519283569476e-09,0.000000000000000000e+00,-4.257316468283534050e-04,1.000000000000000000e+00
2.092907428741455078e-01,6.430422973632812500e+02,1.490643463134765625e+02,1.490643463134765625e+02,0.000000000000000000e+00,2.431558370590209961e-01,7.925785212137270719e-06,-2.356838990635878872e-08,7.913546795634829323e-08,-1.208428177051246166e-03,-3.823332406227564206e-07,8.239434237111709081e-07,-2.329650893807411194e-02,2.640037746459711343e-05,1.576658542035147548e-05,-3.787798519283569476e-09,0.000000000000000000e+00,-4.257316468283534050e-04,1.000000000000000000e+00
2.092907428741455078e-01,6.430422973632812500e+02,1.490643463134765625e+02,1.490643463134765625e+02,0.000000000000000000e+00,2.431558370590209961e-01,7.925785212137270719e-06,2.098127893646051234e-08,4.065768610672648720e-09,-1.134111153078265488e-04,5.970318852632772177e-07,-1.006045749818440527e-06,1.467485819011926651e-02,-9.782885172171518207e-06,-1.427759980288101360e-05,-1.047896283634663916e-10,0.000000000000000000e+00,-4.257316468283534050e-04,1.000000000000000000e+00
2.839093208312988281e-01,6.430422973632812500e+02,1.490643463134765625e+02,1.490643463134765625e+02,0.000000000000000000e+00,2.431558370590209961e-01,7.925785212137270719e-06,2.098127893646051234e-08,4.065768610672648720e-09,-1.134111153078265488e-04,5.970318852632772177e-07,-1.006045749818440527e-06,1.467485819011926651e-02,-9.782885172171518207e-06,-1.427759980288101360e-05,-1.047896283634663916e-10,0.000000000000000000e+00,-4.257316468283534050e-04,1.000000000000000000e+00
2.839093208312988281e-01,6.430422973632812500e+02,1.490643463134765625e+02,1.490643463134765625e+02,0.000000000000000000e+00,2.431558370590209961e-01,7.925785212137270719e-06,2.098127893646051234e-08,4.065768610672648720e-09,-1.134111153078265488e-04,5.970318852632772177e-07,-1.006045749818440527e-06,1.467485819011926651e-02,-9.782885172171518207e-06,-1.427759980288101360e-05,-1.047896283634663916e-10,0.000000000000000000e+00,-4.257316468283534050e-04,1.000000000000000000e+00
2.839093208312988281e-01,6.430422973632812500e+02,1.490643463134765625e+02,1.490643463134765625e+02,0.000000000000000000e+00,2.431558370590209961e-01,7.925785212137270719e-06,2.098127893646051234e-08,4.065768610672648720e-09,-1.134111153078265488e-04,5.970318852632772177e-07,-1.006045749818440527e-06,1.467485819011926651e-02,-9.782885172171518207e-06,-1.427759980288101360e-05,-1.047896283634663916e-10,0.000000000000000000e+00,-4.257316468283534050e-04,1.000000000000000000e+00
2.839093208312988281e-01,6.430422973632812500e+02,1.490643463134765625e+02,1.490643463134765625e+02,0.000000000000000000e+00,2.431558370590209961e-01,7.925785212137270719e-06,2.098127893646051234e-08,4.065768610672648720e-09,-1.134111153078265488e-04,5.970318852632772177e-07,-1.006045749818440527e-06,1.467485819011926651e-02,-9.782885172171518207e-06,-1.427759980288101360e-05,-1.047896283634663916e-10,0.000000000000000000e+00,-4.257316468283534050e-04,1.000000000000000000e+00
3.569011688232421875e-01,6.430422973632812500e+02,1.490643463134765625e+02,1.490643463134765625e+02,0.000000000000000000e+00,2.431558370590209961e-01,7.925785212137270719e-06,-1.653167736037630675e-08,3.864523989705048734e-08,1.129210693761706352e-03,-5.139334575687826145e-07,4.737443077829084359e-07,1.702411845326423645e-02,3.131754783680662513e-05,1.185966993944020942e-05,-1.328406717959751404e-09,0.000000000000000000e+00,-4.257316468283534050e-04,1.000000000000000000e+00
3.569011688232421875e-01,6.430422973632812500e+02,1.490643463134765625e+02,1.490643463134765625e+02,0.000000000000000000e+00,2.431558370590209961e-01,7.925785212137270719e-06,-1.653167736037630675e-08,3.864523989705048734e-08,1.129210693761706352e-03,-5.139334575687826145e-07,4.737443077829084359e-07,1.702411845326423645e-02,3.131754783680662513e-05,1.185966993944020942e-05,-1.328406717959751404e-09,0.000000000000000000e+00,-4.257316468283534050e-04,1.000000000000000000e+00
3.569011688232421875e-01,6.430422973632812500e+02,1.490643463134765625e+02,1.490643463134765625e+02,0.000000000000000000e+00,2.431558370590209961e-01,7.925785212137270719e-06,-1.653167736037630675e-08,3.864523989705048734e-08,1.129210693761706352e-03,-5.139334575687826145e-07,4.737443077829084359e-07,1.702411845326423645e-02,3.131754783680662513e-05,1.185966993944020942e-05,-1.328406717959751404e-09,0.000000000000000000e+00,-4.257316468283534050e-04,1.000000000000000000e+00
3.569011688232421875e-01,6.430422973632812500e+02,1.490643463134765625e+02,1.490643463134765625e+02,0.000000000000000000e+00,2.431558370590209961e-01,7.925785212137270719e-06,-1.653167736037630675e-08,3.864523989705048734e-08,1.129210693761706352e-03,-5.139334575687826145e-07,4.737443077829084359e-07,1.702411845326423645e-02,3.131754783680662513e-05,1.185966993944020942e-05,-1.328406717959751404e-09,0.000000000000000000e+00,-4.257316468283534050e-04,1.000000000000000000e+00
4.765405654907226562e-01,6.430422973632812500e+02,1.490643463134765625e+02,1.490643463134765625e+02,0.000000000000000000e+00,2.431558370590209961e-01,7.925785212137270719e-06,-1.564306550960736786e-08,2.740576299231634039e-08,4.507551202550530434e-04,7.427418680094888259e-09,-9.394461386591501650e-08,-5.670837592333555222e-03,2.773064443317707628e-05,1.133210480475099757e-05,8.263559836407807779e-10,0.000000000000000000e+00,-4.257316468283534050e-04,1.000000000000000000e+00
4.765405654907226562e-01,6.430422973632812500e+02,1.490643463134765625e+02,1.490643463134765625e+02,0.000000000000000000e+00,2.431558370590209961e-01,7.925785212137270719e-06,-1.564306550960736786e-08,2.740576299231634039e-08,4.507551202550530434e-04,7.427418680094888259e-09,-9.394461386591501650e-08,-5.670837592333555222e-03,2.773064443317707628e-05,1.133210480475099757e-05,8.263559836407807779e-10,0.000000000000000000e+00,-4.257316468283534050e-04,1.000000000000000000e+00
4.765405654907226562e-01,6.430422973632812500e+02,1.490643463134765625e+02,1.490643463134765625e+02,0.000000000000000000e+00,2.431558370590209961e-01,7.925785212137270719e-06,-1.564306550960736786e-08,2.740576299231634039e-08,4.507551202550530434e-04,7.427418680094888259e-09,-9.394461386591501650e-08,-5.670837592333555222e-03,2.773064443317707628e-05,1.133210480475099757e-05,8.263559836407807779e-10,0.000000000000000000e+00,-4.257316468283534050e-04,1.000000000000000000e+00
4.765405654907226562e-01,6.430422973632812500e+02,1.490643463134765625e+02,1.490643463134765625e+02,0.000000000000000000e+00,2.431558370590209961e-01,7.925785212137270719e-06,-1.564306550960736786e-08,2.740576299231634039e-08,4.507551202550530434e-04,7.427418680094888259e-09,-9.394461386591501650e-08,-5.670837592333555222e-03,2.773064443317707628e-05,1.133210480475099757e-05,8.263559836407807779e-10,0.000000000000000000e+00,-4.257316468283534050e-04,1.000000000000000000e+00
4.765405654907226562e-01,6.430422973632812500e+02,1.490643463134765625e+02,1.490643463134765625e+02,0.000000000000000000e+00,2.431558370590209961e-01,7.925785212137270719e-06,-1.564306550960736786e-08,2.740576299231634039e-08,4.507551202550530434e-04,7.427418680094888259e-09,-9.394461386591501650e-08,-5.670837592333555222e-03,2.773064443317707628e-05,1.133210480475099757e-05,8.263559836407807779e-10,0.000000000000000000e+00,-4.257316468283534050e-04,1.000000000000000000e+00
4.765405654907226562e-01,6.430422973632812500e+02,1.490643463134765625e+02,1.490643463134765625e+02,0.000000000000000000e+00,2.431558370590209961e-01,7.925785212137270719e-06,-1.564306550960736786e-08,2.740576299231634039e-08,4.507551202550530434e-04,7.427418680094888259e-09,-9.394461386591501650e-08,-5.670837592333555222e-03,2.773064443317707628e-05,1.133210480475099757e-05,8.263559836407807779e-10,0.000000000000000000e+00,-4.257316468283534050e-04,1.000000000000000000e+00
4.765405654907226562e-01,6.430422973632812500e+02,1.490643463134765625e+02,1.490643463134765625e+02,0.000000000000000000e+00,2.431558370590209961e-01,7.925785212137270719e-06,-1.564306550960736786e-08,2.740576299231634039e-08,4.507551202550530434e-04,7.427418680094888259e-09,-9.394461386591501650e-08,-5.670837592333555222e-03,2.773064443317707628e-05,1.133210480475099757e-05,8.263559836407807779e-10,0.000000000000000000e+00,-4.257316468283534050e-04,1.000000000000000000e+00
6.200885772705078125e-01,6.430422973632812500e+02,1.490643463134765625e+02,1.490643463134765625e+02,0.000000000000000000e+00,2.431558370590209961e-01,7.925785212137270719e-06,-4.033031686390131654e-08,3.585593688626431685e-08,-1.133157638832926750e-03,-1.719790532206388889e-07,5.886653653419671173e-08,-1.103402767330408096e-02,1.682572292338591069e-05,2.731066524574998766e-05,-3.828834582719764512e-09,0.000000000000000000e+00,-4.257316468283534050e-04,1.000000000000000000e+00
6.200885772705078125e-01,6.430422973632812500e+02,1.490643463134765625e+02,1.490643463134765625e+02,0.000000000000000000e+00,2.431558370590209961e-01,7.925785212137270719e-06,-4.033031686390131654e-08,3.585593688626431685e-08,-1.133157638832926750e-03,-1.719790532206388889e-07,5.886653653419671173e-08,-1.103402767330408096e-02,1.682572292338591069e-05,2.731066524574998766e-05,-3.828834582719764512e-09,0.000000000000000000e+00,-4.257316468283534050e-04,1.000000000000000000e+00
6.200885772705078125e-01,6.430422973632812500e+02,1.490643463134765625e+02,1.490643463134765625e+02,0.000000000000000000e+00,2.431558370590209961e-01,7.925785212137270719e-06,-4.033031686390131654e-08,3.585593688626431685e-08,-1.133157638832926750e-03,-1.719790532206388889e-07,5.886653653419671173e-08,-1.103402767330408096e-02,1.682572292338591069e-05,2.731066524574998766e-05,-3.828834582719764512e-09,0.000000000000000000e+00,-4.257316468283534050e-04,1.000000000000000000e+00
6.200885772705078125e-01,6.430422973632812500e+02,1.490643463134765625e+02,1.490643463134765625e+02,0.000000000000000000e+00,2.431558370590209961e-01,7.925785212137270719e-06,-4.033031686390131654e-08,3.585593688626431685e-08,-1.133157638832926750e-03,-1.719790532206388889e-07,5.886653653419671173e-08,-1.103402767330408096e-02,1.682572292338591069e-05,2.731066524574998766e-05,-3.828834582719764512e-09,0.000000000000000000e+00,-4.257316468283534050e-04,1.000000000000000000e+00
6.200885772705078125e-01,6.430422973632812500e+02,1.490643463134765625e+02,1.490643463134765625e+02,0.000000000000000000e+00,2.431558370590209961e-01,7.925785212137270719e-06,-4.033031686390131654e-08,3.585593688626431685e-08,-1.133157638832926750e-03,-1.719790532206388889e-07,5.886653653419671173e-08,-1.103402767330408096e-02,1.682572292338591069e-05,2.731066524574998766e-05,-3.828834582719764512e-09,0.000000000000000000e+00,-4.257316468283534050e-04,1.000000000000000000e+00
6.200885772705078125e-01,6.430422973632812500e+02,1.490643463134765625e+02,1.490643463134765625e+02,0.000000000000000000e+00,2.431558370590209961e-01,7.925785212137270719e-06,-4.033031686390131654e-08,3.585593688626431685e-08,-1.133157638832926750e-03,-1.719790532206388889e-07,5.886653653419671173e-08,-1.103402767330408096e-02,1.682572292338591069e-05,2.731066524574998766e-05,-3.828834582719764512e-09,0.000000000000000000e+00,-4.257316468283534050e-04,1.000000000000000000e+00
7.946169376373291016e-01,6.430422973632812500e+02,1.490643463134765625e+02,1.490643463134765625e+02,0.000000000000000000e+00,2.431558370590209961e-01,7.925785212137270719e-06,-2.259497922096898037e-09,-1.911171132462641253e-08,-2.820880035869777203e-04,2.181354261665546801e-07,-3.149496592413925100e-07,4.876397084444761276e-03,-1.956607593456283212e-05,1.437591095054813195e-06,-3.040238949481022246e-09,0.000000000000000000e+00,-4.257316468283534050e-04,1.000000000000000000e+00
7.946169376373291016e-01,6.430422973632812500e+02,1.490643463134765625e+02,1.490643463134765625e+02,0.000000000000000000e+00,2.431558370590209961e-01,7.925785212137270719e-06,-2.259497922096898037e-09,-1.911171132462641253e-08,-2.820880035869777203e-04,2.181354261665546801e-07,-3.149496592413925100e-07,4.876397084444761276e-03,-1.956607593456283212e-05,1.437591095054813195e-06,-3.040238949481022246e-09,0.000000000000000000e+00,-4.257316468283534050e-04,1.000000000000000000e+00
7.946169376373291016e-01,6.430422973632812500e+02,1.490643463134765625e+02,1.490643463134765625e+02,0.000000000000000000e+00,2.431558370590209961e-01,7.925785212137270719e-06,-2.259497922096898037e-09,-1.911171132462641253e-08,-2.820880035869777203e-04,2.181354261665546801e-07,-3.149496592413925100e-07,4.876397084444761276e-03,-1.956607593456283212e-05,1.437591095054813195e-06,-3.040238949481022246e-09,0.000000000000000000e+00,-4.257316468283534050e-04,1.000000000000000000e+00
8.783230781555175781e-01,6.430422973632812500e+02,1.490643463134765625e+02,1.490643463134765625e+02,0.000000000000000000e+00,2.431558370590209961e-01,7.925785212137270719e-06,2.160524381622508372e-08,-8.718637189986111480e-08,4.336587880970910192e-05,2.851014357929670950e-07,-8.132577136166219134e-07,3.888052655383944511e-03,-4.055815225001424551e-05,-1.352991876046871766e-05,-3.363725742389078732e-09,0.000000000000000000e+00,-4.257316468283534050e-04,1.000000000000000000e+00
8.783230781555175781e-01,6.430422973632812500e+02,1.490643463134765625e+02,1.490643463134765625e+02,0.000000000000000000e+00,2.431558370590209961e-01,7.925785212137270719e-06,2.160524381622508372e-08,-8.718637189986111480e-08,4.336587880970910192e-05,2.851014357929670950e-07,-8.132577136166219134e-07,3.888052655383944511e-03,-4.055815225001424551e-05,-1.352991876046871766e-05,-3.363725742389078732e-09,0.000000000000000000e+00,-4.257316468283534050e-04,1.000000000000000000e+00
8.783230781555175781e-01,6.430422973632812500e+02,1.490643463134765625e+02,1.490643463134765625e+02,0.000000000000000000e+00,2.431558370590209961e-01,7.925785212137270719e-06,2.160524381622508372e-08,-8.718637189986111480e-08,4.336587880970910192e-05,2.851014357929670950e-07,-8.132577136166219134e-07,3.888052655383944511e-03,-4.055815225001424551e-05,-1.352991876046871766e-05,-3.363725742389078732e-09,0.000000000000000000e+00,-4.257316468283534050e-04,1.000000000000000000e+00
9.483780860900878906e-01,6.430422973632812500e+02,1.490643463134765625e+02,1.490643463134765625e+02,0.000000000000000000e+00,2.431558370590209961e-01,7.925785212137270719e-06,-3.525589153952068955e-09,-1.206567379341549895e-08,1.644553500227630138e-03,-3.587300057006359566e-07,1.072310169547563419e-06,2.285614795982837677e-02,-4.003427420684602112e-06,1.829837060540739913e-06,2.264049392408651329e-09,0.000000000000000000e+00,-4.257316468283534050e-04,1.000000000000000000e+00
9.483780860900878906e-01,6.430422973632812500e+02,1.490643463134765625e+02,1.490643463134765625e+02,0.000000000000000000e+00,2.431558370590209961e-01,7.925785212137270719e-06,-3.525589153952068955e-09,-1.206567379341549895e-08,1.644553500227630138e-03,-3.587300057006359566e-07,1.072310169547563419e-06,2.285614795982837677e-02,-4.003427420684602112e-06,1.829837060540739913e-06,2.264049392408651329e-09,0.000000000000000000e+00,-4.257316468283534050e-04,1.000000000000000000e+00
9.483780860900878906e-01,6.430422973632812500e+02,1.490643463134765625e+02,1.490643463134765625e+02,0.000000000000000000e+00,2.431558370590209961e-01,7.925785212137270719e-06,-3.525589153952068955e-09,-1.206567379341549895e-08,1.644553500227630138e-03,-3.587300057006359566e-07,1.072310169547563419e-06,2.285614795982837677e-02,-4.003427420684602112e-06,1.829837060540739913e-06,2.264049392408651329e-09,0.000000000000000000e+00,-4.257316468283534050e-04,1.000000000000000000e+00
9.483780860900878906e-01,6.430422973632812500e+02,1.490643463134765625e+02,1.490643463134765625e+02,0.000000000000000000e+00,2.431558370590209961e-01,7.925785212137270719e-06,-3.525589153952068955e-09,-1.206567379341549895e-08,1.644553500227630138e-03,-3.587300057006359566e-07,1.072310169547563419e-06,2.285614795982837677e-02,-4.003427420684602112e-06,1.829837060540739913e-06,2.264049392408651329e-09,0.000000000000000000e+00,-4.257316468283534050e-04,1.000000000000000000e+00
9.483780860900878906e-01,6.430422973632812500e+02,1.490643463134765625e+02,1.490643463134765625e+02,0.000000000000000000e+00,2.431558370590209961e-01,7.925785212137270719e-06,-2.617494843093481904e-08,-4.487569427169546543e-08,4.003154463134706020e-04,-2.874320159662602236e-07,-4.163760536357585806e-07,-1.579002104699611664e-02,-4.149914821027778089e-05,1.756779602146707475e-05,-7.416121050596302666e-09,0.000000000000000000e+00,-4.257316468283534050e-04,1.000000000000000000e+00
1.027177095413208008e+00,6.430422973632812500e+02,1.490643463134765625e+02,1.490643463134765625e+02,0.000000000000000000e+00,2.431558370590209961e-01,7.925785212137270719e-06,-2.617494843093481904e-08,-4.487569427169546543e-08,4.003154463134706020e-04,-2.874320159662602236e-07,-4.163760536357585806e-07,-1.579002104699611664e-02,-4.149914821027778089e-05,1.756779602146707475e-05,-7.416121050596302666e-09,0.000000000000000000e+00,-4.257316468283534050e-04,1.000000000000000000e+00
1.027177095413208008e+00,6.430422973632812500e+02,1.490643463134765625e+02,1.490643463134765625e+02,0.000000000000000000e+00,2.431558370590209961e-01,7.925785212137270719e-06,-2.617494843093481904e-08,-4.487569427169546543e-08,4.003154463134706020e-04,-2.874320159662602236e-07,-4.163760536357585806e-07,-1.579002104699611664e-02,-4.149914821027778089e-05,1.756779602146707475e-05,-7.416121050596302666e-09,0.000000000000000000e+00,-4.257316468283534050e-04,1.000000000000000000e+00
1.095043420791625977e+00,6.430422973632812500e+02,1.490643463134765625e+02,1.490643463134765625e+02,0.000000000000000000e+00,2.431558370590209961e-01,7.925785212137270719e-06,9.733884809293158469e-09,-3.141530768857592193e-08,-1.203471212647855282e-03,5.291112188388069626e-07,1.983367496904975269e-07,-2.363155223429203033e-02,-5.056373538536718115e-06,-6.247742931009270251e-06,2.140699173480697937e-09,0.000000000000000000e+00,-4.257316468283534050e-04,1.000000000000000000e+00
1.095043420791625977e+00,6.430422973632812500e+02,1.490643463134765625e+02,1.490643463134765625e+02,0.000000000000000000e+00,2.431558370590209961e-01,7.925785212137270719e-06,9.733884809293158469e-09,-3.141530768857592193e-08,-1.203471212647855282e-03,5.291112188388069626e-07,1.983367496904975269e-07,-2.363155223429203033e-02,-5.056373538536718115e-06,-6.247742931009270251e-06,2.140699173480697937e-09,0.000000000000000000e+00,-4.257316468283534050e-04,1.000000000000000000e+00
1.095043420791625977e+00,6.430422973632812500e+02,1.490643463134765625e+02,1.490643463134765625e+02,0.000000000000000000e+00,2.431558370590209961e-01,7.925785212137270719e-06,9.733884809293158469e-09,-3.141530768857592193e-08,-1.203471212647855282e-03,5.291112188388069626e-07,1.983367496904975269e-07,-2.363155223429203033e-02,-5.056373538536718115e-06,-6.247742931009270251e-06,2.140699173480697937e-09,0.000000000000000000e+00,-4.257316468283534050e-04,1.000000000000000000e+00
1.095043420791625977e+00,6.430422973632812500e+02,1.490643463134765625e+02,1.490643463134765625e+02,0.000000000000000000e+00,2.431558370590209961e-01,7.925785212137270719e-06,9.733884809293158469e-09,-3.141530768857592193e-08,-1.203471212647855282e-03,5.291112188388069626e-07,1.983367496904975269e-07,-2.363155223429203033e-02,-5.056373538536718115e-06,-6.247742931009270251e-06,2.140699173480697937e-09,0.000000000000000000e+00,-4.257316468283534050e-04,1.000000000000000000e+00
1.168572425842285156e+00,6.430422973632812500e+02,1.490643463134765625e+02,1.490643463134765625e+02,0.000000000000000000e+00,2.431558370590209961e-01,7.925785212137270719e-06,5.335078601120812891e-09,9.984408855245874292e-09,9.604103397578001022e-04,-5.982409589933013194e-08,5.630392365674197208e-07,2.942894957959651947e-02,1.602478005224838853e-05,-3.935170752811245620e-06,3.667616654823291356e-09,0.000000000000000000e+00,-4.257316468283534050e-04,1.000000000000000000e+00
1.168572425842285156e+00,6.430422973632812500e+02,1.490643463134765625e+02,1.490643463134765625e+02,0.000000000000000000e+00,2.431558370590209961e-01,7.925785212137270719e-06,5.335078601120812891e-09,9.984408855245874292e-09,9.604103397578001022e-04,-5.982409589933013194e-08,5.630392365674197208e-07,2.942894957959651947e-02,1.602478005224838853e-05,-3.935170752811245620e-06,3.667616654823291356e-09,0.000000000000000000e+00,-4.257316468283534050e-04,1.000000000000000000e+00
1.168572425842285156e+00,6.430422973632812500e+02,1.490643463134765625e+02,1.490643463134765625e+02,0.000000000000000000e+00,2.431558370590209961e-01,7.925785212137270719e-06,5.335078601120812891e-09,9.984408855245874292e-09,9.604103397578001022e-04,-5.982409589933013194e-08,5.630392365674197208e-07,2.942894957959651947e-02,1.602478005224838853e-05,-3.935170752811245620e-06,3.667616654823291356e-09,0.000000000000000000e+00,-4.257316468283534050e-04,1.000000000000000000e+00
1.168572425842285156e+00,6.430422973632812500e+02,1.490643463134765625e+02,1.490643463134765625e+02,0.000000000000000000e+00,2.431558370590209961e-01,7.925785212137270719e-06,5.335078601120812891e-09,9.984408855245874292e-09,9.604103397578001022e-04,-5.982409589933013194e-08,5.630392365674197208e-07,2.942894957959651947e-02,1.602478005224838853e-05,-3.935170752811245620e-06,3.667616654823291356e-09,0.000000000000000000e+00,-4.257316468283534050e-04,1.000000000000000000e+00
1.168572425842285156e+00,6.430422973632812500e+02,1.490643463134765625e+02,1.490643463134765625e+02,0.000000000000000000e+00,2.431558370590209961e-01,7.925785212137270719e-06,1.949844730120275926e-08,-1.245518177483972977e-07,-1.307962666032835841e-04,1.887230212105350802e-07,-1.792658281374315266e-06,-1.454002875834703445e-02,-8.653080294607207179e-05,-1.335108299826970324e-05,-8.112189142650549911e-09,0.000000000000000000e+00,-4.257316468283534050e-04,1.000000000000000000e+00
1.243620872497558594e+00,6.430422973632812500e+02,1.490643463134765625e+02,1.490643463134765625e+02,0.000000000000000000e+00,2.431558370590209961e-01,7.925785212137270719e-06,1.949844730120275926e-08,-1.245518177483972977e-07,-1.307962666032835841e-04,1.887230212105350802e-07,-1.792658281374315266e-06,-1.454002875834703445e-02,-8.653080294607207179e-05,-1.335108299826970324e-05,-8.112189142650549911e-09,0.000000000000000000e+00,-4.257316468283534050e-04,1.000000000000000000e+00
1.243620872497558594e+00,6.430422973632812500e+02,1.490643463134765625e+02,1.490643463134765625e+02,0.000000000000000000e+00,2.431558370590209961e-01,7.925785212137270719e-06,1.949844730120275926e-08,-1.245518177483972977e-07,-1.307962666032835841e-04,1.887230212105350802e-07,-1.792658281374315266e-06,-1.454002875834703445e-02,-8.653080294607207179e-05,-1.335108299826970324e-05,-8.112189142650549911e-09,0.000000000000000000e+00,-4.257316468283534050e-04,1.000000000000000000e+00
1.243620872497558594e+00,6.430422973632812500e+02,1.490643463134765625e+02,1.490643463134765625e+02,0.000000000000000000e+00,2.431558370590209961e-01,7.925785212137270719e-06,1.949844730120275926e-08,-1.245518177483972977e-07,-1.307962666032835841e-04,1.887230212105350802e-07,-1.792658281374315266e-06,-1.454002875834703445e-02,-8.653080294607207179e-05,-1.335108299826970324e-05,-8.112189142650549911e-09,0.000000000000000000e+00,-4.257316468283534050e-04,1.000000000000000000e+00
1.312042951583862305e+00,6.430422973632812500e+02,1.490643463134765625e+02,1.490643463134765625e+02,0.000000000000000000e+00,2.431558370590209961e-01,7.925785212137270719e-06,-3.824926597673083961e-09,-3.498808709423428809e-08,-4.128885047975927591e-04,-3.408749762456864119e-07,1.308988657910958864e-06,-4.122824873775243759e-03,7.237207682919688523e-06,2.212392701039789245e-06,1.046948039373774009e-08,0.000000000000000000e+00,-4.257316468283534050e-04,1.000000000000000000e+00
1.312042951583862305e+00,6.430422973632812500e+02,1.490643463134765625e+02,1.490643463134765625e+02,0.000000000000000000e+00,2.431558370590209961e-01,7.925785212137270719e-06,-3.824926597673083961e-09,-3.498808709423428809e-08,-4.128885047975927591e-04,-3.408749762456864119e-07,1.308988657910958864e-06,-4.122824873775243759e-03,7.237207682919688523e-06,2.212392701039789245e-06,1.046948039373774009e-08,0.000000000000000000e+00,-4.257316468283534050e-04,1.000000000000000000e+00
1.383129358291625977e+00,6.430422973632812500e+02,1.490643463134765625e+02,1.490643463134765625e+02,0.000000000000000000e+00,2.431558370590209961e-01,7.925785212137270719e-06,-2.424282996571491822e-08,-7.746955077436723514e-08,6.264687399379909039e-04,-2.872265554287878331e-07,-5.976031616228283383e-07,1.462104078382253647e-02,-5.961430360912345350e-05,1.625800723559223115e-05,-1.161382456871251634e-08,0.000000000000000000e+00,-4.257316468283534050e-04,1.000000000000000000e+00
1.383129358291625977e+00,6.430422973632812500e+02,1.490643463134765625e+02,1.490643463134765625e+02,0.000000000000000000e+00,2.431558370590209961e-01,7.925785212137270719e-06,-2.424282996571491822e-08,-7.746955077436723514e-08,6.264687399379909039e-04,-2.872265554287878331e-07,-5.976031616228283383e-07,1.462104078382253647e-02,-5.961430360912345350e-05,1.625800723559223115e-05,-1.161382456871251634e-08,0.000000000000000000e+00,-4.257316468283534050e-04,1.000000000000000000e+00
1.383129358291625977e+00,6.430422973632812500e+02,1.490643463134765625e+02,1.490643463134765625e+02,0.000000000000000000e+00,2.431558370590209961e-01,7.925785212137270719e-06,-2.424282996571491822e-08,-7.746955077436723514e-08,6.264687399379909039e-04,-2.872265554287878331e-07,-5.976031616228283383e-07,1.462104078382253647e-02,-5.961430360912345350e-05,1.625800723559223115e-05,-1.161382456871251634e-08,0.000000000000000000e+00,-4.257316468283534050e-04,1.000000000000000000e+00
1.450951814651489258e+00,6.430422973632812500e+02,1.490643463134765625e+02,1.490643463134765625e+02,0.000000000000000000e+00,2.431558370590209961e-01,7.925785212137270719e-06,-3.533755288387396831e-09,7.978889549065115716e-09,-2.617082209326326847e-04,3.053424677545990562e-07,1.259884243154374417e-06,-1.309561822563409805e-02,-6.693415798508794978e-06,2.754819433903321624e-06,-3.537327541991430735e-09,0.000000000000000000e+00,-4.257316468283534050e-04,1.000000000000000000e+00
1.450951814651489258e+00,6.430422973632812500e+02,1.490643463134765625e+02,1.490643463134765625e+02,0.000000000000000000e+00,2.431558370590209961e-01,7.925785212137270719e-06,-3.533755288387396831e-09,7.978889549065115716e-09,-2.617082209326326847e-04,3.053424677545990562e-07,1.259884243154374417e-06,-1.309561822563409805e-02,-6.693415798508794978e-06,2.754819433903321624e-06,-3.537327541991430735e-09,0.000000000000000000e+00,-4.257316468283534050e-04,1.000000000000000000e+00
1.450951814651489258e+00,6.430422973632812500e+02,1.490643463134765625e+02,1.490643463134765625e+02,0.000000000000000000e+00,2.431558370590209961e-01,7.925785212137270719e-06,-3.533755288387396831e-09,7.978889549065115716e-09,-2.617082209326326847e-04,3.053424677545990562e-07,1.259884243154374417e-06,-1.309561822563409805e-02,-6.693415798508794978e-06,2.754819433903321624e-06,-3.537327541991430735e-09,0.000000000000000000e+00,-4.257316468283534050e-04,1.000000000000000000e+00
1.527701377868652344e+00,6.430422973632812500e+02,1.490643463134765625e+02,1.490643463134765625e+02,0.000000000000000000e+00,2.431558370590209961e-01,7.925785212137270719e-06,-3.307712770350690334e-09,3.647409840823456761e-08,1.905373501358553767e-04,2.945196309056541395e-09,3.712751777129597031e-07,5.892484448850154877e-03,5.455087830341653898e-06,2.567910087236668915e-06,-7.108974298120074309e-09,0.000000000000000000e+00,-4.257316468283534050e-04,1.000000000000000000e+00
1.527701377868652344e+00,6.430422973632812500e+02,1.490643463134765625e+02,1.490643463134765625e+02,0.000000000000000000e+00,2.431558370590209961e-01,7.925785212137270719e-06,-3.307712770350690334e-09,3.647409840823456761e-08,1.905373501358553767e-04,2.945196309056541395e-09,3.712751777129597031e-07,5.892484448850154877e-03,5.455087830341653898e-06,2.567910087236668915e-06,-7.108974298120074309e-09,0.000000000000000000e+00,-4.257316468283534050e-04,1.000000000000000000e+00
1.527701377868652344e+00,6.430422973632812500e+02,1.490643463134765625e+02,1.490643463134765625e+02,0.000000000000000000e+00,2.431558370590209961e-01,7.925785212137270719e-06,-3.307712770350690334e-09,3.647409840823456761e-08,1.905373501358553767e-04,2.945196309056541395e-09,3.712751777129597031e-07,5.892484448850154877e-03,5.455087830341653898e-06,2.567910087236668915e-06,-7.108974298120074309e-09,0.000000000000000000e+00,-4.257316468283534050e-04,1.000000000000000000e+00
1.600134611129760742e+00,6.430422973632812500e+02,1.490643463134765625e+02,1.490643463134765625e+02,0.000000000000000000e+00,2.431558370590209961e-01,7.925785212137270719e-06,1.521830483852681937e-08,6.737563751357811270e-08,-1.173449563793838024e-03,2.557668210556585109e-07,4.266209998604608700e-07,-1.883095316588878632e-02,5.768640767200849950e-05,-1.032144336932105944e-05,8.231880066489338788e-09,0.000000000000000000e+00,-4.257316468283534050e-04,1.000000000000000000e+00
1.600134611129760742e+00,6.430422973632812500e+02,1.490643463134765625e+02,1.490643463134765625e+02,0.000000000000000000e+00,2.431558370590209961e-01,7.925785212137270719e-06,1.521830483852681937e-08,6.737563751357811270e-08,-1.173449563793838024e-03,2.557668210556585109e-07,4.266209998604608700e-07,-1.883095316588878632e-02,5.768640767200849950e-05,-1.032144336932105944e-05,8.231880066489338788e-09,0.000000000000000000e+00,-4.257316468283534050e-04,1.000000000000000000e+00
1.600134611129760742e+00,6.430422973632812500e+02,1.490643463134765625e+02,1.490643463134765625e+02,0.000000000000000000e+00,2.431558370590209961e-01,7.925785212137270719e-06,1.521830483852681937e-08,6.737563751357811270e-08,-1.173449563793838024e-03,2.557668210556585109e-07,4.266209998604608700e-07,-1.883095316588878632e-02,5.768640767200849950e-05,-1.032144336932105944e-05,8.231880066489338788e-09,0.000000000000000000e+00,-4.257316468283534050e-04,1.000000000000000000e+00
1.600134611129760742e+00,6.430422973632812500e+02,1.490643463134765625e+02,1.490643463134765625e+02,0.000000000000000000e+00,2.431558370590209961e-01,7.925785212137270719e-06,1.521830483852681937e-08,6.737563751357811270e-08,-1.173449563793838024e-03,2.557668210556585109e-07,4.266209998604608700e-07,-1.883095316588878632e-02,5.768640767200849950e-05,-1.032144336932105944e-05,8.231880066489338788e-09,0.000000000000000000e+00,-4.257316468283534050e-04,1.000000000000000000e+00
1.600134611129760742e+00,6.430422973632812500e+02,1.490643463134765625e+02,1.490643463134765625e+02,0.000000000000000000e+00,2.431558370590209961e-01,7.925785212137270719e-06,1.521830483852681937e-08,6.737563751357811270e-08,-1.173449563793838024e-03,2.557668210556585109e-07,4.266209998604608700e-07,-1.883095316588878632e-02,5.768640767200849950e-05,-1.032144336932105944e-05,8.231880066489338788e-09,0.000000000000000000e+00,-4.257316468283534050e-04,1.000000000000000000e+00
1.600134611129760742e+00,6.430422973632812500e+02,1.490643463134765625e+02,1.490643463134765625e+02,0.000000000000000000e+00,2.431558370590209961e-01,7.925785212137270719e-06,-2.765198070520114015e-10,6.405400654330151156e-08,3.545247454894706607e-05,-1.342951776450718171e-07,-2.878890370539011201e-08,1.047767326235771179e-02,4.506132609094493091e-05,2.527873164126503980e-07,5.623577603586227269e-09,0.000000000000000000e+00,-4.257316468283534050e-04,1.000000000000000000e+00
1.715513467788696289e+00,6.430422973632812500e+02,1.490643463134765625e+02,1.490643463134765625e+02,0.000000000000000000e+00,2.431558370590209961e-01,7.925785212137270719e-06,-2.765198070520114015e-10,6.405400654330151156e-08,3.545247454894706607e-05,-1.342951776450718171e-07,-2.878890370539011201e-08,1.047767326235771179e-02,4.506132609094493091e-05,2.527873164126503980e-07,5.623577603586227269e-09,0.000000000000000000e+00,-4.257316468283534050e-04,1.000000000000000000e+00
1.715513467788696289e+00,6.430422973632812500e+02,1.490643463134765625e+02,1.490643463134765625e+02,0.000000000000000000e+00,2.431558370590209961e-01,7.925785212137270719e-06,-2.765198070520114015e-10,6.405400654330151156e-08,3.545247454894706607e-05,-1.342951776450718171e-07,-2.878890370539011201e-08,1.047767326235771179e-02,4.506132609094493091e-05,2.527873164126503980e-07,5.623577603586227269e-09,0.000000000000000000e+00,-4.257316468283534050e-04,1.000000000000000000e+00
1.715513467788696289e+00,6.430422973632812500e+02,1.490643463134765625e+02,1.490643463134765625e+02,0.000000000000000000e+00,2.431558370590209961e-01,7.925785212137270719e-06,1.861740805964018364e-08,1.281750883208587766e-08,-9.826929308474063873e-04,1.935820534981758101e-07,-5.249552259556367062e-07,-1.043164078146219254e-02,-8.730316949367988855e-06,-1.325492394244065508e-05,-3.932487391278272071e-10,0.000000000000000000e+00,-4.257316468283534050e-04,1.000000000000000000e+00
1.813115119934082031e+00,6.430422973632812500e+02,1.490643463134765625e+02,1.490643463134765625e+02,0.000000000000000000e+00,2.431558370590209961e-01,7.925785212137270719e-06,1.861740805964018364e-08,1.281750883208587766e-08,-9.826929308474063873e-04,1.935820534981758101e-07,-5.249552259556367062e-07,-1.043164078146219254e-02,-8.730316949367988855e-06,-1.325492394244065508e-05,-3.932487391278272071e-10,0.000000000000000000e+00,-4.257316468283534050e-04,1.000000000000000000e+00
1.813115119934082031e+00,6.430422973632812500e+02,1.490643463134765625e+02,1.490643463134765625e+02,0.000000000000000000e+00,2.431558370590209961e-01,7.925785212137270719e-06,1.861740805964018364e-08,1.281750883208587766e-08,-9.826929308474063873e-04,1.935820534981758101e-07,-5.249552259556367062e-07,-1.043164078146219254e-02,-8.730316949367988855e-06,-1.325492394244065508e-05,-3.932487391278272071e-10,0.000000000000000000e+00,-4.257316468283534050e-04,1.000000000000000000e+00
1.813115119934082031e+00,6.430422973632812500e+02,1.490643463134765625e+02,1.490643463134765625e+02,0.000000000000000000e+00,2.431558370590209961e-01,7.925785212137270719e-06,1.861740805964018364e-08,1.281750883208587766e-08,-9.826929308474063873e-04,1.935820534981758101e-07,-5.249552259556367062e-07,-1.043164078146219254e-02,-8.730316949367988855e-06,-1.325492394244065508e-05,-3.932487391278272071e-10,0.000000000000000000e+00,-4.257316468283534050e-04,1.000000000000000000e+00
1.813115119934082031e+00,6.430422973632812500e+02,1.490643463134765625e+02,1.490643463134765625e+02,0.000000000000000000e+00,2.431558370590209961e-01,7.925785212137270719e-06,-2.033550750013546349e-08,4.742333103990858945e-08,2.211020328104496002e-04,-4.692006996265263297e-07,4.168385032699006842e-07,1.450010668486356735e-02,3.664078394649550319e-05,1.435506874258862808e-05,-3.422880034964492779e-10,0.000000000000000000e+00,-4.257316468283534050e-04,1.000000000000000000e+00
1.896134853363037109e+00,6.430422973632812500e+02,1.490643463134765625e+02,1.490643463134765625e+02,0.000000000000000000e+00,2.431558370590209961e-01,7.925785212137270719e-06,-2.033550750013546349e-08,4.742333103990858945e-08,2.211020328104496002e-04,-4.692006996265263297e-07,4.168385032699006842e-07,1.450010668486356735e-02,3.664078394649550319e-05,1.435506874258862808e-05,-3.422880034964492779e-10,0.000000000000000000e+00,-4.257316468283534050e-04,1.000000000000000000e+00
1.896134853363037109e+00,6.430422973632812500e+02,1.490643463134765625e+02,1.490643463134765625e+02,0.000000000000000000e+00,2.431558370590209961e-01,7.925785212137270719e-06,-2.033550750013546349e-08,4.742333103990858945e-08,2.211020328104496002e-04,-4.692006996265263297e-07,4.168385032699006842e-07,1.450010668486356735e-02,3.664078394649550319e-05,1.435506874258862808e-05,-3.422880034964492779e-10,0.000000000000000000e+00,-4.257316468283534050e-04,1.000000000000000000e+00
1.896134853363037109e+00,6.430422973632812500e+02,1.490643463134765625e+02,1.490643463134765625e+02,0.000000000000000000e+00,2.431558370590209961e-01,7.925785212137270719e-06,-2.033550750013546349e-08,4.742333103990858945e-08,2.211020328104496002e-04,-4.692006996265263297e-07,4.168385032699006842e-07,1.450010668486356735e-02,3.664078394649550319e-05,1.435506874258862808e-05,-3.422880034964492779e-10,0.000000000000000000e+00,-4.257316468283534050e-04,1.000000000000000000e+00
1.896134853363037109e+00,6.430422973632812500e+02,1.490643463134765625e+02,1.490643463134765625e+02,0.000000000000000000e+00,2.431558370590209961e-01,7.925785212137270719e-06,-2.033550750013546349e-08,4.742333103990858945e-08,2.211020328104496002e-04,-4.692006996265263297e-07,4.168385032699006842e-07,1.450010668486356735e-02,3.664078394649550319e-05,1.435506874258862808e-05,-3.422880034964492779e-10,0.000000000000000000e+00,-4.257316468283534050e-04,1.000000000000000000e+00
1.896134853363037109e+00,6.430422973632812500e+02,1.490643463134765625e+02,1.490643463134765625e+02,0.000000000000000000e+00,2.431558370590209961e-01,7.925785212137270719e-06,-2.033550750013546349e-08,4.742333103990858945e-08,2.211020328104496002e-04,-4.692006996265263297e-07,4.168385032699006842e-07,1.450010668486356735e-02,3.664078394649550319e-05,1.435506874258862808e-05,-3.422880034964492779e-10,0.000000000000000000e+00,-4.257316468283534050e-04,1.000000000000000000e+00
1.896134853363037109e+00,6.430422973632812500e+02,1.490643463134765625e+02,1.490643463134765625e+02,0.000000000000000000e+00,2.431558370590209961e-01,7.925785212137270719e-06,-2.033550750013546349e-08,4.742333103990858945e-08,2.211020328104496002e-04,-4.692006996265263297e-07,4.168385032699006842e-07,1.450010668486356735e-02,3.664078394649550319e-05,1.435506874258862808e-05,-3.422880034964492779e-10,0.000000000000000000e+00,-4.257316468283534050e-04,1.000000000000000000e+00
1.896134853363037109e+00,6.430422973632812500e+02,1.490643463134765625e+02,1.490643463134765625e+02,0.000000000000000000e+00,2.431558370590209961e-01,7.925785212137270719e-06,-2.033550750013546349e-08,4.742333103990858945e-08,2.211020328104496002e-04,-4.692006996265263297e-07,4.168385032699006842e-07,1.450010668486356735e-02,3.664078394649550319e-05,1.435506874258862808e-05,-3.422880034964492779e-10,0.000000000000000000e+00,-4.257316468283534050e-04,1.000000000000000000e+00
2.195794820785522461e+00,6.430422973632812500e+02,1.490643463134765625e+02,1.490643463134765625e+02,0.000000000000000000e+00,2.431558370590209961e-01,7.925785212137270719e-06,-1.064859103672155527e-10,-7.775045673952263314e-08,5.701757618226110935e-04,2.031300105898026231e-08,-9.162906167148321401e-07,7.188465911895036697e-03,-3.564277722034603357e-05,6.625588753195188474e-07,-3.371194656764942010e-09,0.000000000000000000e+00,-4.257316468283534050e-04,1.000000000000000000e+00
2.195794820785522461e+00,6.430422973632812500e+02,1.490643463134765625e+02,1.490643463134765625e+02,0.000000000000000000e+00,2.431558370590209961e-01,7.925785212137270719e-06,-1.064859103672155527e-10,-7.775045673952263314e-08,5.701757618226110935e-04,2.031300105898026231e-08,-9.162906167148321401e-07,7.188465911895036697e-03,-3.564277722034603357e-05,6.625588753195188474e-07,-3.371194656764942010e-09,0.000000000000000000e+00,-4.257316468283534050e-04,1.000000000000000000e+00
2.195794820785522461e+00,6.430422973632812500e+02,1.490643463134765625e+02,1.490643463134765625e+02,0.000000000000000000e+00,2.431558370590209961e-01,7.925785212137270719e-06,-1.064859103672155527e-10,-7.775045673952263314e-08,5.701757618226110935e-04,2.031300105898026231e-08,-9.162906167148321401e-07,7.188465911895036697e-03,-3.564277722034603357e-05,6.625588753195188474e-07,-3.371194656764942010e-09,0.000000000000000000e+00,-4.257316468283534050e-04,1.000000000000000000e+00
2.195794820785522461e+00,6.430422973632812500e+02,1.490643463134765625e+02,1.490643463134765625e+02,0.000000000000000000e+00,2.431558370590209961e-01,7.925785212137270719e-06,-1.064859103672155527e-10,-7.775045673952263314e-08,5.701757618226110935e-04,2.031300105898026231e-08,-9.162906167148321401e-07,7.188465911895036697e-03,-3.564277722034603357e-05,6.625588753195188474e-07,-3.371194656764942010e-09,0.000000000000000000e+00,-4.257316468283534050e-04,1.000000000000000000e+00
2.195794820785522461e+00,6.430422973632812500e+02,1.490643463134765625e+02,1.490643463134765625e+02,0.000000000000000000e+00,2.431558370590209961e-01,7.925785212137270719e-06,-1.064859103672155527e-10,-7.775045673952263314e-08,5.701757618226110935e-04,2.031300105898026231e-08,-9.162906167148321401e-07,7.188465911895036697e-03,-3.564277722034603357e-05,6.625588753195188474e-07,-3.371194656764942010e-09,0.000000000000000000e+00,-4.257316468283534050e-04,1.000000000000000000e+00
2.195794820785522461e+00,6.430422973632812500e+02,1.490643463134765625e+02,1.490643463134765625e+02,0.000000000000000000e+00,2.431558370590209961e-01,7.925785212137270719e-06,-1.064859103672155527e-10,-7.775045673952263314e-08,5.701757618226110935e-04,2.031300105898026231e-08,-9.162906167148321401e-07,7.188465911895036697e-03,-3.564277722034603357e-05,6.625588753195188474e-07,-3.371194656764942010e-09,0.000000000000000000e+00,-4.257316468283534050e-04,1.000000000000000000e+00
2.195794820785522461e+00,6.430422973632812500e+02,1.490643463134765625e+02,1.490643463134765625e+02,0.000000000000000000e+00,2.431558370590209961e-01,7.925785212137270719e-06,-1.064859103672155527e-10,-7.775045673952263314e-08,5.701757618226110935e-04,2.031300105898026231e-08,-9.162906167148321401e-07,7.188465911895036697e-03,-3.564277722034603357e-05,6.625588753195188474e-07,-3.371194656764942010e-09,0.000000000000000000e+00,-4.257316468283534050e-04,1.000000000000000000e+00
2.195794820785522461e+00,6.430422973632812500e+02,1.490643463134765625e+02,1.490643463134765625e+02,0.000000000000000000e+00,2.431558370590209961e-01,7.925785212137270719e-06,-1.064859103672155527e-10,-7.775045673952263314e-08,5.701757618226110935e-04,2.031300105898026231e-08,-9.162906167148321401e-07,7.188465911895036697e-03,-3.564277722034603357e-05,6.625588753195188474e-07,-3.371194656764942010e-09,0.000000000000000000e+00,-4.257316468283534050e-04,1.000000000000000000e+00
2.195794820785522461e+00,6.430422973632812500e+02,1.490643463134765625e+02,1.490643463134765625e+02,0.000000000000000000e+00,2.431558370590209961e-01,7.925785212137270719e-06,-1.064859103672155527e-10,-7.775045673952263314e-08,5.701757618226110935e-04,2.031300105898026231e-08,-9.162906167148321401e-07,7.188465911895036697e-03,-3.564277722034603357e-05,6.625588753195188474e-07,-3.371194656764942010e-09,0.000000000000000000e+00,-4.257316468283534050e-04,1.000000000000000000e+00
2.195794820785522461e+00,6.430422973632812500e+02,1.490643463134765625e+02,1.490643463134765625e+02,0.000000000000000000e+00,2.431558370590209961e-01,7.925785212137270719e-06,-1.064859103672155527e-10,-7.775045673952263314e-08,5.701757618226110935e-04,2.031300105898026231e-08,-9.162906167148321401e-07,7.188465911895036697e-03,-3.564277722034603357e-05,6.625588753195188474e-07,-3.371194656764942010e-09,0.000000000000000000e+00,-4.257316468283534050e-04,1.000000000000000000e+00
2.374083757400512695e+00,6.430422973632812500e+02,1.490643463134765625e+02,1.490643463134765625e+02,0.000000000000000000e+00,2.431558370590209961e-01,7.925785212137270719e-06,-3.602202536256982057e-09,3.507705770289248903e-08,1.600692048668861389e-03,-1.960703066572477837e-08,6.328351673801080324e-07,5.780035164207220078e-03,3.048648250114638358e-05,2.995108161485404707e-06,5.620818477325428830e-09,0.000000000000000000e+00,-4.257316468283534050e-04,1.000000000000000000e+00
2.374083757400512695e+00,6.430422973632812500e+02,1.490643463134765625e+02,1.490643463134765625e+02,0.000000000000000000e+00,2.431558370590209961e-01,7.925785212137270719e-06,-3.602202536256982057e-09,3.507705770289248903e-08,1.600692048668861389e-03,-1.960703066572477837e-08,6.328351673801080324e-07,5.780035164207220078e-03,3.048648250114638358e-05,2.995108161485404707e-06,5.620818477325428830e-09,0.000000000000000000e+00,-4.257316468283534050e-04,1.000000000000000000e+00
2.374083757400512695e+00,6.430422973632812500e+02,1.490643463134765625e+02,1.490643463134765625e+02,0.000000000000000000e+00,2.431558370590209961e-01,7.925785212137270719e-06,-3.602202536256982057e-09,3.507705770289248903e-08,1.600692048668861389e-03,-1.960703066572477837e-08,6.328351673801080324e-07,5.780035164207220078e-03,3.048648250114638358e-05,2.995108161485404707e-06,5.620818477325428830e-09,0.000000000000000000e+00,-4.257316468283534050e-04,1.000000000000000000e+00
2.447860002517700195e+00,6.430422973632812500e+02,1.490643463134765625e+02,1.490643463134765625e+02,0.000000000000000000e+00,2.431558370590209961e-01,7.925785212137270719e-06,1.066886134992728330e-08,-2.446949487477922958e-08,-9.558419696986675262e-04,1.934371169909354649e-07,-8.071236266005143989e-07,-3.465253859758377075e-02,-5.255117230262840167e-06,-7.409923000523122028e-06,2.059412196331322775e-09,0.000000000000000000e+00,-4.257316468283534050e-04,1.000000000000000000e+00
2.447860002517700195e+00,6.430422973632812500e+02,1.490643463134765625e+02,1.490643463134765625e+02,0.000000000000000000e+00,2.431558370590209961e-01,7.925785212137270719e-06,1.066886134992728330e-08,-2.446949487477922958e-08,-9.558419696986675262e-04,1.934371169909354649e-07,-8.071236266005143989e-07,-3.465253859758377075e-02,-5.255117230262840167e-06,-7.409923000523122028e-06,2.059412196331322775e-09,0.000000000000000000e+00,-4.257316468283534050e-04,1.000000000000000000e+00
2.500878810882568359e+00,6.430422973632812500e+02,1.490643463134765625e+02,1.490643463134765625e+02,0.000000000000000000e+00,2.431558370590209961e-01,7.925785212137270719e-06,2.659921705117085367e-08,-4.538326692227201420e-08,1.323762116953730583e-03,3.004661266459152102e-07,-3.944594766380760120e-07,4.299613833427429199e-02,-4.415186049300245941e-05,-1.849068030423950404e-05,-8.522716976600008820e-10,0.000000000000000000e+00,-4.257316468283534050e-04,1.000000000000000000e+00
2.500878810882568359e+00,6.430422973632812500e+02,1.490643463134765625e+02,1.490643463134765625e+02,0.000000000000000000e+00,2.431558370590209961e-01,7.925785212137270719e-06,2.659921705117085367e-08,-4.538326692227201420e-08,1.323762116953730583e-03,3.004661266459152102e-07,-3.944594766380760120e-07,4.299613833427429199e-02,-4.415186049300245941e-05,-1.849068030423950404e-05,-8.522716976600008820e-10,0.000000000000000000e+00,-4.257316468283534050e-04,1.000000000000000000e+00
2.500878810882568359e+00,6.430422973632812500e+02,1.490643463134765625e+02,1.490643463134765625e+02,0.000000000000000000e+00,2.431558370590209961e-01,7.925785212137270719e-06,4.821789634235074118e-09,-4.279428367226500995e-08,2.020119922235608101e-03,-3.671386252790398430e-07,4.364683192648044496e-08,1.173967123031616211e-02,-3.291599205113016069e-05,-3.723675490618916228e-06,-3.476781085254287973e-09,0.000000000000000000e+00,-4.257316468283534050e-04,1.000000000000000000e+00
2.560195446014404297e+00,6.430422973632812500e+02,1.490643463134765625e+02,1.490643463134765625e+02,0.000000000000000000e+00,2.431558370590209961e-01,7.925785212137270719e-06,4.821789634235074118e-09,-4.279428367226500995e-08,2.020119922235608101e-03,-3.671386252790398430e-07,4.364683192648044496e-08,1.173967123031616211e-02,-3.291599205113016069e-05,-3.723675490618916228e-06,-3.476781085254287973e-09,0.000000000000000000e+00,-4.257316468283534050e-04,1.000000000000000000e+00
2.560195446014404297e+00,6.430422973632812500e+02,1.490643463134765625e+02,1.490643463134765625e+02,0.000000000000000000e+00,2.431558370590209961e-01,7.925785212137270719e-06,4.821789634235074118e-09,-4.279428367226500995e-08,2.020119922235608101e-03,-3.671386252790398430e-07,4.364683192648044496e-08,1.173967123031616211e-02,-3.291599205113016069e-05,-3.723675490618916228e-06,-3.476781085254287973e-09,0.000000000000000000e+00,-4.257316468283534050e-04,1.000000000000000000e+00
2.618730545043945312e+00,6.430422973632812500e+02,1.490643463134765625e+02,1.490643463134765625e+02,0.000000000000000000e+00,2.431558370590209961e-01,7.925785212137270719e-06,1.563390639169881524e-09,6.008104236343569937e-08,-2.595135010778903961e-04,-5.566572625070875802e-08,1.757498125698475633e-06,-3.894472494721412659e-02,5.256921576801687479e-05,-1.362829948448052164e-06,1.068815436156000942e-08,0.000000000000000000e+00,-4.257316468283534050e-04,1.000000000000000000e+00
2.618730545043945312e+00,6.430422973632812500e+02,1.490643463134765625e+02,1.490643463134765625e+02,0.000000000000000000e+00,2.431558370590209961e-01,7.925785212137270719e-06,1.563390639169881524e-09,6.008104236343569937e-08,-2.595135010778903961e-04,-5.566572625070875802e-08,1.757498125698475633e-06,-3.894472494721412659e-02,5.256921576801687479e-05,-1.362829948448052164e-06,1.068815436156000942e-08,0.000000000000000000e+00,-4.257316468283534050e-04,1.000000000000000000e+00
2.677334070205688477e+00,6.430422973632812500e+02,1.490643463134765625e+02,1.490643463134765625e+02,0.000000000000000000e+00,2.431558370590209961e-01,7.925785212137270719e-06,-9.853010629612413140e-10,-1.277893346696146182e-07,1.330181021330645308e-05,-4.349041660134389531e-08,-3.205786242688191123e-06,4.655271302908658981e-03,-6.014493555994704366e-05,1.230510520144889597e-06,-5.388947066364835337e-09,0.000000000000000000e+00,-4.257316468283534050e-04,1.000000000000000000e+00
2.677334070205688477e+00,6.430422973632812500e+02,1.490643463134765625e+02,1.490643463134765625e+02,0.000000000000000000e+00,2.431558370590209961e-01,7.925785212137270719e-06,-9.853010629612413140e-10,-1.277893346696146182e-07,1.330181021330645308e-05,-4.349041660134389531e-08,-3.205786242688191123e-06,4.655271302908658981e-03,-6.014493555994704366e-05,1.230510520144889597e-06,-5.388947066364835337e-09,0.000000000000000000e+00,-4.257316468283534050e-04,1.000000000000000000e+00
2.677334070205688477e+00,6.430422973632812500e+02,1.490643463134765625e+02,1.490643463134765625e+02,0.000000000000000000e+00,2.431558370590209961e-01,7.925785212137270719e-06,-9.853010629612413140e-10,-1.277893346696146182e-07,1.330181021330645308e-05,-4.349041660134389531e-08,-3.205786242688191123e-06,4.655271302908658981e-03,-6.014493555994704366e-05,1.230510520144889597e-06,-5.388947066364835337e-09,0.000000000000000000e+00,-4.257316468283534050e-04,1.000000000000000000e+00
2.677334070205688477e+00,6.430422973632812500e+02,1.490643463134765625e+02,1.490643463134765625e+02,0.000000000000000000e+00,2.431558370590209961e-01,7.925785212137270719e-06,-9.853010629612413140e-10,-1.277893346696146182e-07,1.330181021330645308e-05,-4.349041660134389531e-08,-3.205786242688191123e-06,4.655271302908658981e-03,-6.014493555994704366e-05,1.230510520144889597e-06,-5.388947066364835337e-09,0.000000000000000000e+00,-4.257316468283534050e-04,1.000000000000000000e+00
2.755024909973144531e+00,6.430422973632812500e+02,1.490643463134765625e+02,1.490643463134765625e+02,0.000000000000000000e+00,2.431558370590209961e-01,7.925785212137270719e-06,-5.722004647878975447e-09,-4.532400410539594304e-08,-1.334948365183663554e-07,-6.096862392723778612e-08,1.061455009221390355e-06,-1.729329378576949239e-04,-2.050438342848792672e-05,3.818278401013230905e-06,-8.939266687990610194e-11,0.000000000000000000e+00,-4.257316468283534050e-04,1.000000000000000000e+00
2.755024909973144531e+00,6.430422973632812500e+02,1.490643463134765625e+02,1.490643463134765625e+02,0.000000000000000000e+00,2.431558370590209961e-01,7.925785212137270719e-06,-5.722004647878975447e-09,-4.532400410539594304e-08,-1.334948365183663554e-07,-6.096862392723778612e-08,1.061455009221390355e-06,-1.729329378576949239e-04,-2.050438342848792672e-05,3.818278401013230905e-06,-8.939266687990610194e-11,0.000000000000000000e+00,-4.257316468283534050e-04,1.000000000000000000e+00
2.755024909973144531e+00,6.430422973632812500e+02,1.490643463134765625e+02,1.490643463134765625e+02,0.000000000000000000e+00,2.431558370590209961e-01,7.925785212137270719e-06,-5.722004647878975447e-09,-4.532400410539594304e-08,-1.334948365183663554e-07,-6.096862392723778612e-08,1.061455009221390355e-06,-1.729329378576949239e-04,-2.050438342848792672e-05,3.818278401013230905e-06,-8.939266687990610194e-11,0.000000000000000000e+00,-4.257316468283534050e-04,1.000000000000000000e+00
2.830169916152954102e+00,6.430422973632812500e+02,1.490643463134765625e+02,1.490643463134765625e+02,0.000000000000000000e+00,2.431558370590209961e-01,7.925785212137270719e-06,9.954180590909800230e-09,1.020992801414877249e-08,-5.539032863453030586e-04,2.086124624156582286e-07,7.390235623461194336e-07,-7.369349244982004166e-03,-3.303086259620613419e-06,-7.041124263196252286e-06,-7.386193878744506947e-10,0.000000000000000000e+00,-4.257316468283534050e-04,1.000000000000000000e+00
2.830169916152954102e+00,6.430422973632812500e+02,1.490643463134765625e+02,1.490643463134765625e+02,0.000000000000000000e+00,2.431558370590209961e-01,7.925785212137270719e-06,9.954180590909800230e-09,1.020992801414877249e-08,-5.539032863453030586e-04,2.086124624156582286e-07,7.390235623461194336e-07,-7.369349244982004166e-03,-3.303086259620613419e-06,-7.041124263196252286e-06,-7.386193878744506947e-10,0.000000000000000000e+00,-4.257316468283534050e-04,1.000000000000000000e+00
2.830169916152954102e+00,6.430422973632812500e+02,1.490643463134765625e+02,1.490643463134765625e+02,0.000000000000000000e+00,2.431558370590209961e-01,7.925785212137270719e-06,9.954180590909800230e-09,1.020992801414877249e-08,-5.539032863453030586e-04,2.086124624156582286e-07,7.390235623461194336e-07,-7.369349244982004166e-03,-3.303086259620613419e-06,-7.041124263196252286e-06,-7.386193878744506947e-10,0.000000000000000000e+00,-4.257316468283534050e-04,1.000000000000000000e+00
2.830169916152954102e+00,6.430422973632812500e+02,1.490643463134765625e+02,1.490643463134765625e+02,0.000000000000000000e+00,2.431558370590209961e-01,7.925785212137270719e-06,9.954180590909800230e-09,1.020992801414877249e-08,-5.539032863453030586e-04,2.086124624156582286e-07,7.390235623461194336e-07,-7.369349244982004166e-03,-3.303086259620613419e-06,-7.041124263196252286e-06,-7.386193878744506947e-10,0.000000000000000000e+00,-4.257316468283534050e-04,1.000000000000000000e+00
2.830169916152954102e+00,6.430422973632812500e+02,1.490643463134765625e+02,1.490643463134765625e+02,0.000000000000000000e+00,2.431558370590209961e-01,7.925785212137270719e-06,9.954180590909800230e-09,1.020992801414877249e-08,-5.539032863453030586e-04,2.086124624156582286e-07,7.390235623461194336e-07,-7.369349244982004166e-03,-3.303086259620613419e-06,-7.041124263196252286e-06,-7.386193878744506947e-10,0.000000000000000000e+00,-4.257316468283534050e-04,1.000000000000000000e+00
2.917726278305053711e+00,6.430422973632812500e+02,1.490643463134765625e+02,1.490643463134765625e+02,0.000000000000000000e+00,2.431558370590209961e-01,7.925785212137270719e-06,-1.390138049117695118e-08,3.398136172449994774e-08,2.216673456132411957e-04,-2.724594594383233925e-07,2.714986351293191547e-07,8.857958018779754639e-03,4.643617103283759207e-06,9.488932846579700708e-06,-5.525200741374192148e-09,0.000000000000000000e+00,-4.257316468283534050e-04,1.000000000000000000e+00
