# Time,X,Y,Z,Roll,Pitch,Yaw,Vx,Vy,Vz,Ax,Ay,Az,Wx,Wy,Wz,Throttle,Steer,Brake
0.000000000000000000e+00,6.365535278320312500e+02,5.216864776611328125e+01,5.216864776611328125e+01,2.285381220281124115e-02,-7.696533203125000000e-02,-4.852294456213712692e-03,-1.440795593943278163e-09,-2.308783386695267836e-08,1.710783340968191624e-03,-5.246954515314428136e-08,-2.073362139753953670e-07,1.658516377210617065e-02,-1.777172292349860072e-05,3.015838274222915061e-06,1.288617546002512881e-10,0.000000000000000000e+00,1.055814558640122414e-03,1.000000000000000000e+00
1.045818328857421875e-01,6.365535278320312500e+02,5.216864776611328125e+01,5.216864776611328125e+01,2.285381220281124115e-02,-7.696533203125000000e-02,-4.852294456213712692e-03,-1.440795593943278163e-09,-2.308783386695267836e-08,1.710783340968191624e-03,-5.246954515314428136e-08,-2.073362139753953670e-07,1.658516377210617065e-02,-1.777172292349860072e-05,3.015838274222915061e-06,1.288617546002512881e-10,0.000000000000000000e+00,1.055814558640122414e-03,1.000000000000000000e+00
1.045818328857421875e-01,6.365535278320312500e+02,5.216864776611328125e+01,5.216864776611328125e+01,2.285381220281124115e-02,-7.696533203125000000e-02,-4.852294456213712692e-03,-1.440795593943278163e-09,-2.308783386695267836e-08,1.710783340968191624e-03,-5.246954515314428136e-08,-2.073362139753953670e-07,1.658516377210617065e-02,-1.777172292349860072e-05,3.015838274222915061e-06,1.288617546002512881e-10,0.000000000000000000e+00,1.055814558640122414e-03,1.000000000000000000e+00
1.045818328857421875e-01,6.365535278320312500e+02,5.216864776611328125e+01,5.216864776611328125e+01,2.285381220281124115e-02,-7.696533203125000000e-02,-4.852294456213712692e-03,-1.440795593943278163e-09,-2.308783386695267836e-08,1.710783340968191624e-03,-5.246954515314428136e-08,-2.073362139753953670e-07,1.658516377210617065e-02,-1.777172292349860072e-05,3.015838274222915061e-06,1.288617546002512881e-10,0.000000000000000000e+00,1.055814558640122414e-03,1.000000000000000000e+00
1.045818328857421875e-01,6.365535278320312500e+02,5.216864776611328125e+01,5.216864776611328125e+01,2.285381220281124115e-02,-7.696533203125000000e-02,-4.852294456213712692e-03,-1.440795593943278163e-09,-2.308783386695267836e-08,1.710783340968191624e-03,-5.246954515314428136e-08,-2.073362139753953670e-07,1.658516377210617065e-02,-1.777172292349860072e-05,3.015838274222915061e-06,1.288617546002512881e-10,0.000000000000000000e+00,1.055814558640122414e-03,1.000000000000000000e+00
1.045818328857421875e-01,6.365535278320312500e+02,5.216864776611328125e+01,5.216864776611328125e+01,2.285381220281124115e-02,-7.696533203125000000e-02,-4.852294456213712692e-03,-1.440795593943278163e-09,-2.308783386695267836e-08,1.710783340968191624e-03,-5.246954515314428136e-08,-2.073362139753953670e-07,1.658516377210617065e-02,-1.777172292349860072e-05,3.015838274222915061e-06,1.288617546002512881e-10,0.000000000000000000e+00,1.055814558640122414e-03,1.000000000000000000e+00
1.045818328857421875e-01,6.365535278320312500e+02,5.216864776611328125e+01,5.216864776611328125e+01,2.285381220281124115e-02,-7.696533203125000000e-02,-4.852294456213712692e-03,-1.421916806521039689e-09,-4.837929523660022824e-08,-2.758901391644030809e-04,1.802978044640468624e-10,-2.415406754607829498e-07,-1.897330023348331451e-02,-1.103139652514073532e-06,9.269501788367051631e-07,1.678202132815442837e-09,0.000000000000000000e+00,1.055814558640122414e-03,1.000000000000000000e+00
2.092907428741455078e-01,6.365535278320312500e+02,5.216864776611328125e+01,5.216864776611328125e+01,2.285381220281124115e-02,-7.696533203125000000e-02,-4.852294456213712692e-03,-1.421916806521039689e-09,-4.837929523660022824e-08,-2.758901391644030809e-04,1.802978044640468624e-10,-2.415406754607829498e-07,-1.897330023348331451e-02,-1.103139652514073532e-06,9.269501788367051631e-07,1.678202132815442837e-09,0.000000000000000000e+00,1.055814558640122414e-03,1.000000000000000000e+00
2.092907428741455078e-01,6.365535278320312500e+02,5.216864776611328125e+01,5.216864776611328125e+01,2.285381220281124115e-02,-7.696533203125000000e-02,-4.852294456213712692e-03,-1.421916806521039689e-09,-4.837929523660022824e-08,-2.758901391644030809e-04,1.802978044640468624e-10,-2.415406754607829498e-07,-1.897330023348331451e-02,-1.103139652514073532e-06,9.269501788367051631e-07,1.678202132815442837e-09,0.000000000000000000e+00,1.055814558640122414e-03,1.000000000000000000e+00
2.092907428741455078e-01,6.365535278320312500e+02,5.216864776611328125e+01,5.216864776611328125e+01,2.285381220281124115e-02,-7.696533203125000000e-02,-4.852294456213712692e-03,-1.421916806521039689e-09,-4.837929523660022824e-08,-2.758901391644030809e-04,1.802978044640468624e-10,-2.415406754607829498e-07,-1.897330023348331451e-02,-1.103139652514073532e-06,9.269501788367051631e-07,1.678202132815442837e-09,0.000000000000000000e+00,1.055814558640122414e-03,1.000000000000000000e+00
2.092907428741455078e-01,6.365535278320312500e+02,5.216864776611328125e+01,5.216864776611328125e+01,2.285381220281124115e-02,-7.696533203125000000e-02,-4.852294456213712692e-03,-1.421916806521039689e-09,-4.837929523660022824e-08,-2.758901391644030809e-04,1.802978044640468624e-10,-2.415406754607829498e-07,-1.897330023348331451e-02,-1.103139652514073532e-06,9.269501788367051631e-07,1.678202132815442837e-09,0.000000000000000000e+00,1.055814558640122414e-03,1.000000000000000000e+00
2.092907428741455078e-01,6.365535278320312500e+02,5.216864776611328125e+01,5.216864776611328125e+01,2.285381220281124115e-02,-7.696533203125000000e-02,-4.852294456213712692e-03,-7.634126664157747655e-10,7.470140950260883983e-09,-1.733490935293957591e-04,8.824935449069926108e-09,7.484655952794128098e-07,1.374202664010226727e-03,2.691593635972822085e-06,1.657282155065331608e-06,6.968155497055761316e-10,0.000000000000000000e+00,1.055814558640122414e-03,1.000000000000000000e+00
2.839093208312988281e-01,6.365535278320312500e+02,5.216864776611328125e+01,5.216864776611328125e+01,2.285381220281124115e-02,-7.696533203125000000e-02,-4.852294456213712692e-03,-7.634126664157747655e-10,7.470140950260883983e-09,-1.733490935293957591e-04,8.824935449069926108e-09,7.484655952794128098e-07,1.374202664010226727e-03,2.691593635972822085e-06,1.657282155065331608e-06,6.968155497055761316e-10,0.000000000000000000e+00,1.055814558640122414e-03,1.000000000000000000e+00
2.839093208312988281e-01,6.365535278320312500e+02,5.216864776611328125e+01,5.216864776611328125e+01,2.285381220281124115e-02,-7.696533203125000000e-02,-4.852294456213712692e-03,-7.634126664157747655e-10,7.470140950260883983e-09,-1.733490935293957591e-04,8.824935449069926108e-09,7.484655952794128098e-07,1.374202664010226727e-03,2.691593635972822085e-06,1.657282155065331608e-06,6.968155497055761316e-10,0.000000000000000000e+00,1.055814558640122414e-03,1.000000000000000000e+00
2.839093208312988281e-01,6.365535278320312500e+02,5.216864776611328125e+01,5.216864776611328125e+01,2.285381220281124115e-02,-7.696533203125000000e-02,-4.852294456213712692e-03,-7.634126664157747655e-10,7.470140950260883983e-09,-1.733490935293957591e-04,8.824935449069926108e-09,7.484655952794128098e-07,1.374202664010226727e-03,2.691593635972822085e-06,1.657282155065331608e-06,6.968155497055761316e-10,0.000000000000000000e+00,1.055814558640122414e-03,1.000000000000000000e+00
2.839093208312988281e-01,6.365535278320312500e+02,5.216864776611328125e+01,5.216864776611328125e+01,2.285381220281124115e-02,-7.696533203125000000e-02,-4.852294456213712692e-03,-7.634126664157747655e-10,7.470140950260883983e-09,-1.733490935293957591e-04,8.824935449069926108e-09,7.484655952794128098e-07,1.374202664010226727e-03,2.691593635972822085e-06,1.657282155065331608e-06,6.968155497055761316e-10,0.000000000000000000e+00,1.055814558640122414e-03,1.000000000000000000e+00
3.569011688232421875e-01,6.365535278320312500e+02,5.216864776611328125e+01,5.216864776611328125e+01,2.285381220281124115e-02,-7.696533203125000000e-02,-4.852294456213712692e-03,-1.128410587192263392e-09,9.459981242798676249e-09,1.097848988138139248e-03,-5.000529768039996270e-09,2.726113024209553259e-08,1.741561666131019592e-02,9.025656254380010068e-06,2.341621893720002845e-06,-1.319733818755386423e-11,0.000000000000000000e+00,1.055814558640122414e-03,1.000000000000000000e+00
3.569011688232421875e-01,6.365535278320312500e+02,5.216864776611328125e+01,5.216864776611328125e+01,2.285381220281124115e-02,-7.696533203125000000e-02,-4.852294456213712692e-03,-1.128410587192263392e-09,9.459981242798676249e-09,1.097848988138139248e-03,-5.000529768039996270e-09,2.726113024209553259e-08,1.741561666131019592e-02,9.025656254380010068e-06,2.341621893720002845e-06,-1.319733818755386423e-11,0.000000000000000000e+00,1.055814558640122414e-03,1.000000000000000000e+00
3.569011688232421875e-01,6.365535278320312500e+02,5.216864776611328125e+01,5.216864776611328125e+01,2.285381220281124115e-02,-7.696533203125000000e-02,-4.852294456213712692e-03,-1.128410587192263392e-09,9.459981242798676249e-09,1.097848988138139248e-03,-5.000529768039996270e-09,2.726113024209553259e-08,1.741561666131019592e-02,9.025656254380010068e-06,2.341621893720002845e-06,-1.319733818755386423e-11,0.000000000000000000e+00,1.055814558640122414e-03,1.000000000000000000e+00
3.569011688232421875e-01,6.365535278320312500e+02,5.216864776611328125e+01,5.216864776611328125e+01,2.285381220281124115e-02,-7.696533203125000000e-02,-4.852294456213712692e-03,-1.128410587192263392e-09,9.459981242798676249e-09,1.097848988138139248e-03,-5.000529768039996270e-09,2.726113024209553259e-08,1.741561666131019592e-02,9.025656254380010068e-06,2.341621893720002845e-06,-1.319733818755386423e-11,0.000000000000000000e+00,1.055814558640122414e-03,1.000000000000000000e+00
4.765405654907226562e-01,6.365535278320312500e+02,5.216864776611328125e+01,5.216864776611328125e+01,2.285381220281124115e-02,-7.696533203125000000e-02,-4.852294456213712692e-03,2.362773310338184274e-10,5.236222833104875463e-08,4.334198310971260071e-04,1.140667738042111523e-08,3.585963384011847666e-07,-5.553598515689373016e-03,1.279312527913134545e-05,1.662048362049972638e-06,-1.187840048544330784e-09,0.000000000000000000e+00,1.055814558640122414e-03,1.000000000000000000e+00
4.765405654907226562e-01,6.365535278320312500e+02,5.216864776611328125e+01,5.216864776611328125e+01,2.285381220281124115e-02,-7.696533203125000000e-02,-4.852294456213712692e-03,2.362773310338184274e-10,5.236222833104875463e-08,4.334198310971260071e-04,1.140667738042111523e-08,3.585963384011847666e-07,-5.553598515689373016e-03,1.279312527913134545e-05,1.662048362049972638e-06,-1.187840048544330784e-09,0.000000000000000000e+00,1.055814558640122414e-03,1.000000000000000000e+00
4.765405654907226562e-01,6.365535278320312500e+02,5.216864776611328125e+01,5.216864776611328125e+01,2.285381220281124115e-02,-7.696533203125000000e-02,-4.852294456213712692e-03,2.362773310338184274e-10,5.236222833104875463e-08,4.334198310971260071e-04,1.140667738042111523e-08,3.585963384011847666e-07,-5.553598515689373016e-03,1.279312527913134545e-05,1.662048362049972638e-06,-1.187840048544330784e-09,0.000000000000000000e+00,1.055814558640122414e-03,1.000000000000000000e+00
4.765405654907226562e-01,6.365535278320312500e+02,5.216864776611328125e+01,5.216864776611328125e+01,2.285381220281124115e-02,-7.696533203125000000e-02,-4.852294456213712692e-03,2.362773310338184274e-10,5.236222833104875463e-08,4.334198310971260071e-04,1.140667738042111523e-08,3.585963384011847666e-07,-5.553598515689373016e-03,1.279312527913134545e-05,1.662048362049972638e-06,-1.187840048544330784e-09,0.000000000000000000e+00,1.055814558640122414e-03,1.000000000000000000e+00
4.765405654907226562e-01,6.365535278320312500e+02,5.216864776611328125e+01,5.216864776611328125e+01,2.285381220281124115e-02,-7.696533203125000000e-02,-4.852294456213712692e-03,2.362773310338184274e-10,5.236222833104875463e-08,4.334198310971260071e-04,1.140667738042111523e-08,3.585963384011847666e-07,-5.553598515689373016e-03,1.279312527913134545e-05,1.662048362049972638e-06,-1.187840048544330784e-09,0.000000000000000000e+00,1.055814558640122414e-03,1.000000000000000000e+00
4.765405654907226562e-01,6.365535278320312500e+02,5.216864776611328125e+01,5.216864776611328125e+01,2.285381220281124115e-02,-7.696533203125000000e-02,-4.852294456213712692e-03,2.362773310338184274e-10,5.236222833104875463e-08,4.334198310971260071e-04,1.140667738042111523e-08,3.585963384011847666e-07,-5.553598515689373016e-03,1.279312527913134545e-05,1.662048362049972638e-06,-1.187840048544330784e-09,0.000000000000000000e+00,1.055814558640122414e-03,1.000000000000000000e+00
4.765405654907226562e-01,6.365535278320312500e+02,5.216864776611328125e+01,5.216864776611328125e+01,2.285381220281124115e-02,-7.696533203125000000e-02,-4.852294456213712692e-03,2.362773310338184274e-10,5.236222833104875463e-08,4.334198310971260071e-04,1.140667738042111523e-08,3.585963384011847666e-07,-5.553598515689373016e-03,1.279312527913134545e-05,1.662048362049972638e-06,-1.187840048544330784e-09,0.000000000000000000e+00,1.055814558640122414e-03,1.000000000000000000e+00
6.200885772705078125e-01,6.365535278320312500e+02,5.216864776611328125e+01,5.216864776611328125e+01,2.285381220281124115e-02,-7.696533203125000000e-02,-4.852294456213712692e-03,-7.885684327746389499e-10,1.925980441797037201e-08,-1.139450818300247192e-03,-7.139393964905593748e-09,-2.306017563569184858e-07,-1.095710508525371552e-02,1.526903179183136672e-05,1.696931121841771528e-06,7.848093008799850168e-11,0.000000000000000000e+00,1.055814558640122414e-03,1.000000000000000000e+00
6.200885772705078125e-01,6.365535278320312500e+02,5.216864776611328125e+01,5.216864776611328125e+01,2.285381220281124115e-02,-7.696533203125000000e-02,-4.852294456213712692e-03,-7.885684327746389499e-10,1.925980441797037201e-08,-1.139450818300247192e-03,-7.139393964905593748e-09,-2.306017563569184858e-07,-1.095710508525371552e-02,1.526903179183136672e-05,1.696931121841771528e-06,7.848093008799850168e-11,0.000000000000000000e+00,1.055814558640122414e-03,1.000000000000000000e+00
6.200885772705078125e-01,6.365535278320312500e+02,5.216864776611328125e+01,5.216864776611328125e+01,2.285381220281124115e-02,-7.696533203125000000e-02,-4.852294456213712692e-03,-7.885684327746389499e-10,1.925980441797037201e-08,-1.139450818300247192e-03,-7.139393964905593748e-09,-2.306017563569184858e-07,-1.095710508525371552e-02,1.526903179183136672e-05,1.696931121841771528e-06,7.848093008799850168e-11,0.000000000000000000e+00,1.055814558640122414e-03,1.000000000000000000e+00
6.200885772705078125e-01,6.365535278320312500e+02,5.216864776611328125e+01,5.216864776611328125e+01,2.285381220281124115e-02,-7.696533203125000000e-02,-4.852294456213712692e-03,-7.885684327746389499e-10,1.925980441797037201e-08,-1.139450818300247192e-03,-7.139393964905593748e-09,-2.306017563569184858e-07,-1.095710508525371552e-02,1.526903179183136672e-05,1.696931121841771528e-06,7.848093008799850168e-11,0.000000000000000000e+00,1.055814558640122414e-03,1.000000000000000000e+00
6.200885772705078125e-01,6.365535278320312500e+02,5.216864776611328125e+01,5.216864776611328125e+01,2.285381220281124115e-02,-7.696533203125000000e-02,-4.852294456213712692e-03,-7.885684327746389499e-10,1.925980441797037201e-08,-1.139450818300247192e-03,-7.139393964905593748e-09,-2.306017563569184858e-07,-1.095710508525371552e-02,1.526903179183136672e-05,1.696931121841771528e-06,7.848093008799850168e-11,0.000000000000000000e+00,1.055814558640122414e-03,1.000000000000000000e+00
6.200885772705078125e-01,6.365535278320312500e+02,5.216864776611328125e+01,5.216864776611328125e+01,2.285381220281124115e-02,-7.696533203125000000e-02,-4.852294456213712692e-03,-7.885684327746389499e-10,1.925980441797037201e-08,-1.139450818300247192e-03,-7.139393964905593748e-09,-2.306017563569184858e-07,-1.095710508525371552e-02,1.526903179183136672e-05,1.696931121841771528e-06,7.848093008799850168e-11,0.000000000000000000e+00,1.055814558640122414e-03,1.000000000000000000e+00
7.946169376373291016e-01,6.365535278320312500e+02,5.216864776611328125e+01,5.216864776611328125e+01,2.285381220281124115e-02,-7.696533203125000000e-02,-4.852294456213712692e-03,3.945154203321976638e-10,-9.126313038620992302e-09,-1.201238628709688783e-04,6.778748229407938197e-09,-1.626447243552320288e-07,5.840465892106294632e-03,-8.406364941038191319e-06,-8.786898320067848545e-07,-1.161292503132349552e-11,0.000000000000000000e+00,1.055814558640122414e-03,1.000000000000000000e+00
7.946169376373291016e-01,6.365535278320312500e+02,5.216864776611328125e+01,5.216864776611328125e+01,2.285381220281124115e-02,-7.696533203125000000e-02,-4.852294456213712692e-03,3.945154203321976638e-10,-9.126313038620992302e-09,-1.201238628709688783e-04,6.778748229407938197e-09,-1.626447243552320288e-07,5.840465892106294632e-03,-8.406364941038191319e-06,-8.786898320067848545e-07,-1.161292503132349552e-11,0.000000000000000000e+00,1.055814558640122414e-03,1.000000000000000000e+00
7.946169376373291016e-01,6.365535278320312500e+02,5.216864776611328125e+01,5.216864776611328125e+01,2.285381220281124115e-02,-7.696533203125000000e-02,-4.852294456213712692e-03,3.945154203321976638e-10,-9.126313038620992302e-09,-1.201238628709688783e-04,6.778748229407938197e-09,-1.626447243552320288e-07,5.840465892106294632e-03,-8.406364941038191319e-06,-8.786898320067848545e-07,-1.161292503132349552e-11,0.000000000000000000e+00,1.055814558640122414e-03,1.000000000000000000e+00
8.783230781555175781e-01,6.365535278320312500e+02,5.216864776611328125e+01,5.216864776611328125e+01,2.285381220281124115e-02,-7.696533203125000000e-02,-4.852294456213712692e-03,-1.210376104898713834e-10,-1.323700171695918471e-08,-7.445047958754003048e-05,-6.159083021373135125e-09,-4.910856787887496466e-08,5.456396029330790043e-04,-1.136478749685920775e-05,3.215926369648514083e-07,-2.612265265211632936e-11,0.000000000000000000e+00,1.055814558640122414e-03,1.000000000000000000e+00
8.783230781555175781e-01,6.365535278320312500e+02,5.216864776611328125e+01,5.216864776611328125e+01,2.285381220281124115e-02,-7.696533203125000000e-02,-4.852294456213712692e-03,-1.210376104898713834e-10,-1.323700171695918471e-08,-7.445047958754003048e-05,-6.159083021373135125e-09,-4.910856787887496466e-08,5.456396029330790043e-04,-1.136478749685920775e-05,3.215926369648514083e-07,-2.612265265211632936e-11,0.000000000000000000e+00,1.055814558640122414e-03,1.000000000000000000e+00
8.783230781555175781e-01,6.365535278320312500e+02,5.216864776611328125e+01,5.216864776611328125e+01,2.285381220281124115e-02,-7.696533203125000000e-02,-4.852294456213712692e-03,-1.210376104898713834e-10,-1.323700171695918471e-08,-7.445047958754003048e-05,-6.159083021373135125e-09,-4.910856787887496466e-08,5.456396029330790043e-04,-1.136478749685920775e-05,3.215926369648514083e-07,-2.612265265211632936e-11,0.000000000000000000e+00,1.055814558640122414e-03,1.000000000000000000e+00
9.483780860900878906e-01,6.365535278320312500e+02,5.216864776611328125e+01,5.216864776611328125e+01,2.285381220281124115e-02,-7.696533203125000000e-02,-4.852294456213712692e-03,-4.986717150323727310e-10,-7.424754588924997734e-09,1.529804314486682415e-03,-5.390536905736098561e-09,8.296690623410540866e-08,2.289993129670619965e-02,-4.891823209618451074e-06,9.930129181157099083e-07,-6.388232998144616204e-11,0.000000000000000000e+00,1.055814558640122414e-03,1.000000000000000000e+00
9.483780860900878906e-01,6.365535278320312500e+02,5.216864776611328125e+01,5.216864776611328125e+01,2.285381220281124115e-02,-7.696533203125000000e-02,-4.852294456213712692e-03,-4.986717150323727310e-10,-7.424754588924997734e-09,1.529804314486682415e-03,-5.390536905736098561e-09,8.296690623410540866e-08,2.289993129670619965e-02,-4.891823209618451074e-06,9.930129181157099083e-07,-6.388232998144616204e-11,0.000000000000000000e+00,1.055814558640122414e-03,1.000000000000000000e+00
9.483780860900878906e-01,6.365535278320312500e+02,5.216864776611328125e+01,5.216864776611328125e+01,2.285381220281124115e-02,-7.696533203125000000e-02,-4.852294456213712692e-03,-4.986717150323727310e-10,-7.424754588924997734e-09,1.529804314486682415e-03,-5.390536905736098561e-09,8.296690623410540866e-08,2.289993129670619965e-02,-4.891823209618451074e-06,9.930129181157099083e-07,-6.388232998144616204e-11,0.000000000000000000e+00,1.055814558640122414e-03,1.000000000000000000e+00
9.483780860900878906e-01,6.365535278320312500e+02,5.216864776611328125e+01,5.216864776611328125e+01,2.285381220281124115e-02,-7.696533203125000000e-02,-4.852294456213712692e-03,-4.986717150323727310e-10,-7.424754588924997734e-09,1.529804314486682415e-03,-5.390536905736098561e-09,8.296690623410540866e-08,2.289993129670619965e-02,-4.891823209618451074e-06,9.930129181157099083e-07,-6.388232998144616204e-11,0.000000000000000000e+00,1.055814558640122414e-03,1.000000000000000000e+00
9.483780860900878906e-01,6.365535278320312500e+02,5.216864776611328125e+01,5.216864776611328125e+01,2.285381220281124115e-02,-7.696533203125000000e-02,-4.852294456213712692e-03,-2.132808513133355177e-10,-1.098802715482349868e-09,3.039696894120424986e-04,3.621757116434309864e-09,8.027958386946920655e-08,-1.555647142231464386e-02,-5.011389134779165033e-07,4.363475909485714510e-07,1.128749003986850852e-11,0.000000000000000000e+00,1.055814558640122414e-03,1.000000000000000000e+00
1.027177095413208008e+00,6.365535278320312500e+02,5.216864776611328125e+01,5.216864776611328125e+01,2.285381220281124115e-02,-7.696533203125000000e-02,-4.852294456213712692e-03,-2.132808513133355177e-10,-1.098802715482349868e-09,3.039696894120424986e-04,3.621757116434309864e-09,8.027958386946920655e-08,-1.555647142231464386e-02,-5.011389134779165033e-07,4.363475909485714510e-07,1.128749003986850852e-11,0.000000000000000000e+00,1.055814558640122414e-03,1.000000000000000000e+00
1.027177095413208008e+00,6.365535278320312500e+02,5.216864776611328125e+01,5.216864776611328125e+01,2.285381220281124115e-02,-7.696533203125000000e-02,-4.852294456213712692e-03,-2.132808513133355177e-10,-1.098802715482349868e-09,3.039696894120424986e-04,3.621757116434309864e-09,8.027958386946920655e-08,-1.555647142231464386e-02,-5.011389134779165033e-07,4.363475909485714510e-07,1.128749003986850852e-11,0.000000000000000000e+00,1.055814558640122414e-03,1.000000000000000000e+00
1.095043420791625977e+00,6.365535278320312500e+02,5.216864776611328125e+01,5.216864776611328125e+01,2.285381220281124115e-02,-7.696533203125000000e-02,-4.852294456213712692e-03,0.000000000000000000e+00,0.000000000000000000e+00,0.000000000000000000e+00,3.142661020305581587e-09,1.619069145419871347e-08,-4.478947259485721588e-03,0.000000000000000000e+00,0.000000000000000000e+00,0.000000000000000000e+00,0.000000000000000000e+00,1.055814558640122414e-03,1.000000000000000000e+00
1.095043420791625977e+00,6.365535278320312500e+02,5.216864776611328125e+01,5.216864776611328125e+01,2.285381220281124115e-02,-7.696533203125000000e-02,-4.852294456213712692e-03,0.000000000000000000e+00,0.000000000000000000e+00,0.000000000000000000e+00,3.142661020305581587e-09,1.619069145419871347e-08,-4.478947259485721588e-03,0.000000000000000000e+00,0.000000000000000000e+00,0.000000000000000000e+00,0.000000000000000000e+00,1.055814558640122414e-03,1.000000000000000000e+00
1.095043420791625977e+00,6.365535278320312500e+02,5.216864776611328125e+01,5.216864776611328125e+01,2.285381220281124115e-02,-7.696533203125000000e-02,-4.852294456213712692e-03,0.000000000000000000e+00,0.000000000000000000e+00,0.000000000000000000e+00,3.142661020305581587e-09,1.619069145419871347e-08,-4.478947259485721588e-03,0.000000000000000000e+00,0.000000000000000000e+00,0.000000000000000000e+00,0.000000000000000000e+00,1.055814558640122414e-03,1.000000000000000000e+00
1.095043420791625977e+00,6.365535278320312500e+02,5.216864776611328125e+01,5.216864776611328125e+01,2.285381220281124115e-02,-7.696533203125000000e-02,-4.852294456213712692e-03,0.000000000000000000e+00,0.000000000000000000e+00,0.000000000000000000e+00,3.142661020305581587e-09,1.619069145419871347e-08,-4.478947259485721588e-03,0.000000000000000000e+00,0.000000000000000000e+00,0.000000000000000000e+00,0.000000000000000000e+00,1.055814558640122414e-03,1.000000000000000000e+00
1.168572425842285156e+00,6.365535278320312500e+02,5.216864776611328125e+01,5.216864776611328125e+01,2.285381220281124115e-02,-7.696533203125000000e-02,-4.852294456213712692e-03,2.587143388410595435e-09,-1.673205352048512395e-09,1.230454305186867714e-03,3.518534441582232830e-08,-2.275571731047421054e-08,1.673427037894725800e-02,-8.152665395755320787e-05,-9.501254680799320340e-06,7.162513360192690470e-10,0.000000000000000000e+00,1.055814558640122414e-03,1.000000000000000000e+00
1.168572425842285156e+00,6.365535278320312500e+02,5.216864776611328125e+01,5.216864776611328125e+01,2.285381220281124115e-02,-7.696533203125000000e-02,-4.852294456213712692e-03,2.587143388410595435e-09,-1.673205352048512395e-09,1.230454305186867714e-03,3.518534441582232830e-08,-2.275571731047421054e-08,1.673427037894725800e-02,-8.152665395755320787e-05,-9.501254680799320340e-06,7.162513360192690470e-10,0.000000000000000000e+00,1.055814558640122414e-03,1.000000000000000000e+00
1.168572425842285156e+00,6.365535278320312500e+02,5.216864776611328125e+01,5.216864776611328125e+01,2.285381220281124115e-02,-7.696533203125000000e-02,-4.852294456213712692e-03,2.587143388410595435e-09,-1.673205352048512395e-09,1.230454305186867714e-03,3.518534441582232830e-08,-2.275571731047421054e-08,1.673427037894725800e-02,-8.152665395755320787e-05,-9.501254680799320340e-06,7.162513360192690470e-10,0.000000000000000000e+00,1.055814558640122414e-03,1.000000000000000000e+00
1.168572425842285156e+00,6.365535278320312500e+02,5.216864776611328125e+01,5.216864776611328125e+01,2.285381220281124115e-02,-7.696533203125000000e-02,-4.852294456213712692e-03,2.587143388410595435e-09,-1.673205352048512395e-09,1.230454305186867714e-03,3.518534441582232830e-08,-2.275571731047421054e-08,1.673427037894725800e-02,-8.152665395755320787e-05,-9.501254680799320340e-06,7.162513360192690470e-10,0.000000000000000000e+00,1.055814558640122414e-03,1.000000000000000000e+00
1.168572425842285156e+00,6.365535278320312500e+02,5.216864776611328125e+01,5.216864776611328125e+01,2.285381220281124115e-02,-7.696533203125000000e-02,-4.852294456213712692e-03,4.152652444133764220e-09,-2.932439535641151451e-08,-5.837440257892012596e-04,2.085997863332522684e-08,-3.684445175622386159e-07,-2.417369559407234192e-02,6.011885488987900317e-05,-8.839873771648854017e-06,1.590776621540612723e-09,0.000000000000000000e+00,1.055814558640122414e-03,1.000000000000000000e+00
1.243620872497558594e+00,6.365535278320312500e+02,5.216864776611328125e+01,5.216864776611328125e+01,2.285381220281124115e-02,-7.696533203125000000e-02,-4.852294456213712692e-03,4.152652444133764220e-09,-2.932439535641151451e-08,-5.837440257892012596e-04,2.085997863332522684e-08,-3.684445175622386159e-07,-2.417369559407234192e-02,6.011885488987900317e-05,-8.839873771648854017e-06,1.590776621540612723e-09,0.000000000000000000e+00,1.055814558640122414e-03,1.000000000000000000e+00
1.243620872497558594e+00,6.365535278320312500e+02,5.216864776611328125e+01,5.216864776611328125e+01,2.285381220281124115e-02,-7.696533203125000000e-02,-4.852294456213712692e-03,4.152652444133764220e-09,-2.932439535641151451e-08,-5.837440257892012596e-04,2.085997863332522684e-08,-3.684445175622386159e-07,-2.417369559407234192e-02,6.011885488987900317e-05,-8.839873771648854017e-06,1.590776621540612723e-09,0.000000000000000000e+00,1.055814558640122414e-03,1.000000000000000000e+00
1.243620872497558594e+00,6.365535278320312500e+02,5.216864776611328125e+01,5.216864776611328125e+01,2.285381220281124115e-02,-7.696533203125000000e-02,-4.852294456213712692e-03,-6.853701162157221916e-09,4.329376579459420782e-10,-6.753288907930254936e-04,-1.608596704727460747e-07,4.349083440047252225e-07,-1.338528003543615341e-03,-6.981570186326280236e-05,1.867223181761801243e-05,-2.756732842001952122e-09,0.000000000000000000e+00,1.055814558640122414e-03,1.000000000000000000e+00
1.312042951583862305e+00,6.365535278320312500e+02,5.216864776611328125e+01,5.216864776611328125e+01,2.285381220281124115e-02,-7.696533203125000000e-02,-4.852294456213712692e-03,-6.853701162157221916e-09,4.329376579459420782e-10,-6.753288907930254936e-04,-1.608596704727460747e-07,4.349083440047252225e-07,-1.338528003543615341e-03,-6.981570186326280236e-05,1.867223181761801243e-05,-2.756732842001952122e-09,0.000000000000000000e+00,1.055814558640122414e-03,1.000000000000000000e+00
1.312042951583862305e+00,6.365535278320312500e+02,5.216864776611328125e+01,5.216864776611328125e+01,2.285381220281124115e-02,-7.696533203125000000e-02,-4.852294456213712692e-03,-6.853701162157221916e-09,4.329376579459420782e-10,-6.753288907930254936e-04,-1.608596704727460747e-07,4.349083440047252225e-07,-1.338528003543615341e-03,-6.981570186326280236e-05,1.867223181761801243e-05,-2.756732842001952122e-09,0.000000000000000000e+00,1.055814558640122414e-03,1.000000000000000000e+00
1.383129358291625977e+00,6.365535278320312500e+02,5.216864776611328125e+01,5.216864776611328125e+01,2.285381220281124115e-02,-7.696533203125000000e-02,-4.852294456213712692e-03,9.125519784269897627e-10,3.943014359464314111e-09,4.681995487771928310e-04,1.092508910005562939e-07,4.937760422762949020e-08,1.608645543456077576e-02,5.052237247582525015e-05,-4.068006546731339768e-06,-4.602103420570102799e-11,0.000000000000000000e+00,1.055814558640122414e-03,1.000000000000000000e+00
1.383129358291625977e+00,6.365535278320312500e+02,5.216864776611328125e+01,5.216864776611328125e+01,2.285381220281124115e-02,-7.696533203125000000e-02,-4.852294456213712692e-03,9.125519784269897627e-10,3.943014359464314111e-09,4.681995487771928310e-04,1.092508910005562939e-07,4.937760422762949020e-08,1.608645543456077576e-02,5.052237247582525015e-05,-4.068006546731339768e-06,-4.602103420570102799e-11,0.000000000000000000e+00,1.055814558640122414e-03,1.000000000000000000e+00
1.383129358291625977e+00,6.365535278320312500e+02,5.216864776611328125e+01,5.216864776611328125e+01,2.285381220281124115e-02,-7.696533203125000000e-02,-4.852294456213712692e-03,9.125519784269897627e-10,3.943014359464314111e-09,4.681995487771928310e-04,1.092508910005562939e-07,4.937760422762949020e-08,1.608645543456077576e-02,5.052237247582525015e-05,-4.068006546731339768e-06,-4.602103420570102799e-11,0.000000000000000000e+00,1.055814558640122414e-03,1.000000000000000000e+00
1.450951814651489258e+00,6.365535278320312500e+02,5.216864776611328125e+01,5.216864776611328125e+01,2.285381220281124115e-02,-7.696533203125000000e-02,-4.852294456213712692e-03,-5.264752633848956975e-09,1.395931992220766915e-08,-3.559178730938583612e-04,-9.108051557404905907e-08,1.476842186320936889e-07,-1.215109974145889282e-02,9.875897376332432032e-05,1.116138264478649944e-05,-1.777691438498152365e-09,0.000000000000000000e+00,1.055814558640122414e-03,1.000000000000000000e+00
1.450951814651489258e+00,6.365535278320312500e+02,5.216864776611328125e+01,5.216864776611328125e+01,2.285381220281124115e-02,-7.696533203125000000e-02,-4.852294456213712692e-03,-5.264752633848956975e-09,1.395931992220766915e-08,-3.559178730938583612e-04,-9.108051557404905907e-08,1.476842186320936889e-07,-1.215109974145889282e-02,9.875897376332432032e-05,1.116138264478649944e-05,-1.777691438498152365e-09,0.000000000000000000e+00,1.055814558640122414e-03,1.000000000000000000e+00
1.450951814651489258e+00,6.365535278320312500e+02,5.216864776611328125e+01,5.216864776611328125e+01,2.285381220281124115e-02,-7.696533203125000000e-02,-4.852294456213712692e-03,-5.264752633848956975e-09,1.395931992220766915e-08,-3.559178730938583612e-04,-9.108051557404905907e-08,1.476842186320936889e-07,-1.215109974145889282e-02,9.875897376332432032e-05,1.116138264478649944e-05,-1.777691438498152365e-09,0.000000000000000000e+00,1.055814558640122414e-03,1.000000000000000000e+00
1.527701377868652344e+00,6.365535278320312500e+02,5.216864776611328125e+01,5.216864776611328125e+01,2.285381220281124115e-02,-7.696533203125000000e-02,-4.852294456213712692e-03,0.000000000000000000e+00,0.000000000000000000e+00,0.000000000000000000e+00,6.859652046387054725e-08,-1.818814325815765187e-07,4.637392703443765640e-03,0.000000000000000000e+00,0.000000000000000000e+00,0.000000000000000000e+00,0.000000000000000000e+00,1.055814558640122414e-03,1.000000000000000000e+00
1.527701377868652344e+00,6.365535278320312500e+02,5.216864776611328125e+01,5.216864776611328125e+01,2.285381220281124115e-02,-7.696533203125000000e-02,-4.852294456213712692e-03,0.000000000000000000e+00,0.000000000000000000e+00,0.000000000000000000e+00,6.859652046387054725e-08,-1.818814325815765187e-07,4.637392703443765640e-03,0.000000000000000000e+00,0.000000000000000000e+00,0.000000000000000000e+00,0.000000000000000000e+00,1.055814558640122414e-03,1.000000000000000000e+00
1.527701377868652344e+00,6.365535278320312500e+02,5.216864776611328125e+01,5.216864776611328125e+01,2.285381220281124115e-02,-7.696533203125000000e-02,-4.852294456213712692e-03,0.000000000000000000e+00,0.000000000000000000e+00,0.000000000000000000e+00,6.859652046387054725e-08,-1.818814325815765187e-07,4.637392703443765640e-03,0.000000000000000000e+00,0.000000000000000000e+00,0.000000000000000000e+00,0.000000000000000000e+00,1.055814558640122414e-03,1.000000000000000000e+00
1.600134611129760742e+00,6.365535278320312500e+02,5.216864776611328125e+01,5.216864776611328125e+01,2.285381220281124115e-02,-7.696533203125000000e-02,-4.852294456213712692e-03,-2.782442609650104259e-10,-6.232575344711221987e-08,-1.235705451108515263e-03,-3.841389428771435632e-09,-8.604579875282070134e-07,-1.705992408096790314e-02,-1.349083177046850324e-04,5.772399731540645007e-07,2.413039101867298086e-09,0.000000000000000000e+00,1.055814558640122414e-03,1.000000000000000000e+00
1.600134611129760742e+00,6.365535278320312500e+02,5.216864776611328125e+01,5.216864776611328125e+01,2.285381220281124115e-02,-7.696533203125000000e-02,-4.852294456213712692e-03,-2.782442609650104259e-10,-6.232575344711221987e-08,-1.235705451108515263e-03,-3.841389428771435632e-09,-8.604579875282070134e-07,-1.705992408096790314e-02,-1.349083177046850324e-04,5.772399731540645007e-07,2.413039101867298086e-09,0.000000000000000000e+00,1.055814558640122414e-03,1.000000000000000000e+00
1.600134611129760742e+00,6.365535278320312500e+02,5.216864776611328125e+01,5.216864776611328125e+01,2.285381220281124115e-02,-7.696533203125000000e-02,-4.852294456213712692e-03,-2.782442609650104259e-10,-6.232575344711221987e-08,-1.235705451108515263e-03,-3.841389428771435632e-09,-8.604579875282070134e-07,-1.705992408096790314e-02,-1.349083177046850324e-04,5.772399731540645007e-07,2.413039101867298086e-09,0.000000000000000000e+00,1.055814558640122414e-03,1.000000000000000000e+00
1.600134611129760742e+00,6.365535278320312500e+02,5.216864776611328125e+01,5.216864776611328125e+01,2.285381220281124115e-02,-7.696533203125000000e-02,-4.852294456213712692e-03,-2.782442609650104259e-10,-6.232575344711221987e-08,-1.235705451108515263e-03,-3.841389428771435632e-09,-8.604579875282070134e-07,-1.705992408096790314e-02,-1.349083177046850324e-04,5.772399731540645007e-07,2.413039101867298086e-09,0.000000000000000000e+00,1.055814558640122414e-03,1.000000000000000000e+00
1.600134611129760742e+00,6.365535278320312500e+02,5.216864776611328125e+01,5.216864776611328125e+01,2.285381220281124115e-02,-7.696533203125000000e-02,-4.852294456213712692e-03,-2.782442609650104259e-10,-6.232575344711221987e-08,-1.235705451108515263e-03,-3.841389428771435632e-09,-8.604579875282070134e-07,-1.705992408096790314e-02,-1.349083177046850324e-04,5.772399731540645007e-07,2.413039101867298086e-09,0.000000000000000000e+00,1.055814558640122414e-03,1.000000000000000000e+00
1.600134611129760742e+00,6.365535278320312500e+02,5.216864776611328125e+01,5.216864776611328125e+01,2.285381220281124115e-02,-7.696533203125000000e-02,-4.852294456213712692e-03,-1.347785910654764052e-10,4.587022672808416246e-08,1.306153862969949841e-04,1.243431135833361623e-09,9.377452556691423524e-07,1.184203848242759705e-02,8.775600872468203306e-05,2.376901875322801061e-06,-1.687416206763714399e-09,0.000000000000000000e+00,1.055814558640122414e-03,1.000000000000000000e+00
1.715513467788696289e+00,6.365535278320312500e+02,5.216864776611328125e+01,5.216864776611328125e+01,2.285381220281124115e-02,-7.696533203125000000e-02,-4.852294456213712692e-03,-1.347785910654764052e-10,4.587022672808416246e-08,1.306153862969949841e-04,1.243431135833361623e-09,9.377452556691423524e-07,1.184203848242759705e-02,8.775600872468203306e-05,2.376901875322801061e-06,-1.687416206763714399e-09,0.000000000000000000e+00,1.055814558640122414e-03,1.000000000000000000e+00
1.715513467788696289e+00,6.365535278320312500e+02,5.216864776611328125e+01,5.216864776611328125e+01,2.285381220281124115e-02,-7.696533203125000000e-02,-4.852294456213712692e-03,-1.347785910654764052e-10,4.587022672808416246e-08,1.306153862969949841e-04,1.243431135833361623e-09,9.377452556691423524e-07,1.184203848242759705e-02,8.775600872468203306e-05,2.376901875322801061e-06,-1.687416206763714399e-09,0.000000000000000000e+00,1.055814558640122414e-03,1.000000000000000000e+00
1.715513467788696289e+00,6.365535278320312500e+02,5.216864776611328125e+01,5.216864776611328125e+01,2.285381220281124115e-02,-7.696533203125000000e-02,-4.852294456213712692e-03,4.306184742119967268e-09,-1.123783661682864476e-07,-9.705260745249688625e-04,4.550090437760445639e-08,-1.621372121007880196e-06,-1.128199603408575058e-02,-2.862024120986461639e-05,-9.309213055530562997e-06,2.216665295762254573e-09,0.000000000000000000e+00,1.055814558640122414e-03,1.000000000000000000e+00
1.813115119934082031e+00,6.365535278320312500e+02,5.216864776611328125e+01,5.216864776611328125e+01,2.285381220281124115e-02,-7.696533203125000000e-02,-4.852294456213712692e-03,4.306184742119967268e-09,-1.123783661682864476e-07,-9.705260745249688625e-04,4.550090437760445639e-08,-1.621372121007880196e-06,-1.128199603408575058e-02,-2.862024120986461639e-05,-9.309213055530562997e-06,2.216665295762254573e-09,0.000000000000000000e+00,1.055814558640122414e-03,1.000000000000000000e+00
1.813115119934082031e+00,6.365535278320312500e+02,5.216864776611328125e+01,5.216864776611328125e+01,2.285381220281124115e-02,-7.696533203125000000e-02,-4.852294456213712692e-03,4.306184742119967268e-09,-1.123783661682864476e-07,-9.705260745249688625e-04,4.550090437760445639e-08,-1.621372121007880196e-06,-1.128199603408575058e-02,-2.862024120986461639e-05,-9.309213055530562997e-06,2.216665295762254573e-09,0.000000000000000000e+00,1.055814558640122414e-03,1.000000000000000000e+00
1.813115119934082031e+00,6.365535278320312500e+02,5.216864776611328125e+01,5.216864776611328125e+01,2.285381220281124115e-02,-7.696533203125000000e-02,-4.852294456213712692e-03,4.306184742119967268e-09,-1.123783661682864476e-07,-9.705260745249688625e-04,4.550090437760445639e-08,-1.621372121007880196e-06,-1.128199603408575058e-02,-2.862024120986461639e-05,-9.309213055530562997e-06,2.216665295762254573e-09,0.000000000000000000e+00,1.055814558640122414e-03,1.000000000000000000e+00
1.896134853363037109e+00,6.365535278320312500e+02,5.216864776611328125e+01,5.216864776611328125e+01,2.285381220281124115e-02,-7.696533203125000000e-02,-4.852294456213712692e-03,-2.197750426091715781e-09,3.668780834686913295e-08,2.088302280753850937e-04,-7.834204041046177736e-08,1.795551270333817229e-06,1.420573517680168152e-02,3.407004260225221515e-05,4.752511358674382791e-06,-9.088738650575578504e-10,0.000000000000000000e+00,1.055814558640122414e-03,1.000000000000000000e+00
1.896134853363037109e+00,6.365535278320312500e+02,5.216864776611328125e+01,5.216864776611328125e+01,2.285381220281124115e-02,-7.696533203125000000e-02,-4.852294456213712692e-03,-2.197750426091715781e-09,3.668780834686913295e-08,2.088302280753850937e-04,-7.834204041046177736e-08,1.795551270333817229e-06,1.420573517680168152e-02,3.407004260225221515e-05,4.752511358674382791e-06,-9.088738650575578504e-10,0.000000000000000000e+00,1.055814558640122414e-03,1.000000000000000000e+00
1.896134853363037109e+00,6.365535278320312500e+02,5.216864776611328125e+01,5.216864776611328125e+01,2.285381220281124115e-02,-7.696533203125000000e-02,-4.852294456213712692e-03,-2.197750426091715781e-09,3.668780834686913295e-08,2.088302280753850937e-04,-7.834204041046177736e-08,1.795551270333817229e-06,1.420573517680168152e-02,3.407004260225221515e-05,4.752511358674382791e-06,-9.088738650575578504e-10,0.000000000000000000e+00,1.055814558640122414e-03,1.000000000000000000e+00
1.896134853363037109e+00,6.365535278320312500e+02,5.216864776611328125e+01,5.216864776611328125e+01,2.285381220281124115e-02,-7.696533203125000000e-02,-4.852294456213712692e-03,-2.197750426091715781e-09,3.668780834686913295e-08,2.088302280753850937e-04,-7.834204041046177736e-08,1.795551270333817229e-06,1.420573517680168152e-02,3.407004260225221515e-05,4.752511358674382791e-06,-9.088738650575578504e-10,0.000000000000000000e+00,1.055814558640122414e-03,1.000000000000000000e+00
1.896134853363037109e+00,6.365535278320312500e+02,5.216864776611328125e+01,5.216864776611328125e+01,2.285381220281124115e-02,-7.696533203125000000e-02,-4.852294456213712692e-03,-2.197750426091715781e-09,3.668780834686913295e-08,2.088302280753850937e-04,-7.834204041046177736e-08,1.795551270333817229e-06,1.420573517680168152e-02,3.407004260225221515e-05,4.752511358674382791e-06,-9.088738650575578504e-10,0.000000000000000000e+00,1.055814558640122414e-03,1.000000000000000000e+00
1.896134853363037109e+00,6.365535278320312500e+02,5.216864776611328125e+01,5.216864776611328125e+01,2.285381220281124115e-02,-7.696533203125000000e-02,-4.852294456213712692e-03,-2.197750426091715781e-09,3.668780834686913295e-08,2.088302280753850937e-04,-7.834204041046177736e-08,1.795551270333817229e-06,1.420573517680168152e-02,3.407004260225221515e-05,4.752511358674382791e-06,-9.088738650575578504e-10,0.000000000000000000e+00,1.055814558640122414e-03,1.000000000000000000e+00
1.896134853363037109e+00,6.365535278320312500e+02,5.216864776611328125e+01,5.216864776611328125e+01,2.285381220281124115e-02,-7.696533203125000000e-02,-4.852294456213712692e-03,-2.197750426091715781e-09,3.668780834686913295e-08,2.088302280753850937e-04,-7.834204041046177736e-08,1.795551270333817229e-06,1.420573517680168152e-02,3.407004260225221515e-05,4.752511358674382791e-06,-9.088738650575578504e-10,0.000000000000000000e+00,1.055814558640122414e-03,1.000000000000000000e+00
1.896134853363037109e+00,6.365535278320312500e+02,5.216864776611328125e+01,5.216864776611328125e+01,2.285381220281124115e-02,-7.696533203125000000e-02,-4.852294456213712692e-03,-2.197750426091715781e-09,3.668780834686913295e-08,2.088302280753850937e-04,-7.834204041046177736e-08,1.795551270333817229e-06,1.420573517680168152e-02,3.407004260225221515e-05,4.752511358674382791e-06,-9.088738650575578504e-10,0.000000000000000000e+00,1.055814558640122414e-03,1.000000000000000000e+00
2.195794820785522461e+00,6.365535278320312500e+02,5.216864776611328125e+01,5.216864776611328125e+01,2.285381220281124115e-02,-7.696533203125000000e-02,-4.852294456213712692e-03,1.710679153887895154e-09,7.714558769578161446e-09,1.361981732770800591e-03,1.363601285220283899e-07,-1.275182171411870513e-06,2.244726754724979401e-02,-1.495776523370295763e-04,-3.589221478250692599e-06,-1.098830693102570422e-09,0.000000000000000000e+00,1.055814558640122414e-03,1.000000000000000000e+00
2.195794820785522461e+00,6.365535278320312500e+02,5.216864776611328125e+01,5.216864776611328125e+01,2.285381220281124115e-02,-7.696533203125000000e-02,-4.852294456213712692e-03,1.710679153887895154e-09,7.714558769578161446e-09,1.361981732770800591e-03,1.363601285220283899e-07,-1.275182171411870513e-06,2.244726754724979401e-02,-1.495776523370295763e-04,-3.589221478250692599e-06,-1.098830693102570422e-09,0.000000000000000000e+00,1.055814558640122414e-03,1.000000000000000000e+00
2.195794820785522461e+00,6.365535278320312500e+02,5.216864776611328125e+01,5.216864776611328125e+01,2.285381220281124115e-02,-7.696533203125000000e-02,-4.852294456213712692e-03,1.710679153887895154e-09,7.714558769578161446e-09,1.361981732770800591e-03,1.363601285220283899e-07,-1.275182171411870513e-06,2.244726754724979401e-02,-1.495776523370295763e-04,-3.589221478250692599e-06,-1.098830693102570422e-09,0.000000000000000000e+00,1.055814558640122414e-03,1.000000000000000000e+00
2.195794820785522461e+00,6.365535278320312500e+02,5.216864776611328125e+01,5.216864776611328125e+01,2.285381220281124115e-02,-7.696533203125000000e-02,-4.852294456213712692e-03,1.710679153887895154e-09,7.714558769578161446e-09,1.361981732770800591e-03,1.363601285220283899e-07,-1.275182171411870513e-06,2.244726754724979401e-02,-1.495776523370295763e-04,-3.589221478250692599e-06,-1.098830693102570422e-09,0.000000000000000000e+00,1.055814558640122414e-03,1.000000000000000000e+00
2.195794820785522461e+00,6.365535278320312500e+02,5.216864776611328125e+01,5.216864776611328125e+01,2.285381220281124115e-02,-7.696533203125000000e-02,-4.852294456213712692e-03,1.710679153887895154e-09,7.714558769578161446e-09,1.361981732770800591e-03,1.363601285220283899e-07,-1.275182171411870513e-06,2.244726754724979401e-02,-1.495776523370295763e-04,-3.589221478250692599e-06,-1.098830693102570422e-09,0.000000000000000000e+00,1.055814558640122414e-03,1.000000000000000000e+00
2.195794820785522461e+00,6.365535278320312500e+02,5.216864776611328125e+01,5.216864776611328125e+01,2.285381220281124115e-02,-7.696533203125000000e-02,-4.852294456213712692e-03,1.710679153887895154e-09,7.714558769578161446e-09,1.361981732770800591e-03,1.363601285220283899e-07,-1.275182171411870513e-06,2.244726754724979401e-02,-1.495776523370295763e-04,-3.589221478250692599e-06,-1.098830693102570422e-09,0.000000000000000000e+00,1.055814558640122414e-03,1.000000000000000000e+00
2.195794820785522461e+00,6.365535278320312500e+02,5.216864776611328125e+01,5.216864776611328125e+01,2.285381220281124115e-02,-7.696533203125000000e-02,-4.852294456213712692e-03,1.710679153887895154e-09,7.714558769578161446e-09,1.361981732770800591e-03,1.363601285220283899e-07,-1.275182171411870513e-06,2.244726754724979401e-02,-1.495776523370295763e-04,-3.589221478250692599e-06,-1.098830693102570422e-09,0.000000000000000000e+00,1.055814558640122414e-03,1.000000000000000000e+00
2.195794820785522461e+00,6.365535278320312500e+02,5.216864776611328125e+01,5.216864776611328125e+01,2.285381220281124115e-02,-7.696533203125000000e-02,-4.852294456213712692e-03,1.710679153887895154e-09,7.714558769578161446e-09,1.361981732770800591e-03,1.363601285220283899e-07,-1.275182171411870513e-06,2.244726754724979401e-02,-1.495776523370295763e-04,-3.589221478250692599e-06,-1.098830693102570422e-09,0.000000000000000000e+00,1.055814558640122414e-03,1.000000000000000000e+00
2.195794820785522461e+00,6.365535278320312500e+02,5.216864776611328125e+01,5.216864776611328125e+01,2.285381220281124115e-02,-7.696533203125000000e-02,-4.852294456213712692e-03,1.710679153887895154e-09,7.714558769578161446e-09,1.361981732770800591e-03,1.363601285220283899e-07,-1.275182171411870513e-06,2.244726754724979401e-02,-1.495776523370295763e-04,-3.589221478250692599e-06,-1.098830693102570422e-09,0.000000000000000000e+00,1.055814558640122414e-03,1.000000000000000000e+00
2.195794820785522461e+00,6.365535278320312500e+02,5.216864776611328125e+01,5.216864776611328125e+01,2.285381220281124115e-02,-7.696533203125000000e-02,-4.852294456213712692e-03,1.710679153887895154e-09,7.714558769578161446e-09,1.361981732770800591e-03,1.363601285220283899e-07,-1.275182171411870513e-06,2.244726754724979401e-02,-1.495776523370295763e-04,-3.589221478250692599e-06,-1.098830693102570422e-09,0.000000000000000000e+00,1.055814558640122414e-03,1.000000000000000000e+00
2.374083757400512695e+00,6.365535278320312500e+02,5.216864776611328125e+01,5.216864776611328125e+01,2.285381220281124115e-02,-7.696533203125000000e-02,-4.852294456213712692e-03,7.260806622610971317e-09,-5.797017976760798774e-09,1.685233553871512413e-03,3.112996083132202330e-08,-7.578471894476024318e-08,1.813078415580093861e-03,2.686709922272711992e-05,-1.746446832839865237e-05,8.413552632369203366e-10,0.000000000000000000e+00,1.055814558640122414e-03,1.000000000000000000e+00
2.374083757400512695e+00,6.365535278320312500e+02,5.216864776611328125e+01,5.216864776611328125e+01,2.285381220281124115e-02,-7.696533203125000000e-02,-4.852294456213712692e-03,7.260806622610971317e-09,-5.797017976760798774e-09,1.685233553871512413e-03,3.112996083132202330e-08,-7.578471894476024318e-08,1.813078415580093861e-03,2.686709922272711992e-05,-1.746446832839865237e-05,8.413552632369203366e-10,0.000000000000000000e+00,1.055814558640122414e-03,1.000000000000000000e+00
2.374083757400512695e+00,6.365535278320312500e+02,5.216864776611328125e+01,5.216864776611328125e+01,2.285381220281124115e-02,-7.696533203125000000e-02,-4.852294456213712692e-03,7.260806622610971317e-09,-5.797017976760798774e-09,1.685233553871512413e-03,3.112996083132202330e-08,-7.578471894476024318e-08,1.813078415580093861e-03,2.686709922272711992e-05,-1.746446832839865237e-05,8.413552632369203366e-10,0.000000000000000000e+00,1.055814558640122414e-03,1.000000000000000000e+00
2.447860002517700195e+00,6.365535278320312500e+02,5.216864776611328125e+01,5.216864776611328125e+01,2.285381220281124115e-02,-7.696533203125000000e-02,-4.852294456213712692e-03,-2.185474246019225575e-09,5.215809650849223544e-08,-1.351054990664124489e-03,-1.280396020320040407e-07,7.855525154809583910e-07,-4.115536808967590332e-02,4.789365266333334148e-05,4.752948370878584683e-06,-9.966083514001411459e-10,0.000000000000000000e+00,1.055814558640122414e-03,1.000000000000000000e+00
2.447860002517700195e+00,6.365535278320312500e+02,5.216864776611328125e+01,5.216864776611328125e+01,2.285381220281124115e-02,-7.696533203125000000e-02,-4.852294456213712692e-03,-2.185474246019225575e-09,5.215809650849223544e-08,-1.351054990664124489e-03,-1.280396020320040407e-07,7.855525154809583910e-07,-4.115536808967590332e-02,4.789365266333334148e-05,4.752948370878584683e-06,-9.966083514001411459e-10,0.000000000000000000e+00,1.055814558640122414e-03,1.000000000000000000e+00
2.500878810882568359e+00,6.365535278320312500e+02,5.216864776611328125e+01,5.216864776611328125e+01,2.285381220281124115e-02,-7.696533203125000000e-02,-4.852294456213712692e-03,1.220270373636367367e-08,-7.919256006516661728e-08,8.910485194064676762e-04,2.713787523589417106e-07,-2.477435145920026116e-06,4.228883236646652222e-02,-4.022430948680266738e-05,-3.210249633411876857e-05,2.662078113502275301e-09,0.000000000000000000e+00,1.055814558640122414e-03,1.000000000000000000e+00
2.500878810882568359e+00,6.365535278320312500e+02,5.216864776611328125e+01,5.216864776611328125e+01,2.285381220281124115e-02,-7.696533203125000000e-02,-4.852294456213712692e-03,1.220270373636367367e-08,-7.919256006516661728e-08,8.910485194064676762e-04,2.713787523589417106e-07,-2.477435145920026116e-06,4.228883236646652222e-02,-4.022430948680266738e-05,-3.210249633411876857e-05,2.662078113502275301e-09,0.000000000000000000e+00,1.055814558640122414e-03,1.000000000000000000e+00
2.560195446014404297e+00,6.365535278320312500e+02,5.216864776611328125e+01,5.216864776611328125e+01,2.285381220281124115e-02,-7.696533203125000000e-02,-4.852294456213712692e-03,1.158910190035555843e-09,4.045743295932879846e-08,3.293554473202675581e-04,-1.861837404248944949e-07,2.017140559473773465e-06,-9.469402953982353210e-03,2.500658638382446952e-06,-3.395952887785824714e-07,-1.096327584271250544e-09,0.000000000000000000e+00,1.055814558640122414e-03,1.000000000000000000e+00
2.560195446014404297e+00,6.365535278320312500e+02,5.216864776611328125e+01,5.216864776611328125e+01,2.285381220281124115e-02,-7.696533203125000000e-02,-4.852294456213712692e-03,1.158910190035555843e-09,4.045743295932879846e-08,3.293554473202675581e-04,-1.861837404248944949e-07,2.017140559473773465e-06,-9.469402953982353210e-03,2.500658638382446952e-06,-3.395952887785824714e-07,-1.096327584271250544e-09,0.000000000000000000e+00,1.055814558640122414e-03,1.000000000000000000e+00
2.560195446014404297e+00,6.365535278320312500e+02,5.216864776611328125e+01,5.216864776611328125e+01,2.285381220281124115e-02,-7.696533203125000000e-02,-4.852294456213712692e-03,1.158910190035555843e-09,4.045743295932879846e-08,3.293554473202675581e-04,-1.861837404248944949e-07,2.017140559473773465e-06,-9.469402953982353210e-03,2.500658638382446952e-06,-3.395952887785824714e-07,-1.096327584271250544e-09,0.000000000000000000e+00,1.055814558640122414e-03,1.000000000000000000e+00
2.618730545043945312e+00,6.365535278320312500e+02,5.216864776611328125e+01,5.216864776611328125e+01,2.285381220281124115e-02,-7.696533203125000000e-02,-4.852294456213712692e-03,3.864600028880005311e-10,-1.024231671697961588e-10,-9.416137472726404667e-04,-1.319635956065212667e-08,-6.929151368240127340e-07,-2.171294018626213074e-02,-5.222145773586817086e-07,-7.493899829569272697e-07,2.078900419866247518e-11,0.000000000000000000e+00,1.055814558640122414e-03,1.000000000000000000e+00
2.618730545043945312e+00,6.365535278320312500e+02,5.216864776611328125e+01,5.216864776611328125e+01,2.285381220281124115e-02,-7.696533203125000000e-02,-4.852294456213712692e-03,3.864600028880005311e-10,-1.024231671697961588e-10,-9.416137472726404667e-04,-1.319635956065212667e-08,-6.929151368240127340e-07,-2.171294018626213074e-02,-5.222145773586817086e-07,-7.493899829569272697e-07,2.078900419866247518e-11,0.000000000000000000e+00,1.055814558640122414e-03,1.000000000000000000e+00
2.677334070205688477e+00,6.365535278320312500e+02,5.216864776611328125e+01,5.216864776611328125e+01,2.285381220281124115e-02,-7.696533203125000000e-02,-4.852294456213712692e-03,-2.220756495363573890e-10,-4.227820316060615369e-09,-1.203360880026593804e-04,-1.038394259467168013e-08,-7.039503913119915524e-08,1.401413418352603912e-02,-3.118144377367570996e-06,5.078189815321820788e-07,-1.348788702254521965e-11,0.000000000000000000e+00,1.055814558640122414e-03,1.000000000000000000e+00
2.677334070205688477e+00,6.365535278320312500e+02,5.216864776611328125e+01,5.216864776611328125e+01,2.285381220281124115e-02,-7.696533203125000000e-02,-4.852294456213712692e-03,-2.220756495363573890e-10,-4.227820316060615369e-09,-1.203360880026593804e-04,-1.038394259467168013e-08,-7.039503913119915524e-08,1.401413418352603912e-02,-3.118144377367570996e-06,5.078189815321820788e-07,-1.348788702254521965e-11,0.000000000000000000e+00,1.055814558640122414e-03,1.000000000000000000e+00
2.677334070205688477e+00,6.365535278320312500e+02,5.216864776611328125e+01,5.216864776611328125e+01,2.285381220281124115e-02,-7.696533203125000000e-02,-4.852294456213712692e-03,-2.220756495363573890e-10,-4.227820316060615369e-09,-1.203360880026593804e-04,-1.038394259467168013e-08,-7.039503913119915524e-08,1.401413418352603912e-02,-3.118144377367570996e-06,5.078189815321820788e-07,-1.348788702254521965e-11,0.000000000000000000e+00,1.055814558640122414e-03,1.000000000000000000e+00
2.677334070205688477e+00,6.365535278320312500e+02,5.216864776611328125e+01,5.216864776611328125e+01,2.285381220281124115e-02,-7.696533203125000000e-02,-4.852294456213712692e-03,-5.580257922410680749e-10,-3.520410629676007375e-09,9.920573211275041103e-05,-4.324192559579387307e-09,9.105445286650137859e-09,2.825839212164282799e-03,-1.920102022268110886e-06,1.185274072668107692e-06,-1.655756955154519261e-11,0.000000000000000000e+00,1.055814558640122414e-03,1.000000000000000000e+00
2.755024909973144531e+00,6.365535278320312500e+02,5.216864776611328125e+01,5.216864776611328125e+01,2.285381220281124115e-02,-7.696533203125000000e-02,-4.852294456213712692e-03,-5.580257922410680749e-10,-3.520410629676007375e-09,9.920573211275041103e-05,-4.324192559579387307e-09,9.105445286650137859e-09,2.825839212164282799e-03,-1.920102022268110886e-06,1.185274072668107692e-06,-1.655756955154519261e-11,0.000000000000000000e+00,1.055814558640122414e-03,1.000000000000000000e+00
2.755024909973144531e+00,6.365535278320312500e+02,5.216864776611328125e+01,5.216864776611328125e+01,2.285381220281124115e-02,-7.696533203125000000e-02,-4.852294456213712692e-03,-5.580257922410680749e-10,-3.520410629676007375e-09,9.920573211275041103e-05,-4.324192559579387307e-09,9.105445286650137859e-09,2.825839212164282799e-03,-1.920102022268110886e-06,1.185274072668107692e-06,-1.655756955154519261e-11,0.000000000000000000e+00,1.055814558640122414e-03,1.000000000000000000e+00
2.755024909973144531e+00,6.365535278320312500e+02,5.216864776611328125e+01,5.216864776611328125e+01,2.285381220281124115e-02,-7.696533203125000000e-02,-4.852294456213712692e-03,-5.580257922410680749e-10,-3.520410629676007375e-09,9.920573211275041103e-05,-4.324192559579387307e-09,9.105445286650137859e-09,2.825839212164282799e-03,-1.920102022268110886e-06,1.185274072668107692e-06,-1.655756955154519261e-11,0.000000000000000000e+00,1.055814558640122414e-03,1.000000000000000000e+00
2.830169916152954102e+00,6.365535278320312500e+02,5.216864776611328125e+01,5.216864776611328125e+01,2.285381220281124115e-02,-7.696533203125000000e-02,-4.852294456213712692e-03,4.028305244929697437e-09,2.100087392875593650e-08,-3.495245473459362984e-04,6.103307725879858481e-08,3.263195367253501900e-07,-5.971524864435195923e-03,5.304069054545834661e-05,-1.050360333465505391e-05,-1.546226514881343661e-11,0.000000000000000000e+00,1.055814558640122414e-03,1.000000000000000000e+00
2.830169916152954102e+00,6.365535278320312500e+02,5.216864776611328125e+01,5.216864776611328125e+01,2.285381220281124115e-02,-7.696533203125000000e-02,-4.852294456213712692e-03,4.028305244929697437e-09,2.100087392875593650e-08,-3.495245473459362984e-04,6.103307725879858481e-08,3.263195367253501900e-07,-5.971524864435195923e-03,5.304069054545834661e-05,-1.050360333465505391e-05,-1.546226514881343661e-11,0.000000000000000000e+00,1.055814558640122414e-03,1.000000000000000000e+00
2.830169916152954102e+00,6.365535278320312500e+02,5.216864776611328125e+01,5.216864776611328125e+01,2.285381220281124115e-02,-7.696533203125000000e-02,-4.852294456213712692e-03,4.028305244929697437e-09,2.100087392875593650e-08,-3.495245473459362984e-04,6.103307725879858481e-08,3.263195367253501900e-07,-5.971524864435195923e-03,5.304069054545834661e-05,-1.050360333465505391e-05,-1.546226514881343661e-11,0.000000000000000000e+00,1.055814558640122414e-03,1.000000000000000000e+00
2.830169916152954102e+00,6.365535278320312500e+02,5.216864776611328125e+01,5.216864776611328125e+01,2.285381220281124115e-02,-7.696533203125000000e-02,-4.852294456213712692e-03,4.028305244929697437e-09,2.100087392875593650e-08,-3.495245473459362984e-04,6.103307725879858481e-08,3.263195367253501900e-07,-5.971524864435195923e-03,5.304069054545834661e-05,-1.050360333465505391e-05,-1.546226514881343661e-11,0.000000000000000000e+00,1.055814558640122414e-03,1.000000000000000000e+00
2.830169916152954102e+00,6.365535278320312500e+02,5.216864776611328125e+01,5.216864776611328125e+01,2.285381220281124115e-02,-7.696533203125000000e-02,-4.852294456213712692e-03,4.028305244929697437e-09,2.100087392875593650e-08,-3.495245473459362984e-04,6.103307725879858481e-08,3.263195367253501900e-07,-5.971524864435195923e-03,5.304069054545834661e-05,-1.050360333465505391e-05,-1.546226514881343661e-11,0.000000000000000000e+00,1.055814558640122414e-03,1.000000000000000000e+00
2.917726278305053711e+00,6.365535278320312500e+02,5.216864776611328125e+01,5.216864776611328125e+01,2.285381220281124115e-02,-7.696533203125000000e-02,-4.852294456213712692e-03,-1.117555714635898312e-09,8.303582821334032360e-10,4.276014515198767185e-04,-5.877198105963543640e-08,-2.303717820950623718e-07,8.875722065567970276e-03,6.757040296179184224e-07,2.333284101041499525e-06,-2.602414160904342744e-12,0.000000000000000000e+00,1.055814558640122414e-03,1.000000000000000000e+00
