# Time,X,Y,Z,Roll,Pitch,Yaw,Vx,Vy,Vz,Ax,Ay,Az,Wx,Wy,Wz,Throttle,Steer,Brake
0.000000000000000000e+00,4.436099243164062500e+02,-1.055239486694335938e+01,-1.055239486694335938e+01,5.238754674792289734e-03,1.798636169433593750e+02,1.027792785316705704e-02,-8.458867073059082031e+00,2.520728483796119690e-02,-1.916614337460487150e-06,-2.124163359403610229e-01,2.109375782310962677e-02,-9.391394996782764792e-06,-1.243601087480783463e-02,6.111783534288406372e-02,-2.583381533622741699e-01,5.000000000000000000e-01,-1.142501831054687500e-03,0.000000000000000000e+00
1.045818328857421875e-01,4.436099243164062500e+02,-1.055239486694335938e+01,-1.055239486694335938e+01,5.238754674792289734e-03,1.798636169433593750e+02,1.027792785316705704e-02,-8.458867073059082031e+00,2.520728483796119690e-02,-1.916614337460487150e-06,-2.124163359403610229e-01,2.109375782310962677e-02,-9.391394996782764792e-06,-1.243601087480783463e-02,6.111783534288406372e-02,-2.583381533622741699e-01,5.000000000000000000e-01,-1.142501831054687500e-03,0.000000000000000000e+00
1.045818328857421875e-01,4.436099243164062500e+02,-1.055239486694335938e+01,-1.055239486694335938e+01,5.238754674792289734e-03,1.798636169433593750e+02,1.027792785316705704e-02,-8.458867073059082031e+00,2.520728483796119690e-02,-1.916614337460487150e-06,-2.124163359403610229e-01,2.109375782310962677e-02,-9.391394996782764792e-06,-1.243601087480783463e-02,6.111783534288406372e-02,-2.583381533622741699e-01,5.000000000000000000e-01,-1.142501831054687500e-03,0.000000000000000000e+00
1.045818328857421875e-01,4.436099243164062500e+02,-1.055239486694335938e+01,-1.055239486694335938e+01,5.238754674792289734e-03,1.798636169433593750e+02,1.027792785316705704e-02,-8.458867073059082031e+00,2.520728483796119690e-02,-1.916614337460487150e-06,-2.124163359403610229e-01,2.109375782310962677e-02,-9.391394996782764792e-06,-1.243601087480783463e-02,6.111783534288406372e-02,-2.583381533622741699e-01,5.000000000000000000e-01,-1.142501831054687500e-03,0.000000000000000000e+00
1.045818328857421875e-01,4.436099243164062500e+02,-1.055239486694335938e+01,-1.055239486694335938e+01,5.238754674792289734e-03,1.798636169433593750e+02,1.027792785316705704e-02,-8.458867073059082031e+00,2.520728483796119690e-02,-1.916614337460487150e-06,-2.124163359403610229e-01,2.109375782310962677e-02,-9.391394996782764792e-06,-1.243601087480783463e-02,6.111783534288406372e-02,-2.583381533622741699e-01,5.000000000000000000e-01,-1.142501831054687500e-03,0.000000000000000000e+00
1.045818328857421875e-01,4.436099243164062500e+02,-1.055239486694335938e+01,-1.055239486694335938e+01,5.238754674792289734e-03,1.798636169433593750e+02,1.027792785316705704e-02,-8.458867073059082031e+00,2.520728483796119690e-02,-1.916614337460487150e-06,-2.124163359403610229e-01,2.109375782310962677e-02,-9.391394996782764792e-06,-1.243601087480783463e-02,6.111783534288406372e-02,-2.583381533622741699e-01,5.000000000000000000e-01,-1.142501831054687500e-03,0.000000000000000000e+00
1.045818328857421875e-01,4.427626037597656250e+02,-1.054985809326171875e+01,-1.054985809326171875e+01,9.651056490838527679e-03,1.798420867919921875e+02,8.653095923364162445e-03,-8.481596946716308594e+00,2.734716981649398804e-02,-2.059593271042103879e-06,-2.170767784118652344e-01,2.043651230633258820e-02,-1.365489652016549371e-06,-1.300173625349998474e-02,3.243618085980415344e-02,-2.003606557846069336e-01,5.000000000000000000e-01,-8.947372552938759327e-04,0.000000000000000000e+00
2.092907428741455078e-01,4.427626037597656250e+02,-1.054985809326171875e+01,-1.054985809326171875e+01,9.651056490838527679e-03,1.798420867919921875e+02,8.653095923364162445e-03,-8.481596946716308594e+00,2.734716981649398804e-02,-2.059593271042103879e-06,-2.170767784118652344e-01,2.043651230633258820e-02,-1.365489652016549371e-06,-1.300173625349998474e-02,3.243618085980415344e-02,-2.003606557846069336e-01,5.000000000000000000e-01,-8.947372552938759327e-04,0.000000000000000000e+00
2.092907428741455078e-01,4.427626037597656250e+02,-1.054985809326171875e+01,-1.054985809326171875e+01,9.651056490838527679e-03,1.798420867919921875e+02,8.653095923364162445e-03,-8.481596946716308594e+00,2.734716981649398804e-02,-2.059593271042103879e-06,-2.170767784118652344e-01,2.043651230633258820e-02,-1.365489652016549371e-06,-1.300173625349998474e-02,3.243618085980415344e-02,-2.003606557846069336e-01,5.000000000000000000e-01,-8.947372552938759327e-04,0.000000000000000000e+00
2.092907428741455078e-01,4.427626037597656250e+02,-1.054985809326171875e+01,-1.054985809326171875e+01,9.651056490838527679e-03,1.798420867919921875e+02,8.653095923364162445e-03,-8.481596946716308594e+00,2.734716981649398804e-02,-2.059593271042103879e-06,-2.170767784118652344e-01,2.043651230633258820e-02,-1.365489652016549371e-06,-1.300173625349998474e-02,3.243618085980415344e-02,-2.003606557846069336e-01,5.000000000000000000e-01,-8.947372552938759327e-04,0.000000000000000000e+00
2.092907428741455078e-01,4.427626037597656250e+02,-1.054985809326171875e+01,-1.054985809326171875e+01,9.651056490838527679e-03,1.798420867919921875e+02,8.653095923364162445e-03,-8.481596946716308594e+00,2.734716981649398804e-02,-2.059593271042103879e-06,-2.170767784118652344e-01,2.043651230633258820e-02,-1.365489652016549371e-06,-1.300173625349998474e-02,3.243618085980415344e-02,-2.003606557846069336e-01,5.000000000000000000e-01,-8.947372552938759327e-04,0.000000000000000000e+00
2.092907428741455078e-01,4.419132385253906250e+02,-1.054713249206542969e+01,-1.054713249206542969e+01,1.182988658547401428e-02,1.798261260986328125e+02,6.989131681621074677e-03,-8.502078056335449219e+00,2.868178114295005798e-02,-1.849819796007068362e-06,-2.744773626327514648e-01,1.788577809929847717e-02,2.811276772263227031e-06,-1.371912285685539246e-02,1.571886241436004639e-02,-1.449730396270751953e-01,5.000000000000000000e-01,-6.381988641805946827e-04,0.000000000000000000e+00
2.839093208312988281e-01,4.419132385253906250e+02,-1.054713249206542969e+01,-1.054713249206542969e+01,1.182988658547401428e-02,1.798261260986328125e+02,6.989131681621074677e-03,-8.502078056335449219e+00,2.868178114295005798e-02,-1.849819796007068362e-06,-2.744773626327514648e-01,1.788577809929847717e-02,2.811276772263227031e-06,-1.371912285685539246e-02,1.571886241436004639e-02,-1.449730396270751953e-01,5.000000000000000000e-01,-6.381988641805946827e-04,0.000000000000000000e+00
2.839093208312988281e-01,4.419132385253906250e+02,-1.054713249206542969e+01,-1.054713249206542969e+01,1.182988658547401428e-02,1.798261260986328125e+02,6.989131681621074677e-03,-8.502078056335449219e+00,2.868178114295005798e-02,-1.849819796007068362e-06,-2.744773626327514648e-01,1.788577809929847717e-02,2.811276772263227031e-06,-1.371912285685539246e-02,1.571886241436004639e-02,-1.449730396270751953e-01,5.000000000000000000e-01,-6.381988641805946827e-04,0.000000000000000000e+00
2.839093208312988281e-01,4.419132385253906250e+02,-1.054713249206542969e+01,-1.054713249206542969e+01,1.182988658547401428e-02,1.798261260986328125e+02,6.989131681621074677e-03,-8.502078056335449219e+00,2.868178114295005798e-02,-1.849819796007068362e-06,-2.744773626327514648e-01,1.788577809929847717e-02,2.811276772263227031e-06,-1.371912285685539246e-02,1.571886241436004639e-02,-1.449730396270751953e-01,5.000000000000000000e-01,-6.381988641805946827e-04,0.000000000000000000e+00
2.839093208312988281e-01,4.419132385253906250e+02,-1.054713249206542969e+01,-1.054713249206542969e+01,1.182988658547401428e-02,1.798261260986328125e+02,6.989131681621074677e-03,-8.502078056335449219e+00,2.868178114295005798e-02,-1.849819796007068362e-06,-2.744773626327514648e-01,1.788577809929847717e-02,2.811276772263227031e-06,-1.371912285685539246e-02,1.571886241436004639e-02,-1.449730396270751953e-01,5.000000000000000000e-01,-6.381988641805946827e-04,0.000000000000000000e+00
3.569011688232421875e-01,4.412781677246093750e+02,-1.054501533508300781e+01,-1.054501533508300781e+01,1.264951005578041077e-02,1.798174743652343750e+02,5.789050366729497910e-03,-8.516416549682617188e+00,2.920437045395374298e-02,-2.860595849085711961e-08,-1.964396536350250244e-01,7.159557193517684937e-03,2.495092121534980834e-05,-1.473761629313230515e-02,8.675713092088699341e-03,-1.048937216401100159e-01,5.000000000000000000e-01,-4.369735834188759327e-04,0.000000000000000000e+00
3.569011688232421875e-01,4.412781677246093750e+02,-1.054501533508300781e+01,-1.054501533508300781e+01,1.264951005578041077e-02,1.798174743652343750e+02,5.789050366729497910e-03,-8.516416549682617188e+00,2.920437045395374298e-02,-2.860595849085711961e-08,-1.964396536350250244e-01,7.159557193517684937e-03,2.495092121534980834e-05,-1.473761629313230515e-02,8.675713092088699341e-03,-1.048937216401100159e-01,5.000000000000000000e-01,-4.369735834188759327e-04,0.000000000000000000e+00
3.569011688232421875e-01,4.412781677246093750e+02,-1.054501533508300781e+01,-1.054501533508300781e+01,1.264951005578041077e-02,1.798174743652343750e+02,5.789050366729497910e-03,-8.516416549682617188e+00,2.920437045395374298e-02,-2.860595849085711961e-08,-1.964396536350250244e-01,7.159557193517684937e-03,2.495092121534980834e-05,-1.473761629313230515e-02,8.675713092088699341e-03,-1.048937216401100159e-01,5.000000000000000000e-01,-4.369735834188759327e-04,0.000000000000000000e+00
3.569011688232421875e-01,4.412781677246093750e+02,-1.054501533508300781e+01,-1.054501533508300781e+01,1.264951005578041077e-02,1.798174743652343750e+02,5.789050366729497910e-03,-8.516416549682617188e+00,2.920437045395374298e-02,-2.860595849085711961e-08,-1.964396536350250244e-01,7.159557193517684937e-03,2.495092121534980834e-05,-1.473761629313230515e-02,8.675713092088699341e-03,-1.048937216401100159e-01,5.000000000000000000e-01,-4.369735834188759327e-04,0.000000000000000000e+00
4.765405654907226562e-01,4.406558837890625000e+02,-1.054289817810058594e+01,-1.054289817810058594e+01,1.308664213865995407e-02,1.798112182617187500e+02,4.715153016149997711e-03,-8.529882431030273438e+00,2.966096065938472748e-02,9.535350642408957356e-08,-1.125539094209671021e-01,3.816386917605996132e-03,1.036109097185544670e-06,-1.305047981441020966e-02,4.596915096044540405e-03,-7.769521325826644897e-02,5.000000000000000000e-01,-3.261566162109375000e-04,0.000000000000000000e+00
4.765405654907226562e-01,4.406558837890625000e+02,-1.054289817810058594e+01,-1.054289817810058594e+01,1.308664213865995407e-02,1.798112182617187500e+02,4.715153016149997711e-03,-8.529882431030273438e+00,2.966096065938472748e-02,9.535350642408957356e-08,-1.125539094209671021e-01,3.816386917605996132e-03,1.036109097185544670e-06,-1.305047981441020966e-02,4.596915096044540405e-03,-7.769521325826644897e-02,5.000000000000000000e-01,-3.261566162109375000e-04,0.000000000000000000e+00
4.765405654907226562e-01,4.406558837890625000e+02,-1.054289817810058594e+01,-1.054289817810058594e+01,1.308664213865995407e-02,1.798112182617187500e+02,4.715153016149997711e-03,-8.529882431030273438e+00,2.966096065938472748e-02,9.535350642408957356e-08,-1.125539094209671021e-01,3.816386917605996132e-03,1.036109097185544670e-06,-1.305047981441020966e-02,4.596915096044540405e-03,-7.769521325826644897e-02,5.000000000000000000e-01,-3.261566162109375000e-04,0.000000000000000000e+00
4.765405654907226562e-01,4.406558837890625000e+02,-1.054289817810058594e+01,-1.054289817810058594e+01,1.308664213865995407e-02,1.798112182617187500e+02,4.715153016149997711e-03,-8.529882431030273438e+00,2.966096065938472748e-02,9.535350642408957356e-08,-1.125539094209671021e-01,3.816386917605996132e-03,1.036109097185544670e-06,-1.305047981441020966e-02,4.596915096044540405e-03,-7.769521325826644897e-02,5.000000000000000000e-01,-3.261566162109375000e-04,0.000000000000000000e+00
4.765405654907226562e-01,4.406558837890625000e+02,-1.054289817810058594e+01,-1.054289817810058594e+01,1.308664213865995407e-02,1.798112182617187500e+02,4.715153016149997711e-03,-8.529882431030273438e+00,2.966096065938472748e-02,9.535350642408957356e-08,-1.125539094209671021e-01,3.816386917605996132e-03,1.036109097185544670e-06,-1.305047981441020966e-02,4.596915096044540405e-03,-7.769521325826644897e-02,5.000000000000000000e-01,-3.261566162109375000e-04,0.000000000000000000e+00
4.765405654907226562e-01,4.406558837890625000e+02,-1.054289817810058594e+01,-1.054289817810058594e+01,1.308664213865995407e-02,1.798112182617187500e+02,4.715153016149997711e-03,-8.529882431030273438e+00,2.966096065938472748e-02,9.535350642408957356e-08,-1.125539094209671021e-01,3.816386917605996132e-03,1.036109097185544670e-06,-1.305047981441020966e-02,4.596915096044540405e-03,-7.769521325826644897e-02,5.000000000000000000e-01,-3.261566162109375000e-04,0.000000000000000000e+00
4.765405654907226562e-01,4.406558837890625000e+02,-1.054289817810058594e+01,-1.054289817810058594e+01,1.308664213865995407e-02,1.798112182617187500e+02,4.715153016149997711e-03,-8.529882431030273438e+00,2.966096065938472748e-02,9.535350642408957356e-08,-1.125539094209671021e-01,3.816386917605996132e-03,1.036109097185544670e-06,-1.305047981441020966e-02,4.596915096044540405e-03,-7.769521325826644897e-02,5.000000000000000000e-01,-3.261566162109375000e-04,0.000000000000000000e+00
6.200885772705078125e-01,4.398017883300781250e+02,-1.053993511199951172e+01,-1.053993511199951172e+01,1.333935838192701340e-02,1.798050689697265625e+02,3.517953213304281235e-03,-8.547624588012695312e+00,3.023317083716392517e-02,-5.721092293242691085e-07,-1.235973760485649109e-01,3.986193798482418060e-03,-4.649753009289270267e-06,-9.452593512833118439e-03,1.304007018916308880e-03,-5.557918548583984375e-02,5.000000000000000000e-01,-2.466201840434223413e-04,0.000000000000000000e+00
6.200885772705078125e-01,4.398017883300781250e+02,-1.053993511199951172e+01,-1.053993511199951172e+01,1.333935838192701340e-02,1.798050689697265625e+02,3.517953213304281235e-03,-8.547624588012695312e+00,3.023317083716392517e-02,-5.721092293242691085e-07,-1.235973760485649109e-01,3.986193798482418060e-03,-4.649753009289270267e-06,-9.452593512833118439e-03,1.304007018916308880e-03,-5.557918548583984375e-02,5.000000000000000000e-01,-2.466201840434223413e-04,0.000000000000000000e+00
6.200885772705078125e-01,4.398017883300781250e+02,-1.053993511199951172e+01,-1.053993511199951172e+01,1.333935838192701340e-02,1.798050689697265625e+02,3.517953213304281235e-03,-8.547624588012695312e+00,3.023317083716392517e-02,-5.721092293242691085e-07,-1.235973760485649109e-01,3.986193798482418060e-03,-4.649753009289270267e-06,-9.452593512833118439e-03,1.304007018916308880e-03,-5.557918548583984375e-02,5.000000000000000000e-01,-2.466201840434223413e-04,0.000000000000000000e+00
6.200885772705078125e-01,4.398017883300781250e+02,-1.053993511199951172e+01,-1.053993511199951172e+01,1.333935838192701340e-02,1.798050689697265625e+02,3.517953213304281235e-03,-8.547624588012695312e+00,3.023317083716392517e-02,-5.721092293242691085e-07,-1.235973760485649109e-01,3.986193798482418060e-03,-4.649753009289270267e-06,-9.452593512833118439e-03,1.304007018916308880e-03,-5.557918548583984375e-02,5.000000000000000000e-01,-2.466201840434223413e-04,0.000000000000000000e+00
6.200885772705078125e-01,4.398017883300781250e+02,-1.053993511199951172e+01,-1.053993511199951172e+01,1.333935838192701340e-02,1.798050689697265625e+02,3.517953213304281235e-03,-8.547624588012695312e+00,3.023317083716392517e-02,-5.721092293242691085e-07,-1.235973760485649109e-01,3.986193798482418060e-03,-4.649753009289270267e-06,-9.452593512833118439e-03,1.304007018916308880e-03,-5.557918548583984375e-02,5.000000000000000000e-01,-2.466201840434223413e-04,0.000000000000000000e+00
6.200885772705078125e-01,4.398017883300781250e+02,-1.053993511199951172e+01,-1.053993511199951172e+01,1.333935838192701340e-02,1.798050689697265625e+02,3.517953213304281235e-03,-8.547624588012695312e+00,3.023317083716392517e-02,-5.721092293242691085e-07,-1.235973760485649109e-01,3.986193798482418060e-03,-4.649753009289270267e-06,-9.452593512833118439e-03,1.304007018916308880e-03,-5.557918548583984375e-02,5.000000000000000000e-01,-2.466201840434223413e-04,0.000000000000000000e+00
7.946169376373291016e-01,4.389460144042968750e+02,-1.053691864013671875e+01,-1.053691864013671875e+01,1.335984934121370316e-02,1.798007659912109375e+02,2.606318332254886627e-03,-8.564693450927734375e+00,3.059269860386848450e-02,1.334921506668251823e-07,-9.779993444681167603e-02,2.059996128082275391e-03,4.042904038215056062e-06,-7.450721226632595062e-03,-4.110459121875464916e-04,-3.845382854342460632e-02,5.000000000000000000e-01,-1.708984345896169543e-04,0.000000000000000000e+00
7.946169376373291016e-01,4.389460144042968750e+02,-1.053691864013671875e+01,-1.053691864013671875e+01,1.335984934121370316e-02,1.798007659912109375e+02,2.606318332254886627e-03,-8.564693450927734375e+00,3.059269860386848450e-02,1.334921506668251823e-07,-9.779993444681167603e-02,2.059996128082275391e-03,4.042904038215056062e-06,-7.450721226632595062e-03,-4.110459121875464916e-04,-3.845382854342460632e-02,5.000000000000000000e-01,-1.708984345896169543e-04,0.000000000000000000e+00
7.946169376373291016e-01,4.389460144042968750e+02,-1.053691864013671875e+01,-1.053691864013671875e+01,1.335984934121370316e-02,1.798007659912109375e+02,2.606318332254886627e-03,-8.564693450927734375e+00,3.059269860386848450e-02,1.334921506668251823e-07,-9.779993444681167603e-02,2.059996128082275391e-03,4.042904038215056062e-06,-7.450721226632595062e-03,-4.110459121875464916e-04,-3.845382854342460632e-02,5.000000000000000000e-01,-1.708984345896169543e-04,0.000000000000000000e+00
8.783230781555175781e-01,4.380885314941406250e+02,-1.053386497497558594e+01,-1.053386497497558594e+01,1.326422672718763351e-02,1.797978973388671875e+02,1.895856810733675957e-03,-8.581183433532714844e+00,3.083533421158790588e-02,-3.623358395543618826e-07,-1.969984918832778931e-01,2.898659557104110718e-03,-5.923436219745781273e-06,-5.844763945788145065e-03,-1.277377828955650330e-03,-2.586220577359199524e-02,5.000000000000000000e-01,-1.159667954198084772e-04,0.000000000000000000e+00
8.783230781555175781e-01,4.380885314941406250e+02,-1.053386497497558594e+01,-1.053386497497558594e+01,1.326422672718763351e-02,1.797978973388671875e+02,1.895856810733675957e-03,-8.581183433532714844e+00,3.083533421158790588e-02,-3.623358395543618826e-07,-1.969984918832778931e-01,2.898659557104110718e-03,-5.923436219745781273e-06,-5.844763945788145065e-03,-1.277377828955650330e-03,-2.586220577359199524e-02,5.000000000000000000e-01,-1.159667954198084772e-04,0.000000000000000000e+00
8.783230781555175781e-01,4.380885314941406250e+02,-1.053386497497558594e+01,-1.053386497497558594e+01,1.326422672718763351e-02,1.797978973388671875e+02,1.895856810733675957e-03,-8.581183433532714844e+00,3.083533421158790588e-02,-3.623358395543618826e-07,-1.969984918832778931e-01,2.898659557104110718e-03,-5.923436219745781273e-06,-5.844763945788145065e-03,-1.277377828955650330e-03,-2.586220577359199524e-02,5.000000000000000000e-01,-1.159667954198084772e-04,0.000000000000000000e+00
9.483780860900878906e-01,4.373695983886718750e+02,-1.053128910064697266e+01,-1.053128910064697266e+01,1.314128283411264420e-02,1.797961883544921875e+02,1.438817707821726799e-03,-8.594621658325195312e+00,3.096312470734119415e-02,1.621019976028037490e-07,-1.918238997459411621e-01,1.824145088903605938e-03,7.486086360586341470e-06,-4.800269845873117447e-03,-1.536679104901850224e-03,-1.758714579045772552e-02,5.000000000000000000e-01,-7.762909081066027284e-05,0.000000000000000000e+00
9.483780860900878906e-01,4.373695983886718750e+02,-1.053128910064697266e+01,-1.053128910064697266e+01,1.314128283411264420e-02,1.797961883544921875e+02,1.438817707821726799e-03,-8.594621658325195312e+00,3.096312470734119415e-02,1.621019976028037490e-07,-1.918238997459411621e-01,1.824145088903605938e-03,7.486086360586341470e-06,-4.800269845873117447e-03,-1.536679104901850224e-03,-1.758714579045772552e-02,5.000000000000000000e-01,-7.762909081066027284e-05,0.000000000000000000e+00
9.483780860900878906e-01,4.373695983886718750e+02,-1.053128910064697266e+01,-1.053128910064697266e+01,1.314128283411264420e-02,1.797961883544921875e+02,1.438817707821726799e-03,-8.594621658325195312e+00,3.096312470734119415e-02,1.621019976028037490e-07,-1.918238997459411621e-01,1.824145088903605938e-03,7.486086360586341470e-06,-4.800269845873117447e-03,-1.536679104901850224e-03,-1.758714579045772552e-02,5.000000000000000000e-01,-7.762909081066027284e-05,0.000000000000000000e+00
9.483780860900878906e-01,4.373695983886718750e+02,-1.053128910064697266e+01,-1.053128910064697266e+01,1.314128283411264420e-02,1.797961883544921875e+02,1.438817707821726799e-03,-8.594621658325195312e+00,3.096312470734119415e-02,1.621019976028037490e-07,-1.918238997459411621e-01,1.824145088903605938e-03,7.486086360586341470e-06,-4.800269845873117447e-03,-1.536679104901850224e-03,-1.758714579045772552e-02,5.000000000000000000e-01,-7.762909081066027284e-05,0.000000000000000000e+00
9.483780860900878906e-01,4.367680664062500000e+02,-1.052912712097167969e+01,-1.052912712097167969e+01,1.105807535350322723e-02,1.797951507568359375e+02,1.129535608924925327e-03,-8.581849098205566406e+00,3.097858652472496033e-02,1.716373247973024263e-07,1.620903611183166504e-01,1.962184178410097957e-04,1.210082132274692412e-07,-4.030160140246152878e-03,-3.847803175449371338e-02,-1.418453920632600784e-02,5.000000000000000000e-01,-5.817413330078125000e-05,0.000000000000000000e+00
1.027177095413208008e+00,4.367680664062500000e+02,-1.052912712097167969e+01,-1.052912712097167969e+01,1.105807535350322723e-02,1.797951507568359375e+02,1.129535608924925327e-03,-8.581849098205566406e+00,3.097858652472496033e-02,1.716373247973024263e-07,1.620903611183166504e-01,1.962184178410097957e-04,1.210082132274692412e-07,-4.030160140246152878e-03,-3.847803175449371338e-02,-1.418453920632600784e-02,5.000000000000000000e-01,-5.817413330078125000e-05,0.000000000000000000e+00
1.027177095413208008e+00,4.367680664062500000e+02,-1.052912712097167969e+01,-1.052912712097167969e+01,1.105807535350322723e-02,1.797951507568359375e+02,1.129535608924925327e-03,-8.581849098205566406e+00,3.097858652472496033e-02,1.716373247973024263e-07,1.620903611183166504e-01,1.962184178410097957e-04,1.210082132274692412e-07,-4.030160140246152878e-03,-3.847803175449371338e-02,-1.418453920632600784e-02,5.000000000000000000e-01,-5.817413330078125000e-05,0.000000000000000000e+00
1.095043420791625977e+00,4.360924377441406250e+02,-1.052669048309326172e+01,-1.052669048309326172e+01,7.820566184818744659e-03,1.797942199707031250e+02,8.587510092183947563e-04,-8.569836616516113281e+00,3.100234456360340118e-02,3.241981403334648348e-07,1.770020872354507446e-01,3.500710881780833006e-04,2.247960537715698592e-06,-2.989942207932472229e-03,-3.984787687659263611e-02,-1.092548016458749771e-02,5.000000000000000000e-01,-4.520416405284777284e-05,0.000000000000000000e+00
1.095043420791625977e+00,4.360924377441406250e+02,-1.052669048309326172e+01,-1.052669048309326172e+01,7.820566184818744659e-03,1.797942199707031250e+02,8.587510092183947563e-04,-8.569836616516113281e+00,3.100234456360340118e-02,3.241981403334648348e-07,1.770020872354507446e-01,3.500710881780833006e-04,2.247960537715698592e-06,-2.989942207932472229e-03,-3.984787687659263611e-02,-1.092548016458749771e-02,5.000000000000000000e-01,-4.520416405284777284e-05,0.000000000000000000e+00
1.095043420791625977e+00,4.360924377441406250e+02,-1.052669048309326172e+01,-1.052669048309326172e+01,7.820566184818744659e-03,1.797942199707031250e+02,8.587510092183947563e-04,-8.569836616516113281e+00,3.100234456360340118e-02,3.241981403334648348e-07,1.770020872354507446e-01,3.500710881780833006e-04,2.247960537715698592e-06,-2.989942207932472229e-03,-3.984787687659263611e-02,-1.092548016458749771e-02,5.000000000000000000e-01,-4.520416405284777284e-05,0.000000000000000000e+00
1.095043420791625977e+00,4.360924377441406250e+02,-1.052669048309326172e+01,-1.052669048309326172e+01,7.820566184818744659e-03,1.797942199707031250e+02,8.587510092183947563e-04,-8.569836616516113281e+00,3.100234456360340118e-02,3.241981403334648348e-07,1.770020872354507446e-01,3.500710881780833006e-04,2.247960537715698592e-06,-2.989942207932472229e-03,-3.984787687659263611e-02,-1.092548016458749771e-02,5.000000000000000000e-01,-4.520416405284777284e-05,0.000000000000000000e+00
1.168572425842285156e+00,4.355113220214843750e+02,-1.052458858489990234e+01,-1.052458858489990234e+01,5.423170048743486404e-03,1.797935943603515625e+02,6.834881496615707874e-04,-8.559209823608398438e+00,3.099849820137023926e-02,9.535448839415039402e-07,1.445251852273941040e-01,-5.231081377132795751e-05,8.559162779420148581e-06,-2.477579284459352493e-03,-3.285605460405349731e-02,-8.323822170495986938e-03,5.000000000000000000e-01,-3.280639793956652284e-05,0.000000000000000000e+00
1.168572425842285156e+00,4.355113220214843750e+02,-1.052458858489990234e+01,-1.052458858489990234e+01,5.423170048743486404e-03,1.797935943603515625e+02,6.834881496615707874e-04,-8.559209823608398438e+00,3.099849820137023926e-02,9.535448839415039402e-07,1.445251852273941040e-01,-5.231081377132795751e-05,8.559162779420148581e-06,-2.477579284459352493e-03,-3.285605460405349731e-02,-8.323822170495986938e-03,5.000000000000000000e-01,-3.280639793956652284e-05,0.000000000000000000e+00
1.168572425842285156e+00,4.355113220214843750e+02,-1.052458858489990234e+01,-1.052458858489990234e+01,5.423170048743486404e-03,1.797935943603515625e+02,6.834881496615707874e-04,-8.559209823608398438e+00,3.099849820137023926e-02,9.535448839415039402e-07,1.445251852273941040e-01,-5.231081377132795751e-05,8.559162779420148581e-06,-2.477579284459352493e-03,-3.285605460405349731e-02,-8.323822170495986938e-03,5.000000000000000000e-01,-3.280639793956652284e-05,0.000000000000000000e+00
1.168572425842285156e+00,4.355113220214843750e+02,-1.052458858489990234e+01,-1.052458858489990234e+01,5.423170048743486404e-03,1.797935943603515625e+02,6.834881496615707874e-04,-8.559209823608398438e+00,3.099849820137023926e-02,9.535448839415039402e-07,1.445251852273941040e-01,-5.231081377132795751e-05,8.559162779420148581e-06,-2.477579284459352493e-03,-3.285605460405349731e-02,-8.323822170495986938e-03,5.000000000000000000e-01,-3.280639793956652284e-05,0.000000000000000000e+00
1.168572425842285156e+00,4.348824462890625000e+02,-1.052231502532958984e+01,-1.052231502532958984e+01,3.312641521915793419e-03,1.797930603027343750e+02,5.349255516193807125e-04,-8.547804832458496094e+00,3.100080601871013641e-02,9.153927180705068167e-07,1.519683897495269775e-01,3.075103450100868940e-05,-5.083671794636757113e-07,-1.838873256929218769e-03,-2.548723667860031128e-02,-6.607511080801486969e-03,5.000000000000000000e-01,-2.689361645025201142e-05,0.000000000000000000e+00
1.243620872497558594e+00,4.348824462890625000e+02,-1.052231502532958984e+01,-1.052231502532958984e+01,3.312641521915793419e-03,1.797930603027343750e+02,5.349255516193807125e-04,-8.547804832458496094e+00,3.100080601871013641e-02,9.153927180705068167e-07,1.519683897495269775e-01,3.075103450100868940e-05,-5.083671794636757113e-07,-1.838873256929218769e-03,-2.548723667860031128e-02,-6.607511080801486969e-03,5.000000000000000000e-01,-2.689361645025201142e-05,0.000000000000000000e+00
1.243620872497558594e+00,4.348824462890625000e+02,-1.052231502532958984e+01,-1.052231502532958984e+01,3.312641521915793419e-03,1.797930603027343750e+02,5.349255516193807125e-04,-8.547804832458496094e+00,3.100080601871013641e-02,9.153927180705068167e-07,1.519683897495269775e-01,3.075103450100868940e-05,-5.083671794636757113e-07,-1.838873256929218769e-03,-2.548723667860031128e-02,-6.607511080801486969e-03,5.000000000000000000e-01,-2.689361645025201142e-05,0.000000000000000000e+00
1.243620872497558594e+00,4.348824462890625000e+02,-1.052231502532958984e+01,-1.052231502532958984e+01,3.312641521915793419e-03,1.797930603027343750e+02,5.349255516193807125e-04,-8.547804832458496094e+00,3.100080601871013641e-02,9.153927180705068167e-07,1.519683897495269775e-01,3.075103450100868940e-05,-5.083671794636757113e-07,-1.838873256929218769e-03,-2.548723667860031128e-02,-6.607511080801486969e-03,5.000000000000000000e-01,-2.689361645025201142e-05,0.000000000000000000e+00
1.312042951583862305e+00,4.342414855957031250e+02,-1.051999282836914062e+01,-1.051999282836914062e+01,1.721207518130540848e-03,1.797926635742187500e+02,4.169956955593079329e-04,-8.536175727844238281e+00,3.098937496542930603e-02,8.867839937920507509e-07,1.699612885713577271e-01,-1.670667406870052218e-04,-4.181212602816231083e-07,-1.412199577316641808e-03,-1.858978532254695892e-02,-5.105236545205116272e-03,5.000000000000000000e-01,-2.040863000729586929e-05,0.000000000000000000e+00
1.312042951583862305e+00,4.342414855957031250e+02,-1.051999282836914062e+01,-1.051999282836914062e+01,1.721207518130540848e-03,1.797926635742187500e+02,4.169956955593079329e-04,-8.536175727844238281e+00,3.098937496542930603e-02,8.867839937920507509e-07,1.699612885713577271e-01,-1.670667406870052218e-04,-4.181212602816231083e-07,-1.412199577316641808e-03,-1.858978532254695892e-02,-5.105236545205116272e-03,5.000000000000000000e-01,-2.040863000729586929e-05,0.000000000000000000e+00
1.312042951583862305e+00,4.336578369140625000e+02,-1.051787567138671875e+01,-1.051787567138671875e+01,6.761886761523783207e-04,1.797923736572265625e+02,3.326374862808734179e-04,-8.525588035583496094e+00,3.097051754593849182e-02,9.916855105984723195e-07,1.489411592483520508e-01,-2.652746043168008327e-04,1.475690169172594324e-06,-1.127344206906855106e-03,-1.353603228926658630e-02,-3.952966537326574326e-03,5.000000000000000000e-01,-1.525878906250000000e-05,0.000000000000000000e+00
1.383129358291625977e+00,4.336578369140625000e+02,-1.051787567138671875e+01,-1.051787567138671875e+01,6.761886761523783207e-04,1.797923736572265625e+02,3.326374862808734179e-04,-8.525588035583496094e+00,3.097051754593849182e-02,9.916855105984723195e-07,1.489411592483520508e-01,-2.652746043168008327e-04,1.475690169172594324e-06,-1.127344206906855106e-03,-1.353603228926658630e-02,-3.952966537326574326e-03,5.000000000000000000e-01,-1.525878906250000000e-05,0.000000000000000000e+00
1.383129358291625977e+00,4.336578369140625000e+02,-1.051787567138671875e+01,-1.051787567138671875e+01,6.761886761523783207e-04,1.797923736572265625e+02,3.326374862808734179e-04,-8.525588035583496094e+00,3.097051754593849182e-02,9.916855105984723195e-07,1.489411592483520508e-01,-2.652746043168008327e-04,1.475690169172594324e-06,-1.127344206906855106e-03,-1.353603228926658630e-02,-3.952966537326574326e-03,5.000000000000000000e-01,-1.525878906250000000e-05,0.000000000000000000e+00
1.450951814651489258e+00,4.330522460937500000e+02,-1.051567459106445312e+01,-1.051567459106445312e+01,-1.229433983098715544e-04,1.797921142578125000e+02,2.622751053422689438e-04,-8.514606475830078125e+00,3.095189668238162994e-02,-1.296812683904136065e-06,1.619162857532501221e-01,-2.745530800893902779e-04,-3.374248626641929150e-05,-9.277467615902423859e-04,-9.916299022734165192e-03,-3.206338966265320778e-03,5.000000000000000000e-01,-1.258850079466355965e-05,0.000000000000000000e+00
1.450951814651489258e+00,4.330522460937500000e+02,-1.051567459106445312e+01,-1.051567459106445312e+01,-1.229433983098715544e-04,1.797921142578125000e+02,2.622751053422689438e-04,-8.514606475830078125e+00,3.095189668238162994e-02,-1.296812683904136065e-06,1.619162857532501221e-01,-2.745530800893902779e-04,-3.374248626641929150e-05,-9.277467615902423859e-04,-9.916299022734165192e-03,-3.206338966265320778e-03,5.000000000000000000e-01,-1.258850079466355965e-05,0.000000000000000000e+00
1.450951814651489258e+00,4.330522460937500000e+02,-1.051567459106445312e+01,-1.051567459106445312e+01,-1.229433983098715544e-04,1.797921142578125000e+02,2.622751053422689438e-04,-8.514606475830078125e+00,3.095189668238162994e-02,-1.296812683904136065e-06,1.619162857532501221e-01,-2.745530800893902779e-04,-3.374248626641929150e-05,-9.277467615902423859e-04,-9.916299022734165192e-03,-3.206338966265320778e-03,5.000000000000000000e-01,-1.258850079466355965e-05,0.000000000000000000e+00
1.527701377868652344e+00,4.325031127929687500e+02,-1.051368522644042969e+01,-1.051368522644042969e+01,-5.328230187296867371e-02,1.797901458740234375e+02,2.468894526828080416e-04,-7.847990036010742188e+00,2.857522107660770416e-02,-1.010757614494650625e-06,8.685606002807617188e+00,-3.096663393080234528e-02,3.727123157659661956e-06,-3.159054089337587357e-03,-1.047635436058044434e+00,-4.001584649085998535e-02,5.000000000000000000e-01,-9.346008482680190355e-06,0.000000000000000000e+00
1.527701377868652344e+00,4.325031127929687500e+02,-1.051368522644042969e+01,-1.051368522644042969e+01,-5.328230187296867371e-02,1.797901458740234375e+02,2.468894526828080416e-04,-7.847990036010742188e+00,2.857522107660770416e-02,-1.010757614494650625e-06,8.685606002807617188e+00,-3.096663393080234528e-02,3.727123157659661956e-06,-3.159054089337587357e-03,-1.047635436058044434e+00,-4.001584649085998535e-02,5.000000000000000000e-01,-9.346008482680190355e-06,0.000000000000000000e+00
1.527701377868652344e+00,4.325031127929687500e+02,-1.051368522644042969e+01,-1.051368522644042969e+01,-5.328230187296867371e-02,1.797901458740234375e+02,2.468894526828080416e-04,-7.847990036010742188e+00,2.857522107660770416e-02,-1.010757614494650625e-06,8.685606002807617188e+00,-3.096663393080234528e-02,3.727123157659661956e-06,-3.159054089337587357e-03,-1.047635436058044434e+00,-4.001584649085998535e-02,5.000000000000000000e-01,-9.346008482680190355e-06,0.000000000000000000e+00
1.600134611129760742e+00,4.319300231933593750e+02,-1.051160621643066406e+01,-1.051160621643066406e+01,-1.336667984724044800e-01,1.797871246337890625e+02,3.761693951673805714e-04,-7.251990795135498047e+00,2.653858624398708344e-02,-8.076381163846235722e-06,8.228257179260253906e+00,-2.811740897595882416e-02,-9.754670463735237718e-05,-7.246489985845983028e-04,-9.194653034210205078e-01,-3.622024506330490112e-02,1.000000000000000000e+00,2.212524486822076142e-05,0.000000000000000000e+00
1.600134611129760742e+00,4.319300231933593750e+02,-1.051160621643066406e+01,-1.051160621643066406e+01,-1.336667984724044800e-01,1.797871246337890625e+02,3.761693951673805714e-04,-7.251990795135498047e+00,2.653858624398708344e-02,-8.076381163846235722e-06,8.228257179260253906e+00,-2.811740897595882416e-02,-9.754670463735237718e-05,-7.246489985845983028e-04,-9.194653034210205078e-01,-3.622024506330490112e-02,1.000000000000000000e+00,2.212524486822076142e-05,0.000000000000000000e+00
1.600134611129760742e+00,4.319300231933593750e+02,-1.051160621643066406e+01,-1.051160621643066406e+01,-1.336667984724044800e-01,1.797871246337890625e+02,3.761693951673805714e-04,-7.251990795135498047e+00,2.653858624398708344e-02,-8.076381163846235722e-06,8.228257179260253906e+00,-2.811740897595882416e-02,-9.754670463735237718e-05,-7.246489985845983028e-04,-9.194653034210205078e-01,-3.622024506330490112e-02,1.000000000000000000e+00,2.212524486822076142e-05,0.000000000000000000e+00
1.600134611129760742e+00,4.319300231933593750e+02,-1.051160621643066406e+01,-1.051160621643066406e+01,-1.336667984724044800e-01,1.797871246337890625e+02,3.761693951673805714e-04,-7.251990795135498047e+00,2.653858624398708344e-02,-8.076381163846235722e-06,8.228257179260253906e+00,-2.811740897595882416e-02,-9.754670463735237718e-05,-7.246489985845983028e-04,-9.194653034210205078e-01,-3.622024506330490112e-02,1.000000000000000000e+00,2.212524486822076142e-05,0.000000000000000000e+00
1.600134611129760742e+00,4.319300231933593750e+02,-1.051160621643066406e+01,-1.051160621643066406e+01,-1.336667984724044800e-01,1.797871246337890625e+02,3.761693951673805714e-04,-7.251990795135498047e+00,2.653858624398708344e-02,-8.076381163846235722e-06,8.228257179260253906e+00,-2.811740897595882416e-02,-9.754670463735237718e-05,-7.246489985845983028e-04,-9.194653034210205078e-01,-3.622024506330490112e-02,1.000000000000000000e+00,2.212524486822076142e-05,0.000000000000000000e+00
1.600134611129760742e+00,4.314212646484375000e+02,-1.050974559783935547e+01,-1.050974559783935547e+01,-1.760003119707107544e-01,1.797855072021484375e+02,5.237328587099909782e-04,-6.906952381134033203e+00,2.536784298717975616e-02,-1.039354447129881009e-05,2.990482091903686523e+00,-1.014694757759571075e-02,-2.008308365475386381e-05,6.312966579571366310e-04,-3.535875678062438965e-01,-1.376023050397634506e-02,1.000000000000000000e+00,6.790160841774195433e-05,0.000000000000000000e+00
1.715513467788696289e+00,4.314212646484375000e+02,-1.050974559783935547e+01,-1.050974559783935547e+01,-1.760003119707107544e-01,1.797855072021484375e+02,5.237328587099909782e-04,-6.906952381134033203e+00,2.536784298717975616e-02,-1.039354447129881009e-05,2.990482091903686523e+00,-1.014694757759571075e-02,-2.008308365475386381e-05,6.312966579571366310e-04,-3.535875678062438965e-01,-1.376023050397634506e-02,1.000000000000000000e+00,6.790160841774195433e-05,0.000000000000000000e+00
1.715513467788696289e+00,4.314212646484375000e+02,-1.050974559783935547e+01,-1.050974559783935547e+01,-1.760003119707107544e-01,1.797855072021484375e+02,5.237328587099909782e-04,-6.906952381134033203e+00,2.536784298717975616e-02,-1.039354447129881009e-05,2.990482091903686523e+00,-1.014694757759571075e-02,-2.008308365475386381e-05,6.312966579571366310e-04,-3.535875678062438965e-01,-1.376023050397634506e-02,1.000000000000000000e+00,6.790160841774195433e-05,0.000000000000000000e+00
1.715513467788696289e+00,4.314212646484375000e+02,-1.050974559783935547e+01,-1.050974559783935547e+01,-1.760003119707107544e-01,1.797855072021484375e+02,5.237328587099909782e-04,-6.906952381134033203e+00,2.536784298717975616e-02,-1.039354447129881009e-05,2.990482091903686523e+00,-1.014694757759571075e-02,-2.008308365475386381e-05,6.312966579571366310e-04,-3.535875678062438965e-01,-1.376023050397634506e-02,1.000000000000000000e+00,6.790160841774195433e-05,0.000000000000000000e+00
1.813115119934082031e+00,4.307420959472656250e+02,-1.050725173950195312e+01,-1.050725173950195312e+01,-1.693408638238906860e-01,1.797858428955078125e+02,5.411721649579703808e-04,-6.754817485809326172e+00,2.478149533271789551e-02,-8.390935590796289034e-07,1.558732867240905762e+00,-6.007558666169643402e-03,9.789231262402608991e-05,4.787845537066459656e-04,3.335784673690795898e-01,1.198740024119615555e-02,1.000000000000000000e+00,1.008987455861642957e-04,0.000000000000000000e+00
1.813115119934082031e+00,4.307420959472656250e+02,-1.050725173950195312e+01,-1.050725173950195312e+01,-1.693408638238906860e-01,1.797858428955078125e+02,5.411721649579703808e-04,-6.754817485809326172e+00,2.478149533271789551e-02,-8.390935590796289034e-07,1.558732867240905762e+00,-6.007558666169643402e-03,9.789231262402608991e-05,4.787845537066459656e-04,3.335784673690795898e-01,1.198740024119615555e-02,1.000000000000000000e+00,1.008987455861642957e-04,0.000000000000000000e+00
1.813115119934082031e+00,4.307420959472656250e+02,-1.050725173950195312e+01,-1.050725173950195312e+01,-1.693408638238906860e-01,1.797858428955078125e+02,5.411721649579703808e-04,-6.754817485809326172e+00,2.478149533271789551e-02,-8.390935590796289034e-07,1.558732867240905762e+00,-6.007558666169643402e-03,9.789231262402608991e-05,4.787845537066459656e-04,3.335784673690795898e-01,1.198740024119615555e-02,1.000000000000000000e+00,1.008987455861642957e-04,0.000000000000000000e+00
1.813115119934082031e+00,4.300780029296875000e+02,-1.050481891632080078e+01,-1.050481891632080078e+01,-1.158195137977600098e-01,1.797877807617187500e+02,3.401648427825421095e-04,-6.856711864471435547e+00,2.498087659478187561e-02,1.131827229983173311e-05,-1.227351307868957520e+00,2.401612931862473488e-03,1.464394736103713512e-04,-3.085779899265617132e-04,6.518394351005554199e-01,2.436184510588645935e-02,1.000000000000000000e+00,1.089096040232107043e-04,0.000000000000000000e+00
1.896134853363037109e+00,4.300780029296875000e+02,-1.050481891632080078e+01,-1.050481891632080078e+01,-1.158195137977600098e-01,1.797877807617187500e+02,3.401648427825421095e-04,-6.856711864471435547e+00,2.498087659478187561e-02,1.131827229983173311e-05,-1.227351307868957520e+00,2.401612931862473488e-03,1.464394736103713512e-04,-3.085779899265617132e-04,6.518394351005554199e-01,2.436184510588645935e-02,1.000000000000000000e+00,1.089096040232107043e-04,0.000000000000000000e+00
1.896134853363037109e+00,4.300780029296875000e+02,-1.050481891632080078e+01,-1.050481891632080078e+01,-1.158195137977600098e-01,1.797877807617187500e+02,3.401648427825421095e-04,-6.856711864471435547e+00,2.498087659478187561e-02,1.131827229983173311e-05,-1.227351307868957520e+00,2.401612931862473488e-03,1.464394736103713512e-04,-3.085779899265617132e-04,6.518394351005554199e-01,2.436184510588645935e-02,1.000000000000000000e+00,1.089096040232107043e-04,0.000000000000000000e+00
1.896134853363037109e+00,4.300780029296875000e+02,-1.050481891632080078e+01,-1.050481891632080078e+01,-1.158195137977600098e-01,1.797877807617187500e+02,3.401648427825421095e-04,-6.856711864471435547e+00,2.498087659478187561e-02,1.131827229983173311e-05,-1.227351307868957520e+00,2.401612931862473488e-03,1.464394736103713512e-04,-3.085779899265617132e-04,6.518394351005554199e-01,2.436184510588645935e-02,1.000000000000000000e+00,1.089096040232107043e-04,0.000000000000000000e+00
1.896134853363037109e+00,4.300780029296875000e+02,-1.050481891632080078e+01,-1.050481891632080078e+01,-1.158195137977600098e-01,1.797877807617187500e+02,3.401648427825421095e-04,-6.856711864471435547e+00,2.498087659478187561e-02,1.131827229983173311e-05,-1.227351307868957520e+00,2.401612931862473488e-03,1.464394736103713512e-04,-3.085779899265617132e-04,6.518394351005554199e-01,2.436184510588645935e-02,1.000000000000000000e+00,1.089096040232107043e-04,0.000000000000000000e+00
1.896134853363037109e+00,4.300780029296875000e+02,-1.050481891632080078e+01,-1.050481891632080078e+01,-1.158195137977600098e-01,1.797877807617187500e+02,3.401648427825421095e-04,-6.856711864471435547e+00,2.498087659478187561e-02,1.131827229983173311e-05,-1.227351307868957520e+00,2.401612931862473488e-03,1.464394736103713512e-04,-3.085779899265617132e-04,6.518394351005554199e-01,2.436184510588645935e-02,1.000000000000000000e+00,1.089096040232107043e-04,0.000000000000000000e+00
1.896134853363037109e+00,4.300780029296875000e+02,-1.050481891632080078e+01,-1.050481891632080078e+01,-1.158195137977600098e-01,1.797877807617187500e+02,3.401648427825421095e-04,-6.856711864471435547e+00,2.498087659478187561e-02,1.131827229983173311e-05,-1.227351307868957520e+00,2.401612931862473488e-03,1.464394736103713512e-04,-3.085779899265617132e-04,6.518394351005554199e-01,2.436184510588645935e-02,1.000000000000000000e+00,1.089096040232107043e-04,0.000000000000000000e+00
1.896134853363037109e+00,4.300780029296875000e+02,-1.050481891632080078e+01,-1.050481891632080078e+01,-1.158195137977600098e-01,1.797877807617187500e+02,3.401648427825421095e-04,-6.856711864471435547e+00,2.498087659478187561e-02,1.131827229983173311e-05,-1.227351307868957520e+00,2.401612931862473488e-03,1.464394736103713512e-04,-3.085779899265617132e-04,6.518394351005554199e-01,2.436184510588645935e-02,1.000000000000000000e+00,1.089096040232107043e-04,0.000000000000000000e+00
2.195794820785522461e+00,4.281180114746093750e+02,-1.049769020080566406e+01,-1.049769020080566406e+01,5.279053002595901489e-02,1.797937316894531250e+02,-1.831054541980847716e-04,-7.642979621887207031e+00,2.763165161013603210e-02,-1.640080085962836165e-06,-5.599574089050292969e+00,1.967562362551689148e-02,-1.660159177845343947e-04,1.246173487743362784e-04,4.891253411769866943e-01,1.710826717317104340e-02,1.000000000000000000e+00,-2.670288040462764911e-06,0.000000000000000000e+00
2.195794820785522461e+00,4.281180114746093750e+02,-1.049769020080566406e+01,-1.049769020080566406e+01,5.279053002595901489e-02,1.797937316894531250e+02,-1.831054541980847716e-04,-7.642979621887207031e+00,2.763165161013603210e-02,-1.640080085962836165e-06,-5.599574089050292969e+00,1.967562362551689148e-02,-1.660159177845343947e-04,1.246173487743362784e-04,4.891253411769866943e-01,1.710826717317104340e-02,1.000000000000000000e+00,-2.670288040462764911e-06,0.000000000000000000e+00
2.195794820785522461e+00,4.281180114746093750e+02,-1.049769020080566406e+01,-1.049769020080566406e+01,5.279053002595901489e-02,1.797937316894531250e+02,-1.831054541980847716e-04,-7.642979621887207031e+00,2.763165161013603210e-02,-1.640080085962836165e-06,-5.599574089050292969e+00,1.967562362551689148e-02,-1.660159177845343947e-04,1.246173487743362784e-04,4.891253411769866943e-01,1.710826717317104340e-02,1.000000000000000000e+00,-2.670288040462764911e-06,0.000000000000000000e+00
2.195794820785522461e+00,4.281180114746093750e+02,-1.049769020080566406e+01,-1.049769020080566406e+01,5.279053002595901489e-02,1.797937316894531250e+02,-1.831054541980847716e-04,-7.642979621887207031e+00,2.763165161013603210e-02,-1.640080085962836165e-06,-5.599574089050292969e+00,1.967562362551689148e-02,-1.660159177845343947e-04,1.246173487743362784e-04,4.891253411769866943e-01,1.710826717317104340e-02,1.000000000000000000e+00,-2.670288040462764911e-06,0.000000000000000000e+00
2.195794820785522461e+00,4.281180114746093750e+02,-1.049769020080566406e+01,-1.049769020080566406e+01,5.279053002595901489e-02,1.797937316894531250e+02,-1.831054541980847716e-04,-7.642979621887207031e+00,2.763165161013603210e-02,-1.640080085962836165e-06,-5.599574089050292969e+00,1.967562362551689148e-02,-1.660159177845343947e-04,1.246173487743362784e-04,4.891253411769866943e-01,1.710826717317104340e-02,1.000000000000000000e+00,-2.670288040462764911e-06,0.000000000000000000e+00
2.195794820785522461e+00,4.281180114746093750e+02,-1.049769020080566406e+01,-1.049769020080566406e+01,5.279053002595901489e-02,1.797937316894531250e+02,-1.831054541980847716e-04,-7.642979621887207031e+00,2.763165161013603210e-02,-1.640080085962836165e-06,-5.599574089050292969e+00,1.967562362551689148e-02,-1.660159177845343947e-04,1.246173487743362784e-04,4.891253411769866943e-01,1.710826717317104340e-02,1.000000000000000000e+00,-2.670288040462764911e-06,0.000000000000000000e+00
2.195794820785522461e+00,4.281180114746093750e+02,-1.049769020080566406e+01,-1.049769020080566406e+01,5.279053002595901489e-02,1.797937316894531250e+02,-1.831054541980847716e-04,-7.642979621887207031e+00,2.763165161013603210e-02,-1.640080085962836165e-06,-5.599574089050292969e+00,1.967562362551689148e-02,-1.660159177845343947e-04,1.246173487743362784e-04,4.891253411769866943e-01,1.710826717317104340e-02,1.000000000000000000e+00,-2.670288040462764911e-06,0.000000000000000000e+00
2.195794820785522461e+00,4.281180114746093750e+02,-1.049769020080566406e+01,-1.049769020080566406e+01,5.279053002595901489e-02,1.797937316894531250e+02,-1.831054541980847716e-04,-7.642979621887207031e+00,2.763165161013603210e-02,-1.640080085962836165e-06,-5.599574089050292969e+00,1.967562362551689148e-02,-1.660159177845343947e-04,1.246173487743362784e-04,4.891253411769866943e-01,1.710826717317104340e-02,1.000000000000000000e+00,-2.670288040462764911e-06,0.000000000000000000e+00
2.195794820785522461e+00,4.281180114746093750e+02,-1.049769020080566406e+01,-1.049769020080566406e+01,5.279053002595901489e-02,1.797937316894531250e+02,-1.831054541980847716e-04,-7.642979621887207031e+00,2.763165161013603210e-02,-1.640080085962836165e-06,-5.599574089050292969e+00,1.967562362551689148e-02,-1.660159177845343947e-04,1.246173487743362784e-04,4.891253411769866943e-01,1.710826717317104340e-02,1.000000000000000000e+00,-2.670288040462764911e-06,0.000000000000000000e+00
2.195794820785522461e+00,4.281180114746093750e+02,-1.049769020080566406e+01,-1.049769020080566406e+01,5.279053002595901489e-02,1.797937316894531250e+02,-1.831054541980847716e-04,-7.642979621887207031e+00,2.763165161013603210e-02,-1.640080085962836165e-06,-5.599574089050292969e+00,1.967562362551689148e-02,-1.660159177845343947e-04,1.246173487743362784e-04,4.891253411769866943e-01,1.710826717317104340e-02,1.000000000000000000e+00,-2.670288040462764911e-06,0.000000000000000000e+00
2.374083757400512695e+00,4.277059631347656250e+02,-1.049619865417480469e+01,-1.049619865417480469e+01,7.621807605028152466e-02,1.797944946289062500e+02,-2.441406104480847716e-04,-7.832474231719970703e+00,2.833733335137367249e-02,-4.376784090709406883e-06,-1.062851190567016602e+00,3.958079032599925995e-03,-1.534982584416866302e-05,6.213727756403386593e-04,4.199529588222503662e-01,1.306385081261396408e-02,1.000000000000000000e+00,-3.452301098150201142e-05,0.000000000000000000e+00
2.374083757400512695e+00,4.277059631347656250e+02,-1.049619865417480469e+01,-1.049619865417480469e+01,7.621807605028152466e-02,1.797944946289062500e+02,-2.441406104480847716e-04,-7.832474231719970703e+00,2.833733335137367249e-02,-4.376784090709406883e-06,-1.062851190567016602e+00,3.958079032599925995e-03,-1.534982584416866302e-05,6.213727756403386593e-04,4.199529588222503662e-01,1.306385081261396408e-02,1.000000000000000000e+00,-3.452301098150201142e-05,0.000000000000000000e+00
2.374083757400512695e+00,4.277059631347656250e+02,-1.049619865417480469e+01,-1.049619865417480469e+01,7.621807605028152466e-02,1.797944946289062500e+02,-2.441406104480847716e-04,-7.832474231719970703e+00,2.833733335137367249e-02,-4.376784090709406883e-06,-1.062851190567016602e+00,3.958079032599925995e-03,-1.534982584416866302e-05,6.213727756403386593e-04,4.199529588222503662e-01,1.306385081261396408e-02,1.000000000000000000e+00,-3.452301098150201142e-05,0.000000000000000000e+00
2.447860002517700195e+00,4.269010009765625000e+02,-1.049328327178955078e+01,-1.049328327178955078e+01,1.128961890935897827e-01,1.797955627441406250e+02,-3.356933011673390865e-04,-8.200731277465820312e+00,2.961668930947780609e-02,-6.598326763196382672e-06,-4.991539478302001953e+00,1.734102889895439148e-02,-3.011189801327418536e-05,8.923385030357167125e-05,3.138075470924377441e-01,9.909509681165218353e-03,1.000000000000000000e+00,-4.711151268566027284e-05,0.000000000000000000e+00
2.447860002517700195e+00,4.269010009765625000e+02,-1.049328327178955078e+01,-1.049328327178955078e+01,1.128961890935897827e-01,1.797955627441406250e+02,-3.356933011673390865e-04,-8.200731277465820312e+00,2.961668930947780609e-02,-6.598326763196382672e-06,-4.991539478302001953e+00,1.734102889895439148e-02,-3.011189801327418536e-05,8.923385030357167125e-05,3.138075470924377441e-01,9.909509681165218353e-03,1.000000000000000000e+00,-4.711151268566027284e-05,0.000000000000000000e+00
2.500878810882568359e+00,4.262836608886718750e+02,-1.049104976654052734e+01,-1.049104976654052734e+01,1.322187930345535278e-01,1.797960662841796875e+02,-3.662108792923390865e-04,-8.477872848510742188e+00,3.064630739390850067e-02,-7.046613063721451908e-06,-5.227231025695800781e+00,1.941986382007598877e-02,-8.455231181869748980e-06,4.764249897561967373e-04,2.364435791969299316e-01,5.826666019856929779e-03,1.000000000000000000e+00,-7.266997999977320433e-05,0.000000000000000000e+00
2.500878810882568359e+00,4.262836608886718750e+02,-1.049104976654052734e+01,-1.049104976654052734e+01,1.322187930345535278e-01,1.797960662841796875e+02,-3.662108792923390865e-04,-8.477872848510742188e+00,3.064630739390850067e-02,-7.046613063721451908e-06,-5.227231025695800781e+00,1.941986382007598877e-02,-8.455231181869748980e-06,4.764249897561967373e-04,2.364435791969299316e-01,5.826666019856929779e-03,1.000000000000000000e+00,-7.266997999977320433e-05,0.000000000000000000e+00
2.500878810882568359e+00,4.258276977539062500e+02,-1.048939895629882812e+01,-1.048939895629882812e+01,1.426279991865158081e-01,1.797962188720703125e+02,-3.662108792923390865e-04,-8.667628288269042969e+00,3.138348087668418884e-02,-8.896601684682536870e-06,-3.199025630950927734e+00,1.242776960134506226e-02,-3.118835957138799131e-05,7.257241522893309593e-04,1.670539975166320801e-01,1.529068686068058014e-03,5.000000000000000000e-01,-9.288787987316027284e-05,0.000000000000000000e+00
2.560195446014404297e+00,4.258276977539062500e+02,-1.048939895629882812e+01,-1.048939895629882812e+01,1.426279991865158081e-01,1.797962188720703125e+02,-3.662108792923390865e-04,-8.667628288269042969e+00,3.138348087668418884e-02,-8.896601684682536870e-06,-3.199025630950927734e+00,1.242776960134506226e-02,-3.118835957138799131e-05,7.257241522893309593e-04,1.670539975166320801e-01,1.529068686068058014e-03,5.000000000000000000e-01,-9.288787987316027284e-05,0.000000000000000000e+00
2.560195446014404297e+00,4.258276977539062500e+02,-1.048939895629882812e+01,-1.048939895629882812e+01,1.426279991865158081e-01,1.797962188720703125e+02,-3.662108792923390865e-04,-8.667628288269042969e+00,3.138348087668418884e-02,-8.896601684682536870e-06,-3.199025630950927734e+00,1.242776960134506226e-02,-3.118835957138799131e-05,7.257241522893309593e-04,1.670539975166320801e-01,1.529068686068058014e-03,5.000000000000000000e-01,-9.288787987316027284e-05,0.000000000000000000e+00
2.618730545043945312e+00,4.253075561523437500e+02,-1.048751640319824219e+01,-1.048751640319824219e+01,1.469105333089828491e-01,1.797961883544921875e+02,-3.662109375000000000e-04,-8.818432807922363281e+00,3.190763294696807861e-02,-9.106239303946495056e-06,-2.576309204101562500e+00,8.954491466283798218e-03,-3.581400278562796302e-06,-1.924751559272408485e-04,4.722795449197292328e-03,-2.995458897203207016e-03,5.000000000000000000e-01,-8.449554297840222716e-05,0.000000000000000000e+00
2.618730545043945312e+00,4.253075561523437500e+02,-1.048751640319824219e+01,-1.048751640319824219e+01,1.469105333089828491e-01,1.797961883544921875e+02,-3.662109375000000000e-04,-8.818432807922363281e+00,3.190763294696807861e-02,-9.106239303946495056e-06,-2.576309204101562500e+00,8.954491466283798218e-03,-3.581400278562796302e-06,-1.924751559272408485e-04,4.722795449197292328e-03,-2.995458897203207016e-03,5.000000000000000000e-01,-8.449554297840222716e-05,0.000000000000000000e+00
2.677334070205688477e+00,4.247880859375000000e+02,-1.048563575744628906e+01,-1.048563575744628906e+01,1.406540721654891968e-01,1.797957611083984375e+02,-3.356933884788304567e-04,-8.901455879211425781e+00,3.224498406052589417e-02,-3.442260322117363103e-06,-1.416690707206726074e+00,5.756498780101537704e-03,9.664912067819386721e-05,-1.660012785578146577e-04,-1.706285029649734497e-01,-9.435749612748622894e-03,5.000000000000000000e-01,-9.002685692394152284e-05,0.000000000000000000e+00
2.677334070205688477e+00,4.247880859375000000e+02,-1.048563575744628906e+01,-1.048563575744628906e+01,1.406540721654891968e-01,1.797957611083984375e+02,-3.356933884788304567e-04,-8.901455879211425781e+00,3.224498406052589417e-02,-3.442260322117363103e-06,-1.416690707206726074e+00,5.756498780101537704e-03,9.664912067819386721e-05,-1.660012785578146577e-04,-1.706285029649734497e-01,-9.435749612748622894e-03,5.000000000000000000e-01,-9.002685692394152284e-05,0.000000000000000000e+00
2.677334070205688477e+00,4.247880859375000000e+02,-1.048563575744628906e+01,-1.048563575744628906e+01,1.406540721654891968e-01,1.797957611083984375e+02,-3.356933884788304567e-04,-8.901455879211425781e+00,3.224498406052589417e-02,-3.442260322117363103e-06,-1.416690707206726074e+00,5.756498780101537704e-03,9.664912067819386721e-05,-1.660012785578146577e-04,-1.706285029649734497e-01,-9.435749612748622894e-03,5.000000000000000000e-01,-9.002685692394152284e-05,0.000000000000000000e+00
2.677334070205688477e+00,4.247880859375000000e+02,-1.048563575744628906e+01,-1.048563575744628906e+01,1.406540721654891968e-01,1.797957611083984375e+02,-3.356933884788304567e-04,-8.901455879211425781e+00,3.224498406052589417e-02,-3.442260322117363103e-06,-1.416690707206726074e+00,5.756498780101537704e-03,9.664912067819386721e-05,-1.660012785578146577e-04,-1.706285029649734497e-01,-9.435749612748622894e-03,5.000000000000000000e-01,-9.002685692394152284e-05,0.000000000000000000e+00
2.755024909973144531e+00,4.242652893066406250e+02,-1.048374080657958984e+01,-1.048374080657958984e+01,1.254637390375137329e-01,1.797950286865234375e+02,-3.051756939385086298e-04,-8.930419921875000000e+00,3.242337331175804138e-02,-9.916759609041037038e-07,-3.728115558624267578e-01,2.296142745763063431e-03,3.154277146677486598e-05,1.575989008415490389e-04,-3.060265779495239258e-01,-1.504496298730373383e-02,5.000000000000000000e-01,-9.098053124034777284e-05,0.000000000000000000e+00
2.755024909973144531e+00,4.242652893066406250e+02,-1.048374080657958984e+01,-1.048374080657958984e+01,1.254637390375137329e-01,1.797950286865234375e+02,-3.051756939385086298e-04,-8.930419921875000000e+00,3.242337331175804138e-02,-9.916759609041037038e-07,-3.728115558624267578e-01,2.296142745763063431e-03,3.154277146677486598e-05,1.575989008415490389e-04,-3.060265779495239258e-01,-1.504496298730373383e-02,5.000000000000000000e-01,-9.098053124034777284e-05,0.000000000000000000e+00
2.755024909973144531e+00,4.242652893066406250e+02,-1.048374080657958984e+01,-1.048374080657958984e+01,1.254637390375137329e-01,1.797950286865234375e+02,-3.051756939385086298e-04,-8.930419921875000000e+00,3.242337331175804138e-02,-9.916759609041037038e-07,-3.728115558624267578e-01,2.296142745763063431e-03,3.154277146677486598e-05,1.575989008415490389e-04,-3.060265779495239258e-01,-1.504496298730373383e-02,5.000000000000000000e-01,-9.098053124034777284e-05,0.000000000000000000e+00
2.830169916152954102e+00,4.235725402832031250e+02,-1.048122501373291016e+01,-1.048122501373291016e+01,9.624419361352920532e-02,1.797935943603515625e+02,-1.525878469692543149e-04,-8.904173851013183594e+00,3.247683495283126831e-02,4.862983132625231519e-06,3.492723107337951660e-01,7.114463369362056255e-04,7.791148527758195996e-05,5.858735530637204647e-04,-4.075778424739837646e-01,-2.024490013718605042e-02,5.000000000000000000e-01,-8.869171142578125000e-05,0.000000000000000000e+00
2.830169916152954102e+00,4.235725402832031250e+02,-1.048122501373291016e+01,-1.048122501373291016e+01,9.624419361352920532e-02,1.797935943603515625e+02,-1.525878469692543149e-04,-8.904173851013183594e+00,3.247683495283126831e-02,4.862983132625231519e-06,3.492723107337951660e-01,7.114463369362056255e-04,7.791148527758195996e-05,5.858735530637204647e-04,-4.075778424739837646e-01,-2.024490013718605042e-02,5.000000000000000000e-01,-8.869171142578125000e-05,0.000000000000000000e+00
2.830169916152954102e+00,4.235725402832031250e+02,-1.048122501373291016e+01,-1.048122501373291016e+01,9.624419361352920532e-02,1.797935943603515625e+02,-1.525878469692543149e-04,-8.904173851013183594e+00,3.247683495283126831e-02,4.862983132625231519e-06,3.492723107337951660e-01,7.114463369362056255e-04,7.791148527758195996e-05,5.858735530637204647e-04,-4.075778424739837646e-01,-2.024490013718605042e-02,5.000000000000000000e-01,-8.869171142578125000e-05,0.000000000000000000e+00
2.830169916152954102e+00,4.235725402832031250e+02,-1.048122501373291016e+01,-1.048122501373291016e+01,9.624419361352920532e-02,1.797935943603515625e+02,-1.525878469692543149e-04,-8.904173851013183594e+00,3.247683495283126831e-02,4.862983132625231519e-06,3.492723107337951660e-01,7.114463369362056255e-04,7.791148527758195996e-05,5.858735530637204647e-04,-4.075778424739837646e-01,-2.024490013718605042e-02,5.000000000000000000e-01,-8.869171142578125000e-05,0.000000000000000000e+00
2.830169916152954102e+00,4.235725402832031250e+02,-1.048122501373291016e+01,-1.048122501373291016e+01,9.624419361352920532e-02,1.797935943603515625e+02,-1.525878469692543149e-04,-8.904173851013183594e+00,3.247683495283126831e-02,4.862983132625231519e-06,3.492723107337951660e-01,7.114463369362056255e-04,7.791148527758195996e-05,5.858735530637204647e-04,-4.075778424739837646e-01,-2.024490013718605042e-02,5.000000000000000000e-01,-8.869171142578125000e-05,0.000000000000000000e+00
2.917726278305053711e+00,4.229068298339843750e+02,-1.047880363464355469e+01,-1.047880363464355469e+01,6.453845649957656860e-02,1.797922058105468750e+02,-6.103515625000000000e-05,-8.829275131225585938e+00,3.222649544477462769e-02,5.339773451851215214e-06,8.554342985153198242e-01,-2.859181025996804237e-03,5.445524493552511558e-06,-2.307761460542678833e-04,-4.259240627288818359e-01,-1.742298901081085205e-02,5.000000000000000000e-01,-5.130767749506048858e-05,0.000000000000000000e+00
