# Time,X,Y,Z,Roll,Pitch,Yaw,Vx,Vy,Vz,Ax,Ay,Az,Wx,Wy,Wz,Throttle,Steer,Brake
0.000000000000000000e+00,6.141138076782226562e+00,-2.598374938964843750e+01,-2.598374938964843750e+01,1.308664213865995407e-02,-8.971125030517578125e+01,-6.002807989716529846e-02,1.847855374217033386e-02,-4.810934543609619141e+00,2.050777431577444077e-03,6.811674684286117554e-02,8.386679738759994507e-02,1.831518486142158508e-02,-8.769657015800476074e-01,7.406832575798034668e-01,3.878103971481323242e+00,1.000000000000000000e+00,1.020456943660974503e-02,0.000000000000000000e+00
1.045818328857421875e-01,6.141138076782226562e+00,-2.598374938964843750e+01,-2.598374938964843750e+01,1.308664213865995407e-02,-8.971125030517578125e+01,-6.002807989716529846e-02,1.847855374217033386e-02,-4.810934543609619141e+00,2.050777431577444077e-03,6.811674684286117554e-02,8.386679738759994507e-02,1.831518486142158508e-02,-8.769657015800476074e-01,7.406832575798034668e-01,3.878103971481323242e+00,1.000000000000000000e+00,1.020456943660974503e-02,0.000000000000000000e+00
1.045818328857421875e-01,6.141138076782226562e+00,-2.598374938964843750e+01,-2.598374938964843750e+01,1.308664213865995407e-02,-8.971125030517578125e+01,-6.002807989716529846e-02,1.847855374217033386e-02,-4.810934543609619141e+00,2.050777431577444077e-03,6.811674684286117554e-02,8.386679738759994507e-02,1.831518486142158508e-02,-8.769657015800476074e-01,7.406832575798034668e-01,3.878103971481323242e+00,1.000000000000000000e+00,1.020456943660974503e-02,0.000000000000000000e+00
1.045818328857421875e-01,6.141138076782226562e+00,-2.598374938964843750e+01,-2.598374938964843750e+01,1.308664213865995407e-02,-8.971125030517578125e+01,-6.002807989716529846e-02,1.847855374217033386e-02,-4.810934543609619141e+00,2.050777431577444077e-03,6.811674684286117554e-02,8.386679738759994507e-02,1.831518486142158508e-02,-8.769657015800476074e-01,7.406832575798034668e-01,3.878103971481323242e+00,1.000000000000000000e+00,1.020456943660974503e-02,0.000000000000000000e+00
1.045818328857421875e-01,6.141138076782226562e+00,-2.598374938964843750e+01,-2.598374938964843750e+01,1.308664213865995407e-02,-8.971125030517578125e+01,-6.002807989716529846e-02,1.847855374217033386e-02,-4.810934543609619141e+00,2.050777431577444077e-03,6.811674684286117554e-02,8.386679738759994507e-02,1.831518486142158508e-02,-8.769657015800476074e-01,7.406832575798034668e-01,3.878103971481323242e+00,1.000000000000000000e+00,1.020456943660974503e-02,0.000000000000000000e+00
1.045818328857421875e-01,6.141138076782226562e+00,-2.598374938964843750e+01,-2.598374938964843750e+01,1.308664213865995407e-02,-8.971125030517578125e+01,-6.002807989716529846e-02,1.847855374217033386e-02,-4.810934543609619141e+00,2.050777431577444077e-03,6.811674684286117554e-02,8.386679738759994507e-02,1.831518486142158508e-02,-8.769657015800476074e-01,7.406832575798034668e-01,3.878103971481323242e+00,1.000000000000000000e+00,1.020456943660974503e-02,0.000000000000000000e+00
1.045818328857421875e-01,6.143725872039794922e+00,-2.646721649169921875e+01,-2.646721649169921875e+01,2.912392467260360718e-02,-8.957488250732421875e+01,1.252922322601079941e-02,2.677796967327594757e-02,-4.776582717895507812e+00,-4.605860449373722076e-04,7.926178723573684692e-02,3.280697464942932129e-01,-2.398423850536346436e-02,-9.764892458915710449e-01,6.625847220420837402e-01,3.174707651138305664e+00,1.000000000000000000e+00,3.330739447847008705e-03,0.000000000000000000e+00
2.092907428741455078e-01,6.143725872039794922e+00,-2.646721649169921875e+01,-2.646721649169921875e+01,2.912392467260360718e-02,-8.957488250732421875e+01,1.252922322601079941e-02,2.677796967327594757e-02,-4.776582717895507812e+00,-4.605860449373722076e-04,7.926178723573684692e-02,3.280697464942932129e-01,-2.398423850536346436e-02,-9.764892458915710449e-01,6.625847220420837402e-01,3.174707651138305664e+00,1.000000000000000000e+00,3.330739447847008705e-03,0.000000000000000000e+00
2.092907428741455078e-01,6.143725872039794922e+00,-2.646721649169921875e+01,-2.646721649169921875e+01,2.912392467260360718e-02,-8.957488250732421875e+01,1.252922322601079941e-02,2.677796967327594757e-02,-4.776582717895507812e+00,-4.605860449373722076e-04,7.926178723573684692e-02,3.280697464942932129e-01,-2.398423850536346436e-02,-9.764892458915710449e-01,6.625847220420837402e-01,3.174707651138305664e+00,1.000000000000000000e+00,3.330739447847008705e-03,0.000000000000000000e+00
2.092907428741455078e-01,6.143725872039794922e+00,-2.646721649169921875e+01,-2.646721649169921875e+01,2.912392467260360718e-02,-8.957488250732421875e+01,1.252922322601079941e-02,2.677796967327594757e-02,-4.776582717895507812e+00,-4.605860449373722076e-04,7.926178723573684692e-02,3.280697464942932129e-01,-2.398423850536346436e-02,-9.764892458915710449e-01,6.625847220420837402e-01,3.174707651138305664e+00,1.000000000000000000e+00,3.330739447847008705e-03,0.000000000000000000e+00
2.092907428741455078e-01,6.143725872039794922e+00,-2.646721649169921875e+01,-2.646721649169921875e+01,2.912392467260360718e-02,-8.957488250732421875e+01,1.252922322601079941e-02,2.677796967327594757e-02,-4.776582717895507812e+00,-4.605860449373722076e-04,7.926178723573684692e-02,3.280697464942932129e-01,-2.398423850536346436e-02,-9.764892458915710449e-01,6.625847220420837402e-01,3.174707651138305664e+00,1.000000000000000000e+00,3.330739447847008705e-03,0.000000000000000000e+00
2.092907428741455078e-01,6.146843910217285156e+00,-2.694826889038085938e+01,-2.694826889038085938e+01,3.647320717573165894e-02,-8.951718139648437500e+01,6.575396656990051270e-02,3.289709985256195068e-02,-4.755369186401367188e+00,1.783455081749707460e-04,8.200544863939285278e-02,2.842929065227508545e-01,8.562633767724037170e-03,-8.489218950271606445e-01,3.992922604084014893e-01,2.002813339233398438e+00,1.000000000000000000e+00,-1.796722412109375000e-03,0.000000000000000000e+00
2.839093208312988281e-01,6.146843910217285156e+00,-2.694826889038085938e+01,-2.694826889038085938e+01,3.647320717573165894e-02,-8.951718139648437500e+01,6.575396656990051270e-02,3.289709985256195068e-02,-4.755369186401367188e+00,1.783455081749707460e-04,8.200544863939285278e-02,2.842929065227508545e-01,8.562633767724037170e-03,-8.489218950271606445e-01,3.992922604084014893e-01,2.002813339233398438e+00,1.000000000000000000e+00,-1.796722412109375000e-03,0.000000000000000000e+00
2.839093208312988281e-01,6.146843910217285156e+00,-2.694826889038085938e+01,-2.694826889038085938e+01,3.647320717573165894e-02,-8.951718139648437500e+01,6.575396656990051270e-02,3.289709985256195068e-02,-4.755369186401367188e+00,1.783455081749707460e-04,8.200544863939285278e-02,2.842929065227508545e-01,8.562633767724037170e-03,-8.489218950271606445e-01,3.992922604084014893e-01,2.002813339233398438e+00,1.000000000000000000e+00,-1.796722412109375000e-03,0.000000000000000000e+00
2.839093208312988281e-01,6.146843910217285156e+00,-2.694826889038085938e+01,-2.694826889038085938e+01,3.647320717573165894e-02,-8.951718139648437500e+01,6.575396656990051270e-02,3.289709985256195068e-02,-4.755369186401367188e+00,1.783455081749707460e-04,8.200544863939285278e-02,2.842929065227508545e-01,8.562633767724037170e-03,-8.489218950271606445e-01,3.992922604084014893e-01,2.002813339233398438e+00,1.000000000000000000e+00,-1.796722412109375000e-03,0.000000000000000000e+00
2.839093208312988281e-01,6.146843910217285156e+00,-2.694826889038085938e+01,-2.694826889038085938e+01,3.647320717573165894e-02,-8.951718139648437500e+01,6.575396656990051270e-02,3.289709985256195068e-02,-4.755369186401367188e+00,1.783455081749707460e-04,8.200544863939285278e-02,2.842929065227508545e-01,8.562633767724037170e-03,-8.489218950271606445e-01,3.992922604084014893e-01,2.002813339233398438e+00,1.000000000000000000e+00,-1.796722412109375000e-03,0.000000000000000000e+00
3.569011688232421875e-01,6.149281501770019531e+00,-2.730638122558593750e+01,-2.730638122558593750e+01,2.616645395755767822e-02,-8.954626464843750000e+01,8.564223349094390869e-02,3.594759479165077209e-02,-4.831963062286376953e+00,1.507257460616528988e-03,4.179226979613304138e-02,-1.049348354339599609e+00,1.820630766451358795e-02,8.357540965080261230e-01,1.709733456373214722e-01,-1.751242876052856445e+00,1.000000000000000000e+00,-3.957367036491632462e-03,0.000000000000000000e+00
3.569011688232421875e-01,6.149281501770019531e+00,-2.730638122558593750e+01,-2.730638122558593750e+01,2.616645395755767822e-02,-8.954626464843750000e+01,8.564223349094390869e-02,3.594759479165077209e-02,-4.831963062286376953e+00,1.507257460616528988e-03,4.179226979613304138e-02,-1.049348354339599609e+00,1.820630766451358795e-02,8.357540965080261230e-01,1.709733456373214722e-01,-1.751242876052856445e+00,1.000000000000000000e+00,-3.957367036491632462e-03,0.000000000000000000e+00
3.569011688232421875e-01,6.149281501770019531e+00,-2.730638122558593750e+01,-2.730638122558593750e+01,2.616645395755767822e-02,-8.954626464843750000e+01,8.564223349094390869e-02,3.594759479165077209e-02,-4.831963062286376953e+00,1.507257460616528988e-03,4.179226979613304138e-02,-1.049348354339599609e+00,1.820630766451358795e-02,8.357540965080261230e-01,1.709733456373214722e-01,-1.751242876052856445e+00,1.000000000000000000e+00,-3.957367036491632462e-03,0.000000000000000000e+00
3.569011688232421875e-01,6.149281501770019531e+00,-2.730638122558593750e+01,-2.730638122558593750e+01,2.616645395755767822e-02,-8.954626464843750000e+01,8.564223349094390869e-02,3.594759479165077209e-02,-4.831963062286376953e+00,1.507257460616528988e-03,4.179226979613304138e-02,-1.049348354339599609e+00,1.820630766451358795e-02,8.357540965080261230e-01,1.709733456373214722e-01,-1.751242876052856445e+00,1.000000000000000000e+00,-3.957367036491632462e-03,0.000000000000000000e+00
4.765405654907226562e-01,6.151899337768554688e+00,-2.765440940856933594e+01,-2.765440940856933594e+01,3.629562258720397949e-02,-8.955116271972656250e+01,8.875035494565963745e-02,3.618210181593894958e-02,-4.725993633270263672e+00,8.035058854147791862e-04,1.960115507245063782e-03,8.857402801513671875e-01,-5.882272962480783463e-03,-7.628684043884277344e-01,-4.448301345109939575e-02,1.091398835182189941e+00,1.000000000000000000e+00,-3.368631936609745026e-03,0.000000000000000000e+00
4.765405654907226562e-01,6.151899337768554688e+00,-2.765440940856933594e+01,-2.765440940856933594e+01,3.629562258720397949e-02,-8.955116271972656250e+01,8.875035494565963745e-02,3.618210181593894958e-02,-4.725993633270263672e+00,8.035058854147791862e-04,1.960115507245063782e-03,8.857402801513671875e-01,-5.882272962480783463e-03,-7.628684043884277344e-01,-4.448301345109939575e-02,1.091398835182189941e+00,1.000000000000000000e+00,-3.368631936609745026e-03,0.000000000000000000e+00
4.765405654907226562e-01,6.151899337768554688e+00,-2.765440940856933594e+01,-2.765440940856933594e+01,3.629562258720397949e-02,-8.955116271972656250e+01,8.875035494565963745e-02,3.618210181593894958e-02,-4.725993633270263672e+00,8.035058854147791862e-04,1.960115507245063782e-03,8.857402801513671875e-01,-5.882272962480783463e-03,-7.628684043884277344e-01,-4.448301345109939575e-02,1.091398835182189941e+00,1.000000000000000000e+00,-3.368631936609745026e-03,0.000000000000000000e+00
4.765405654907226562e-01,6.151899337768554688e+00,-2.765440940856933594e+01,-2.765440940856933594e+01,3.629562258720397949e-02,-8.955116271972656250e+01,8.875035494565963745e-02,3.618210181593894958e-02,-4.725993633270263672e+00,8.035058854147791862e-04,1.960115507245063782e-03,8.857402801513671875e-01,-5.882272962480783463e-03,-7.628684043884277344e-01,-4.448301345109939575e-02,1.091398835182189941e+00,1.000000000000000000e+00,-3.368631936609745026e-03,0.000000000000000000e+00
4.765405654907226562e-01,6.151899337768554688e+00,-2.765440940856933594e+01,-2.765440940856933594e+01,3.629562258720397949e-02,-8.955116271972656250e+01,8.875035494565963745e-02,3.618210181593894958e-02,-4.725993633270263672e+00,8.035058854147791862e-04,1.960115507245063782e-03,8.857402801513671875e-01,-5.882272962480783463e-03,-7.628684043884277344e-01,-4.448301345109939575e-02,1.091398835182189941e+00,1.000000000000000000e+00,-3.368631936609745026e-03,0.000000000000000000e+00
4.765405654907226562e-01,6.151899337768554688e+00,-2.765440940856933594e+01,-2.765440940856933594e+01,3.629562258720397949e-02,-8.955116271972656250e+01,8.875035494565963745e-02,3.618210181593894958e-02,-4.725993633270263672e+00,8.035058854147791862e-04,1.960115507245063782e-03,8.857402801513671875e-01,-5.882272962480783463e-03,-7.628684043884277344e-01,-4.448301345109939575e-02,1.091398835182189941e+00,1.000000000000000000e+00,-3.368631936609745026e-03,0.000000000000000000e+00
4.765405654907226562e-01,6.151899337768554688e+00,-2.765440940856933594e+01,-2.765440940856933594e+01,3.629562258720397949e-02,-8.955116271972656250e+01,8.875035494565963745e-02,3.618210181593894958e-02,-4.725993633270263672e+00,8.035058854147791862e-04,1.960115507245063782e-03,8.857402801513671875e-01,-5.882272962480783463e-03,-7.628684043884277344e-01,-4.448301345109939575e-02,1.091398835182189941e+00,1.000000000000000000e+00,-3.368631936609745026e-03,0.000000000000000000e+00
6.200885772705078125e-01,6.155361175537109375e+00,-2.812953948974609375e+01,-2.812953948974609375e+01,4.254524782299995422e-02,-8.959658813476562500e+01,7.034116983413696289e-02,3.384009376168251038e-02,-4.687037467956542969e+00,-8.696060394868254662e-04,-1.631515473127365112e-02,2.713807523250579834e-01,-1.165541727095842361e-02,-9.911417961120605469e-01,-2.917246222496032715e-01,1.837579011917114258e+00,1.000000000000000000e+00,-3.170013427734375000e-03,0.000000000000000000e+00
6.200885772705078125e-01,6.155361175537109375e+00,-2.812953948974609375e+01,-2.812953948974609375e+01,4.254524782299995422e-02,-8.959658813476562500e+01,7.034116983413696289e-02,3.384009376168251038e-02,-4.687037467956542969e+00,-8.696060394868254662e-04,-1.631515473127365112e-02,2.713807523250579834e-01,-1.165541727095842361e-02,-9.911417961120605469e-01,-2.917246222496032715e-01,1.837579011917114258e+00,1.000000000000000000e+00,-3.170013427734375000e-03,0.000000000000000000e+00
6.200885772705078125e-01,6.155361175537109375e+00,-2.812953948974609375e+01,-2.812953948974609375e+01,4.254524782299995422e-02,-8.959658813476562500e+01,7.034116983413696289e-02,3.384009376168251038e-02,-4.687037467956542969e+00,-8.696060394868254662e-04,-1.631515473127365112e-02,2.713807523250579834e-01,-1.165541727095842361e-02,-9.911417961120605469e-01,-2.917246222496032715e-01,1.837579011917114258e+00,1.000000000000000000e+00,-3.170013427734375000e-03,0.000000000000000000e+00
6.200885772705078125e-01,6.155361175537109375e+00,-2.812953948974609375e+01,-2.812953948974609375e+01,4.254524782299995422e-02,-8.959658813476562500e+01,7.034116983413696289e-02,3.384009376168251038e-02,-4.687037467956542969e+00,-8.696060394868254662e-04,-1.631515473127365112e-02,2.713807523250579834e-01,-1.165541727095842361e-02,-9.911417961120605469e-01,-2.917246222496032715e-01,1.837579011917114258e+00,1.000000000000000000e+00,-3.170013427734375000e-03,0.000000000000000000e+00
6.200885772705078125e-01,6.155361175537109375e+00,-2.812953948974609375e+01,-2.812953948974609375e+01,4.254524782299995422e-02,-8.959658813476562500e+01,7.034116983413696289e-02,3.384009376168251038e-02,-4.687037467956542969e+00,-8.696060394868254662e-04,-1.631515473127365112e-02,2.713807523250579834e-01,-1.165541727095842361e-02,-9.911417961120605469e-01,-2.917246222496032715e-01,1.837579011917114258e+00,1.000000000000000000e+00,-3.170013427734375000e-03,0.000000000000000000e+00
6.200885772705078125e-01,6.155361175537109375e+00,-2.812953948974609375e+01,-2.812953948974609375e+01,4.254524782299995422e-02,-8.959658813476562500e+01,7.034116983413696289e-02,3.384009376168251038e-02,-4.687037467956542969e+00,-8.696060394868254662e-04,-1.631515473127365112e-02,2.713807523250579834e-01,-1.165541727095842361e-02,-9.911417961120605469e-01,-2.917246222496032715e-01,1.837579011917114258e+00,1.000000000000000000e+00,-3.170013427734375000e-03,0.000000000000000000e+00
7.946169376373291016e-01,6.158506870269775391e+00,-2.860428810119628906e+01,-2.860428810119628906e+01,1.693203859031200409e-02,-8.967077636718750000e+01,3.753684833645820618e-02,3.105935081839561462e-02,-4.728023052215576172e+00,-1.072514060069806874e-04,-1.593290083110332489e-02,-2.348362356424331665e-01,4.368084482848644257e-03,-1.283780336380004883e-01,-3.678384721279144287e-01,2.234487608075141907e-02,1.000000000000000000e+00,-1.594289089553058147e-03,0.000000000000000000e+00
7.946169376373291016e-01,6.158506870269775391e+00,-2.860428810119628906e+01,-2.860428810119628906e+01,1.693203859031200409e-02,-8.967077636718750000e+01,3.753684833645820618e-02,3.105935081839561462e-02,-4.728023052215576172e+00,-1.072514060069806874e-04,-1.593290083110332489e-02,-2.348362356424331665e-01,4.368084482848644257e-03,-1.283780336380004883e-01,-3.678384721279144287e-01,2.234487608075141907e-02,1.000000000000000000e+00,-1.594289089553058147e-03,0.000000000000000000e+00
7.946169376373291016e-01,6.158506870269775391e+00,-2.860428810119628906e+01,-2.860428810119628906e+01,1.693203859031200409e-02,-8.967077636718750000e+01,3.753684833645820618e-02,3.105935081839561462e-02,-4.728023052215576172e+00,-1.072514060069806874e-04,-1.593290083110332489e-02,-2.348362356424331665e-01,4.368084482848644257e-03,-1.283780336380004883e-01,-3.678384721279144287e-01,2.234487608075141907e-02,1.000000000000000000e+00,-1.594289089553058147e-03,0.000000000000000000e+00
7.946169376373291016e-01,6.158506870269775391e+00,-2.860428810119628906e+01,-2.860428810119628906e+01,1.693203859031200409e-02,-8.967077636718750000e+01,3.753684833645820618e-02,3.105935081839561462e-02,-4.728023052215576172e+00,-1.072514060069806874e-04,-1.593290083110332489e-02,-2.348362356424331665e-01,4.368084482848644257e-03,-1.283780336380004883e-01,-3.678384721279144287e-01,2.234487608075141907e-02,1.000000000000000000e+00,-1.594289089553058147e-03,0.000000000000000000e+00
8.783230781555175781e-01,6.161304950714111328e+00,-2.909153747558593750e+01,-2.909153747558593750e+01,-1.033339276909828186e-01,-8.974200439453125000e+01,-3.356903325766324997e-04,2.622928284108638763e-02,-4.811875343322753906e+00,1.137734579970128834e-04,-5.770267173647880554e-02,-1.001746058464050293e+00,2.640485763549804688e-03,-5.230221152305603027e-01,-3.950234353542327881e-01,-1.738441467285156250e+00,1.000000000000000000e+00,1.022084499709308147e-03,0.000000000000000000e+00
8.783230781555175781e-01,6.161304950714111328e+00,-2.909153747558593750e+01,-2.909153747558593750e+01,-1.033339276909828186e-01,-8.974200439453125000e+01,-3.356903325766324997e-04,2.622928284108638763e-02,-4.811875343322753906e+00,1.137734579970128834e-04,-5.770267173647880554e-02,-1.001746058464050293e+00,2.640485763549804688e-03,-5.230221152305603027e-01,-3.950234353542327881e-01,-1.738441467285156250e+00,1.000000000000000000e+00,1.022084499709308147e-03,0.000000000000000000e+00
9.483780860900878906e-01,6.163573265075683594e+00,-2.949820327758789062e+01,-2.949820327758789062e+01,-1.084907203912734985e-01,-8.972984313964843750e+01,-2.496338263154029846e-02,2.464703097939491272e-02,-4.807242393493652344e+00,1.730029005557298660e-03,-2.258585020899772644e-02,6.613302975893020630e-02,2.307123504579067230e-02,-9.405074119567871094e-01,-2.381394356489181519e-01,-8.716712594032287598e-01,1.000000000000000000e+00,4.113769624382257462e-03,0.000000000000000000e+00
9.483780860900878906e-01,6.163573265075683594e+00,-2.949820327758789062e+01,-2.949820327758789062e+01,-1.084907203912734985e-01,-8.972984313964843750e+01,-2.496338263154029846e-02,2.464703097939491272e-02,-4.807242393493652344e+00,1.730029005557298660e-03,-2.258585020899772644e-02,6.613302975893020630e-02,2.307123504579067230e-02,-9.405074119567871094e-01,-2.381394356489181519e-01,-8.716712594032287598e-01,1.000000000000000000e+00,4.113769624382257462e-03,0.000000000000000000e+00
9.483780860900878906e-01,6.163573265075683594e+00,-2.949820327758789062e+01,-2.949820327758789062e+01,-1.084907203912734985e-01,-8.972984313964843750e+01,-2.496338263154029846e-02,2.464703097939491272e-02,-4.807242393493652344e+00,1.730029005557298660e-03,-2.258585020899772644e-02,6.613302975893020630e-02,2.307123504579067230e-02,-9.405074119567871094e-01,-2.381394356489181519e-01,-8.716712594032287598e-01,1.000000000000000000e+00,4.113769624382257462e-03,0.000000000000000000e+00
9.483780860900878906e-01,6.163573265075683594e+00,-2.949820327758789062e+01,-2.949820327758789062e+01,-1.084907203912734985e-01,-8.972984313964843750e+01,-2.496338263154029846e-02,2.464703097939491272e-02,-4.807242393493652344e+00,1.730029005557298660e-03,-2.258585020899772644e-02,6.613302975893020630e-02,2.307123504579067230e-02,-9.405074119567871094e-01,-2.381394356489181519e-01,-8.716712594032287598e-01,1.000000000000000000e+00,4.113769624382257462e-03,0.000000000000000000e+00
9.483780860900878906e-01,6.165501117706298828e+00,-2.983785247802734375e+01,-2.983785247802734375e+01,-9.585487097501754761e-02,-8.968618774414062500e+01,-3.463744372129440308e-02,2.512242272496223450e-02,-4.873462200164794922e+00,4.790302191395312548e-04,6.032966077327728271e-03,-8.403634428977966309e-01,-1.587581820785999298e-02,3.408229947090148926e-01,-7.211259752511978149e-02,1.460805177688598633e+00,1.000000000000000000e+00,4.089355468750000000e-03,0.000000000000000000e+00
1.027177095413208008e+00,6.165501117706298828e+00,-2.983785247802734375e+01,-2.983785247802734375e+01,-9.585487097501754761e-02,-8.968618774414062500e+01,-3.463744372129440308e-02,2.512242272496223450e-02,-4.873462200164794922e+00,4.790302191395312548e-04,6.032966077327728271e-03,-8.403634428977966309e-01,-1.587581820785999298e-02,3.408229947090148926e-01,-7.211259752511978149e-02,1.460805177688598633e+00,1.000000000000000000e+00,4.089355468750000000e-03,0.000000000000000000e+00
1.027177095413208008e+00,6.165501117706298828e+00,-2.983785247802734375e+01,-2.983785247802734375e+01,-9.585487097501754761e-02,-8.968618774414062500e+01,-3.463744372129440308e-02,2.512242272496223450e-02,-4.873462200164794922e+00,4.790302191395312548e-04,6.032966077327728271e-03,-8.403634428977966309e-01,-1.587581820785999298e-02,3.408229947090148926e-01,-7.211259752511978149e-02,1.460805177688598633e+00,1.000000000000000000e+00,4.089355468750000000e-03,0.000000000000000000e+00
1.095043420791625977e+00,6.167506694793701172e+00,-3.021715927124023438e+01,-3.021715927124023438e+01,-5.170452967286109924e-02,-8.967767333984375000e+01,-3.460693359375000000e-02,2.503038384020328522e-02,-4.764937400817871094e+00,-1.141015440225601196e-03,-1.356179011054337025e-03,1.599096417427062988e+00,-2.387112565338611603e-02,-1.255121588706970215e+00,3.633668646216392517e-02,-1.055838108062744141e+00,1.000000000000000000e+00,2.942657563835382462e-03,0.000000000000000000e+00
1.095043420791625977e+00,6.167506694793701172e+00,-3.021715927124023438e+01,-3.021715927124023438e+01,-5.170452967286109924e-02,-8.967767333984375000e+01,-3.460693359375000000e-02,2.503038384020328522e-02,-4.764937400817871094e+00,-1.141015440225601196e-03,-1.356179011054337025e-03,1.599096417427062988e+00,-2.387112565338611603e-02,-1.255121588706970215e+00,3.633668646216392517e-02,-1.055838108062744141e+00,1.000000000000000000e+00,2.942657563835382462e-03,0.000000000000000000e+00
1.095043420791625977e+00,6.167506694793701172e+00,-3.021715927124023438e+01,-3.021715927124023438e+01,-5.170452967286109924e-02,-8.967767333984375000e+01,-3.460693359375000000e-02,2.503038384020328522e-02,-4.764937400817871094e+00,-1.141015440225601196e-03,-1.356179011054337025e-03,1.599096417427062988e+00,-2.387112565338611603e-02,-1.255121588706970215e+00,3.633668646216392517e-02,-1.055838108062744141e+00,1.000000000000000000e+00,2.942657563835382462e-03,0.000000000000000000e+00
1.095043420791625977e+00,6.167506694793701172e+00,-3.021715927124023438e+01,-3.021715927124023438e+01,-5.170452967286109924e-02,-8.967767333984375000e+01,-3.460693359375000000e-02,2.503038384020328522e-02,-4.764937400817871094e+00,-1.141015440225601196e-03,-1.356179011054337025e-03,1.599096417427062988e+00,-2.387112565338611603e-02,-1.255121588706970215e+00,3.633668646216392517e-02,-1.055838108062744141e+00,1.000000000000000000e+00,2.942657563835382462e-03,0.000000000000000000e+00
1.168572425842285156e+00,6.169442653656005859e+00,-3.054476928710937500e+01,-3.054476928710937500e+01,-5.257879197597503662e-02,-8.963204956054687500e+01,-2.673339843750000000e-02,2.805452980101108551e-02,-4.882843971252441406e+00,1.004902762360870838e-03,4.112860932946205139e-02,-1.603538155555725098e+00,2.918464690446853638e-02,1.034015655517578125e+00,1.725868731737136841e-01,6.720111966133117676e-01,1.000000000000000000e+00,2.765401266515254974e-03,0.000000000000000000e+00
1.168572425842285156e+00,6.169442653656005859e+00,-3.054476928710937500e+01,-3.054476928710937500e+01,-5.257879197597503662e-02,-8.963204956054687500e+01,-2.673339843750000000e-02,2.805452980101108551e-02,-4.882843971252441406e+00,1.004902762360870838e-03,4.112860932946205139e-02,-1.603538155555725098e+00,2.918464690446853638e-02,1.034015655517578125e+00,1.725868731737136841e-01,6.720111966133117676e-01,1.000000000000000000e+00,2.765401266515254974e-03,0.000000000000000000e+00
1.168572425842285156e+00,6.169442653656005859e+00,-3.054476928710937500e+01,-3.054476928710937500e+01,-5.257879197597503662e-02,-8.963204956054687500e+01,-2.673339843750000000e-02,2.805452980101108551e-02,-4.882843971252441406e+00,1.004902762360870838e-03,4.112860932946205139e-02,-1.603538155555725098e+00,2.918464690446853638e-02,1.034015655517578125e+00,1.725868731737136841e-01,6.720111966133117676e-01,1.000000000000000000e+00,2.765401266515254974e-03,0.000000000000000000e+00
1.168572425842285156e+00,6.169442653656005859e+00,-3.054476928710937500e+01,-3.054476928710937500e+01,-5.257879197597503662e-02,-8.963204956054687500e+01,-2.673339843750000000e-02,2.805452980101108551e-02,-4.882843971252441406e+00,1.004902762360870838e-03,4.112860932946205139e-02,-1.603538155555725098e+00,2.918464690446853638e-02,1.034015655517578125e+00,1.725868731737136841e-01,6.720111966133117676e-01,1.000000000000000000e+00,2.765401266515254974e-03,0.000000000000000000e+00
1.168572425842285156e+00,6.171291351318359375e+00,-3.090541267395019531e+01,-3.090541267395019531e+01,-1.074457019567489624e-01,-8.969176483154296875e+01,-1.486206427216529846e-02,2.804895117878913879e-02,-4.915831089019775391e+00,-2.139778109267354012e-03,-7.433361315634101629e-05,-4.395443201065063477e-01,-4.190201312303543091e-02,5.120298862457275391e-01,1.252950131893157959e-01,-2.072177380323410034e-01,1.000000000000000000e+00,1.521301222965121269e-03,0.000000000000000000e+00
1.243620872497558594e+00,6.171291351318359375e+00,-3.090541267395019531e+01,-3.090541267395019531e+01,-1.074457019567489624e-01,-8.969176483154296875e+01,-1.486206427216529846e-02,2.804895117878913879e-02,-4.915831089019775391e+00,-2.139778109267354012e-03,-7.433361315634101629e-05,-4.395443201065063477e-01,-4.190201312303543091e-02,5.120298862457275391e-01,1.252950131893157959e-01,-2.072177380323410034e-01,1.000000000000000000e+00,1.521301222965121269e-03,0.000000000000000000e+00
1.243620872497558594e+00,6.171291351318359375e+00,-3.090541267395019531e+01,-3.090541267395019531e+01,-1.074457019567489624e-01,-8.969176483154296875e+01,-1.486206427216529846e-02,2.804895117878913879e-02,-4.915831089019775391e+00,-2.139778109267354012e-03,-7.433361315634101629e-05,-4.395443201065063477e-01,-4.190201312303543091e-02,5.120298862457275391e-01,1.252950131893157959e-01,-2.072177380323410034e-01,1.000000000000000000e+00,1.521301222965121269e-03,0.000000000000000000e+00
1.243620872497558594e+00,6.171291351318359375e+00,-3.090541267395019531e+01,-3.090541267395019531e+01,-1.074457019567489624e-01,-8.969176483154296875e+01,-1.486206427216529846e-02,2.804895117878913879e-02,-4.915831089019775391e+00,-2.139778109267354012e-03,-7.433361315634101629e-05,-4.395443201065063477e-01,-4.190201312303543091e-02,5.120298862457275391e-01,1.252950131893157959e-01,-2.072177380323410034e-01,1.000000000000000000e+00,1.521301222965121269e-03,0.000000000000000000e+00
1.312042951583862305e+00,6.173026084899902344e+00,-3.127858543395996094e+01,-3.127858543395996094e+01,-1.750440746545791626e-01,-8.979045867919921875e+01,-7.812505587935447693e-03,2.762508019804954529e-02,-5.101208209991455078e+00,-4.658419173210859299e-03,-6.194944493472576141e-03,-2.709317445755004883e+00,-3.681035712361335754e-02,2.752124071121215820e+00,5.603584274649620056e-02,4.070107340812683105e-01,1.000000000000000000e+00,3.607177641242742538e-03,0.000000000000000000e+00
1.312042951583862305e+00,6.173026084899902344e+00,-3.127858543395996094e+01,-3.127858543395996094e+01,-1.750440746545791626e-01,-8.979045867919921875e+01,-7.812505587935447693e-03,2.762508019804954529e-02,-5.101208209991455078e+00,-4.658419173210859299e-03,-6.194944493472576141e-03,-2.709317445755004883e+00,-3.681035712361335754e-02,2.752124071121215820e+00,5.603584274649620056e-02,4.070107340812683105e-01,1.000000000000000000e+00,3.607177641242742538e-03,0.000000000000000000e+00
1.312042951583862305e+00,6.174015998840332031e+00,-3.161835861206054688e+01,-3.161835861206054688e+01,-1.608577817678451538e-01,-9.000098419189453125e+01,-1.095579937100410461e-02,2.317033894360065460e-02,-4.875826835632324219e+00,5.688270088285207748e-03,-6.266656517982482910e-02,3.170526981353759766e+00,1.455508768558502197e-01,-2.173261165618896484e+00,-1.249442324042320251e-01,-7.018817424774169922e+00,1.000000000000000000e+00,8.045959286391735077e-03,0.000000000000000000e+00
1.383129358291625977e+00,6.174015998840332031e+00,-3.161835861206054688e+01,-3.161835861206054688e+01,-1.608577817678451538e-01,-9.000098419189453125e+01,-1.095579937100410461e-02,2.317033894360065460e-02,-4.875826835632324219e+00,5.688270088285207748e-03,-6.266656517982482910e-02,3.170526981353759766e+00,1.455508768558502197e-01,-2.173261165618896484e+00,-1.249442324042320251e-01,-7.018817424774169922e+00,1.000000000000000000e+00,8.045959286391735077e-03,0.000000000000000000e+00
1.383129358291625977e+00,6.174015998840332031e+00,-3.161835861206054688e+01,-3.161835861206054688e+01,-1.608577817678451538e-01,-9.000098419189453125e+01,-1.095579937100410461e-02,2.317033894360065460e-02,-4.875826835632324219e+00,5.688270088285207748e-03,-6.266656517982482910e-02,3.170526981353759766e+00,1.455508768558502197e-01,-2.173261165618896484e+00,-1.249442324042320251e-01,-7.018817424774169922e+00,1.000000000000000000e+00,8.045959286391735077e-03,0.000000000000000000e+00
1.450951814651489258e+00,6.175130367279052734e+00,-3.197307586669921875e+01,-3.197307586669921875e+01,-1.591502279043197632e-01,-9.008753204345703125e+01,-2.566527575254440308e-02,1.721824519336223602e-02,-5.109154701232910156e+00,-5.715673323720693588e-03,-8.775992691516876221e-02,-3.440274477005004883e+00,-1.681440621614456177e-01,2.098793745040893555e+00,-2.146081179380416870e-01,1.500179767608642578e+00,1.000000000000000000e+00,1.662368699908256531e-02,0.000000000000000000e+00
1.450951814651489258e+00,6.175130367279052734e+00,-3.197307586669921875e+01,-3.197307586669921875e+01,-1.591502279043197632e-01,-9.008753204345703125e+01,-2.566527575254440308e-02,1.721824519336223602e-02,-5.109154701232910156e+00,-5.715673323720693588e-03,-8.775992691516876221e-02,-3.440274477005004883e+00,-1.681440621614456177e-01,2.098793745040893555e+00,-2.146081179380416870e-01,1.500179767608642578e+00,1.000000000000000000e+00,1.662368699908256531e-02,0.000000000000000000e+00
1.450951814651489258e+00,6.175130367279052734e+00,-3.197307586669921875e+01,-3.197307586669921875e+01,-1.591502279043197632e-01,-9.008753204345703125e+01,-2.566527575254440308e-02,1.721824519336223602e-02,-5.109154701232910156e+00,-5.715673323720693588e-03,-8.775992691516876221e-02,-3.440274477005004883e+00,-1.681440621614456177e-01,2.098793745040893555e+00,-2.146081179380416870e-01,1.500179767608642578e+00,1.000000000000000000e+00,1.662368699908256531e-02,0.000000000000000000e+00
1.527701377868652344e+00,6.175624370574951172e+00,-3.230889511108398438e+01,-3.230889511108398438e+01,-9.957049041986465454e-02,-9.025393676757812500e+01,-4.171752929687500000e-02,1.324174180626869202e-02,-4.843472957611083984e+00,4.582079127430915833e-03,-5.181141570210456848e-02,3.461671113967895508e+00,1.341734379529953003e-01,-2.783536195755004883e+00,-2.556415200233459473e-01,-5.399026870727539062e+00,1.000000000000000000e+00,2.274424210190773010e-02,0.000000000000000000e+00
1.527701377868652344e+00,6.175624370574951172e+00,-3.230889511108398438e+01,-3.230889511108398438e+01,-9.957049041986465454e-02,-9.025393676757812500e+01,-4.171752929687500000e-02,1.324174180626869202e-02,-4.843472957611083984e+00,4.582079127430915833e-03,-5.181141570210456848e-02,3.461671113967895508e+00,1.341734379529953003e-01,-2.783536195755004883e+00,-2.556415200233459473e-01,-5.399026870727539062e+00,1.000000000000000000e+00,2.274424210190773010e-02,0.000000000000000000e+00
1.527701377868652344e+00,6.175624370574951172e+00,-3.230889511108398438e+01,-3.230889511108398438e+01,-9.957049041986465454e-02,-9.025393676757812500e+01,-4.171752929687500000e-02,1.324174180626869202e-02,-4.843472957611083984e+00,4.582079127430915833e-03,-5.181141570210456848e-02,3.461671113967895508e+00,1.341734379529953003e-01,-2.783536195755004883e+00,-2.556415200233459473e-01,-5.399026870727539062e+00,1.000000000000000000e+00,2.274424210190773010e-02,0.000000000000000000e+00
1.600134611129760742e+00,6.178020000457763672e+00,-3.268465805053710938e+01,-3.268465805053710938e+01,-1.010867999866604805e-03,-8.985301971435546875e+01,-5.044554546475410461e-02,1.568855158984661102e-02,-4.727956771850585938e+00,6.238169968128204346e-03,3.378020972013473511e-02,1.594795346260070801e+00,2.286368794739246368e-02,-3.846059322357177734e+00,9.822585433721542358e-02,1.148197364807128906e+01,1.000000000000000000e+00,3.143005445599555969e-02,0.000000000000000000e+00
1.600134611129760742e+00,6.178020000457763672e+00,-3.268465805053710938e+01,-3.268465805053710938e+01,-1.010867999866604805e-03,-8.985301971435546875e+01,-5.044554546475410461e-02,1.568855158984661102e-02,-4.727956771850585938e+00,6.238169968128204346e-03,3.378020972013473511e-02,1.594795346260070801e+00,2.286368794739246368e-02,-3.846059322357177734e+00,9.822585433721542358e-02,1.148197364807128906e+01,1.000000000000000000e+00,3.143005445599555969e-02,0.000000000000000000e+00
1.600134611129760742e+00,6.178020000457763672e+00,-3.268465805053710938e+01,-3.268465805053710938e+01,-1.010867999866604805e-03,-8.985301971435546875e+01,-5.044554546475410461e-02,1.568855158984661102e-02,-4.727956771850585938e+00,6.238169968128204346e-03,3.378020972013473511e-02,1.594795346260070801e+00,2.286368794739246368e-02,-3.846059322357177734e+00,9.822585433721542358e-02,1.148197364807128906e+01,1.000000000000000000e+00,3.143005445599555969e-02,0.000000000000000000e+00
1.600134611129760742e+00,6.178020000457763672e+00,-3.268465805053710938e+01,-3.268465805053710938e+01,-1.010867999866604805e-03,-8.985301971435546875e+01,-5.044554546475410461e-02,1.568855158984661102e-02,-4.727956771850585938e+00,6.238169968128204346e-03,3.378020972013473511e-02,1.594795346260070801e+00,2.286368794739246368e-02,-3.846059322357177734e+00,9.822585433721542358e-02,1.148197364807128906e+01,1.000000000000000000e+00,3.143005445599555969e-02,0.000000000000000000e+00
1.600134611129760742e+00,6.178020000457763672e+00,-3.268465805053710938e+01,-3.268465805053710938e+01,-1.010867999866604805e-03,-8.985301971435546875e+01,-5.044554546475410461e-02,1.568855158984661102e-02,-4.727956771850585938e+00,6.238169968128204346e-03,3.378020972013473511e-02,1.594795346260070801e+00,2.286368794739246368e-02,-3.846059322357177734e+00,9.822585433721542358e-02,1.148197364807128906e+01,1.000000000000000000e+00,3.143005445599555969e-02,0.000000000000000000e+00
1.600134611129760742e+00,6.179531097412109375e+00,-3.304085922241210938e+01,-3.304085922241210938e+01,-7.444905582815408707e-03,-8.972753143310546875e+01,-4.385375231504440308e-02,1.461905892938375473e-02,-4.975053787231445312e+00,-4.367052577435970306e-03,-9.269398637115955353e-03,-2.141614198684692383e+00,-9.191651642322540283e-02,1.440384984016418457e+00,9.142498672008514404e-02,2.294416189193725586e+00,1.000000000000000000e+00,0.000000000000000000e+00,0.000000000000000000e+00
1.715513467788696289e+00,6.179531097412109375e+00,-3.304085922241210938e+01,-3.304085922241210938e+01,-7.444905582815408707e-03,-8.972753143310546875e+01,-4.385375231504440308e-02,1.461905892938375473e-02,-4.975053787231445312e+00,-4.367052577435970306e-03,-9.269398637115955353e-03,-2.141614198684692383e+00,-9.191651642322540283e-02,1.440384984016418457e+00,9.142498672008514404e-02,2.294416189193725586e+00,1.000000000000000000e+00,0.000000000000000000e+00,0.000000000000000000e+00
1.715513467788696289e+00,6.179531097412109375e+00,-3.304085922241210938e+01,-3.304085922241210938e+01,-7.444905582815408707e-03,-8.972753143310546875e+01,-4.385375231504440308e-02,1.461905892938375473e-02,-4.975053787231445312e+00,-4.367052577435970306e-03,-9.269398637115955353e-03,-2.141614198684692383e+00,-9.191651642322540283e-02,1.440384984016418457e+00,9.142498672008514404e-02,2.294416189193725586e+00,1.000000000000000000e+00,0.000000000000000000e+00,0.000000000000000000e+00
1.715513467788696289e+00,6.179531097412109375e+00,-3.304085922241210938e+01,-3.304085922241210938e+01,-7.444905582815408707e-03,-8.972753143310546875e+01,-4.385375231504440308e-02,1.461905892938375473e-02,-4.975053787231445312e+00,-4.367052577435970306e-03,-9.269398637115955353e-03,-2.141614198684692383e+00,-9.191651642322540283e-02,1.440384984016418457e+00,9.142498672008514404e-02,2.294416189193725586e+00,1.000000000000000000e+00,0.000000000000000000e+00,0.000000000000000000e+00
1.813115119934082031e+00,6.181583881378173828e+00,-3.353358840942382812e+01,-3.353358840942382812e+01,-2.914441563189029694e-02,-8.963186645507812500e+01,-1.916503533720970154e-02,2.093853428959846497e-02,-5.016886234283447266e+00,-6.683856714516878128e-03,6.474763154983520508e-02,-4.286038875579833984e-01,-2.373734675347805023e-02,2.088263511657714844e+00,3.067481219768524170e-01,1.140904664993286133e+00,1.000000000000000000e+00,0.000000000000000000e+00,0.000000000000000000e+00
1.813115119934082031e+00,6.181583881378173828e+00,-3.353358840942382812e+01,-3.353358840942382812e+01,-2.914441563189029694e-02,-8.963186645507812500e+01,-1.916503533720970154e-02,2.093853428959846497e-02,-5.016886234283447266e+00,-6.683856714516878128e-03,6.474763154983520508e-02,-4.286038875579833984e-01,-2.373734675347805023e-02,2.088263511657714844e+00,3.067481219768524170e-01,1.140904664993286133e+00,1.000000000000000000e+00,0.000000000000000000e+00,0.000000000000000000e+00
1.813115119934082031e+00,6.181583881378173828e+00,-3.353358840942382812e+01,-3.353358840942382812e+01,-2.914441563189029694e-02,-8.963186645507812500e+01,-1.916503533720970154e-02,2.093853428959846497e-02,-5.016886234283447266e+00,-6.683856714516878128e-03,6.474763154983520508e-02,-4.286038875579833984e-01,-2.373734675347805023e-02,2.088263511657714844e+00,3.067481219768524170e-01,1.140904664993286133e+00,1.000000000000000000e+00,0.000000000000000000e+00,0.000000000000000000e+00
1.813115119934082031e+00,6.181583881378173828e+00,-3.353358840942382812e+01,-3.353358840942382812e+01,-2.914441563189029694e-02,-8.963186645507812500e+01,-1.916503533720970154e-02,2.093853428959846497e-02,-5.016886234283447266e+00,-6.683856714516878128e-03,6.474763154983520508e-02,-4.286038875579833984e-01,-2.373734675347805023e-02,2.088263511657714844e+00,3.067481219768524170e-01,1.140904664993286133e+00,1.000000000000000000e+00,0.000000000000000000e+00,0.000000000000000000e+00
1.896134853363037109e+00,6.183576583862304688e+00,-3.401370620727539062e+01,-3.401370620727539062e+01,-4.953252896666526794e-02,-8.966950225830078125e+01,1.057000458240509033e-02,2.509290724992752075e-02,-4.997958183288574219e+00,-2.675650874152779579e-03,5.004078894853591919e-02,2.279946058988571167e-01,4.828015714883804321e-02,1.354529142379760742e+00,2.993008494377136230e-01,2.652246952056884766e+00,1.000000000000000000e+00,6.307220552116632462e-03,0.000000000000000000e+00
1.896134853363037109e+00,6.183576583862304688e+00,-3.401370620727539062e+01,-3.401370620727539062e+01,-4.953252896666526794e-02,-8.966950225830078125e+01,1.057000458240509033e-02,2.509290724992752075e-02,-4.997958183288574219e+00,-2.675650874152779579e-03,5.004078894853591919e-02,2.279946058988571167e-01,4.828015714883804321e-02,1.354529142379760742e+00,2.993008494377136230e-01,2.652246952056884766e+00,1.000000000000000000e+00,6.307220552116632462e-03,0.000000000000000000e+00
1.896134853363037109e+00,6.183576583862304688e+00,-3.401370620727539062e+01,-3.401370620727539062e+01,-4.953252896666526794e-02,-8.966950225830078125e+01,1.057000458240509033e-02,2.509290724992752075e-02,-4.997958183288574219e+00,-2.675650874152779579e-03,5.004078894853591919e-02,2.279946058988571167e-01,4.828015714883804321e-02,1.354529142379760742e+00,2.993008494377136230e-01,2.652246952056884766e+00,1.000000000000000000e+00,6.307220552116632462e-03,0.000000000000000000e+00
1.896134853363037109e+00,6.183576583862304688e+00,-3.401370620727539062e+01,-3.401370620727539062e+01,-4.953252896666526794e-02,-8.966950225830078125e+01,1.057000458240509033e-02,2.509290724992752075e-02,-4.997958183288574219e+00,-2.675650874152779579e-03,5.004078894853591919e-02,2.279946058988571167e-01,4.828015714883804321e-02,1.354529142379760742e+00,2.993008494377136230e-01,2.652246952056884766e+00,1.000000000000000000e+00,6.307220552116632462e-03,0.000000000000000000e+00
1.896134853363037109e+00,6.183576583862304688e+00,-3.401370620727539062e+01,-3.401370620727539062e+01,-4.953252896666526794e-02,-8.966950225830078125e+01,1.057000458240509033e-02,2.509290724992752075e-02,-4.997958183288574219e+00,-2.675650874152779579e-03,5.004078894853591919e-02,2.279946058988571167e-01,4.828015714883804321e-02,1.354529142379760742e+00,2.993008494377136230e-01,2.652246952056884766e+00,1.000000000000000000e+00,6.307220552116632462e-03,0.000000000000000000e+00
1.896134853363037109e+00,6.183576583862304688e+00,-3.401370620727539062e+01,-3.401370620727539062e+01,-4.953252896666526794e-02,-8.966950225830078125e+01,1.057000458240509033e-02,2.509290724992752075e-02,-4.997958183288574219e+00,-2.675650874152779579e-03,5.004078894853591919e-02,2.279946058988571167e-01,4.828015714883804321e-02,1.354529142379760742e+00,2.993008494377136230e-01,2.652246952056884766e+00,1.000000000000000000e+00,6.307220552116632462e-03,0.000000000000000000e+00
1.896134853363037109e+00,6.183576583862304688e+00,-3.401370620727539062e+01,-3.401370620727539062e+01,-4.953252896666526794e-02,-8.966950225830078125e+01,1.057000458240509033e-02,2.509290724992752075e-02,-4.997958183288574219e+00,-2.675650874152779579e-03,5.004078894853591919e-02,2.279946058988571167e-01,4.828015714883804321e-02,1.354529142379760742e+00,2.993008494377136230e-01,2.652246952056884766e+00,1.000000000000000000e+00,6.307220552116632462e-03,0.000000000000000000e+00
2.195794820785522461e+00,6.192437648773193359e+00,-3.533708190917968750e+01,-3.533708190917968750e+01,-4.063962493091821671e-03,-8.948110961914062500e+01,6.212377548217773438e-02,3.648134320974349976e-02,-4.828214645385742188e+00,1.441611326299607754e-03,6.571199744939804077e-02,3.277461528778076172e-01,3.619799762964248657e-02,-8.853506445884704590e-01,8.831100910902023315e-02,-3.058415651321411133e-01,1.000000000000000000e+00,4.601033404469490051e-03,0.000000000000000000e+00
2.195794820785522461e+00,6.192437648773193359e+00,-3.533708190917968750e+01,-3.533708190917968750e+01,-4.063962493091821671e-03,-8.948110961914062500e+01,6.212377548217773438e-02,3.648134320974349976e-02,-4.828214645385742188e+00,1.441611326299607754e-03,6.571199744939804077e-02,3.277461528778076172e-01,3.619799762964248657e-02,-8.853506445884704590e-01,8.831100910902023315e-02,-3.058415651321411133e-01,1.000000000000000000e+00,4.601033404469490051e-03,0.000000000000000000e+00
2.195794820785522461e+00,6.192437648773193359e+00,-3.533708190917968750e+01,-3.533708190917968750e+01,-4.063962493091821671e-03,-8.948110961914062500e+01,6.212377548217773438e-02,3.648134320974349976e-02,-4.828214645385742188e+00,1.441611326299607754e-03,6.571199744939804077e-02,3.277461528778076172e-01,3.619799762964248657e-02,-8.853506445884704590e-01,8.831100910902023315e-02,-3.058415651321411133e-01,1.000000000000000000e+00,4.601033404469490051e-03,0.000000000000000000e+00
2.195794820785522461e+00,6.192437648773193359e+00,-3.533708190917968750e+01,-3.533708190917968750e+01,-4.063962493091821671e-03,-8.948110961914062500e+01,6.212377548217773438e-02,3.648134320974349976e-02,-4.828214645385742188e+00,1.441611326299607754e-03,6.571199744939804077e-02,3.277461528778076172e-01,3.619799762964248657e-02,-8.853506445884704590e-01,8.831100910902023315e-02,-3.058415651321411133e-01,1.000000000000000000e+00,4.601033404469490051e-03,0.000000000000000000e+00
2.195794820785522461e+00,6.192437648773193359e+00,-3.533708190917968750e+01,-3.533708190917968750e+01,-4.063962493091821671e-03,-8.948110961914062500e+01,6.212377548217773438e-02,3.648134320974349976e-02,-4.828214645385742188e+00,1.441611326299607754e-03,6.571199744939804077e-02,3.277461528778076172e-01,3.619799762964248657e-02,-8.853506445884704590e-01,8.831100910902023315e-02,-3.058415651321411133e-01,1.000000000000000000e+00,4.601033404469490051e-03,0.000000000000000000e+00
2.195794820785522461e+00,6.192437648773193359e+00,-3.533708190917968750e+01,-3.533708190917968750e+01,-4.063962493091821671e-03,-8.948110961914062500e+01,6.212377548217773438e-02,3.648134320974349976e-02,-4.828214645385742188e+00,1.441611326299607754e-03,6.571199744939804077e-02,3.277461528778076172e-01,3.619799762964248657e-02,-8.853506445884704590e-01,8.831100910902023315e-02,-3.058415651321411133e-01,1.000000000000000000e+00,4.601033404469490051e-03,0.000000000000000000e+00
2.195794820785522461e+00,6.192437648773193359e+00,-3.533708190917968750e+01,-3.533708190917968750e+01,-4.063962493091821671e-03,-8.948110961914062500e+01,6.212377548217773438e-02,3.648134320974349976e-02,-4.828214645385742188e+00,1.441611326299607754e-03,6.571199744939804077e-02,3.277461528778076172e-01,3.619799762964248657e-02,-8.853506445884704590e-01,8.831100910902023315e-02,-3.058415651321411133e-01,1.000000000000000000e+00,4.601033404469490051e-03,0.000000000000000000e+00
2.195794820785522461e+00,6.192437648773193359e+00,-3.533708190917968750e+01,-3.533708190917968750e+01,-4.063962493091821671e-03,-8.948110961914062500e+01,6.212377548217773438e-02,3.648134320974349976e-02,-4.828214645385742188e+00,1.441611326299607754e-03,6.571199744939804077e-02,3.277461528778076172e-01,3.619799762964248657e-02,-8.853506445884704590e-01,8.831100910902023315e-02,-3.058415651321411133e-01,1.000000000000000000e+00,4.601033404469490051e-03,0.000000000000000000e+00
2.195794820785522461e+00,6.192437648773193359e+00,-3.533708190917968750e+01,-3.533708190917968750e+01,-4.063962493091821671e-03,-8.948110961914062500e+01,6.212377548217773438e-02,3.648134320974349976e-02,-4.828214645385742188e+00,1.441611326299607754e-03,6.571199744939804077e-02,3.277461528778076172e-01,3.619799762964248657e-02,-8.853506445884704590e-01,8.831100910902023315e-02,-3.058415651321411133e-01,1.000000000000000000e+00,4.601033404469490051e-03,0.000000000000000000e+00
2.195794820785522461e+00,6.192437648773193359e+00,-3.533708190917968750e+01,-3.533708190917968750e+01,-4.063962493091821671e-03,-8.948110961914062500e+01,6.212377548217773438e-02,3.648134320974349976e-02,-4.828214645385742188e+00,1.441611326299607754e-03,6.571199744939804077e-02,3.277461528778076172e-01,3.619799762964248657e-02,-8.853506445884704590e-01,8.831100910902023315e-02,-3.058415651321411133e-01,1.000000000000000000e+00,4.601033404469490051e-03,0.000000000000000000e+00
2.374083757400512695e+00,6.194639205932617188e+00,-3.559527206420898438e+01,-3.559527206420898438e+01,1.208943431265652180e-03,-8.943157196044921875e+01,6.639565527439117432e-02,3.903318569064140320e-02,-4.821539878845214844e+00,1.922886352986097336e-03,1.431296020746231079e-02,3.743791580200195312e-02,2.699410542845726013e-03,-8.004668354988098145e-01,5.932237580418586731e-02,-5.634083747863769531e-01,1.000000000000000000e+00,6.512959953397512436e-04,0.000000000000000000e+00
2.374083757400512695e+00,6.194639205932617188e+00,-3.559527206420898438e+01,-3.559527206420898438e+01,1.208943431265652180e-03,-8.943157196044921875e+01,6.639565527439117432e-02,3.903318569064140320e-02,-4.821539878845214844e+00,1.922886352986097336e-03,1.431296020746231079e-02,3.743791580200195312e-02,2.699410542845726013e-03,-8.004668354988098145e-01,5.932237580418586731e-02,-5.634083747863769531e-01,1.000000000000000000e+00,6.512959953397512436e-04,0.000000000000000000e+00
2.374083757400512695e+00,6.194639205932617188e+00,-3.559527206420898438e+01,-3.559527206420898438e+01,1.208943431265652180e-03,-8.943157196044921875e+01,6.639565527439117432e-02,3.903318569064140320e-02,-4.821539878845214844e+00,1.922886352986097336e-03,1.431296020746231079e-02,3.743791580200195312e-02,2.699410542845726013e-03,-8.004668354988098145e-01,5.932237580418586731e-02,-5.634083747863769531e-01,1.000000000000000000e+00,6.512959953397512436e-04,0.000000000000000000e+00
2.447860002517700195e+00,6.199069023132324219e+00,-3.607921981811523438e+01,-3.607921981811523438e+01,1.937041617929935455e-02,-8.936654663085937500e+01,7.084890455007553101e-02,4.342210665345191956e-02,-4.784829616546630859e+00,-1.057410379871726036e-03,5.948962271213531494e-02,4.975892007350921631e-01,-4.039642959833145142e-02,-9.706724882125854492e-01,6.772627588361501694e-03,-1.404430508613586426e+00,1.000000000000000000e+00,-1.132456469349563122e-03,0.000000000000000000e+00
2.447860002517700195e+00,6.199069023132324219e+00,-3.607921981811523438e+01,-3.607921981811523438e+01,1.937041617929935455e-02,-8.936654663085937500e+01,7.084890455007553101e-02,4.342210665345191956e-02,-4.784829616546630859e+00,-1.057410379871726036e-03,5.948962271213531494e-02,4.975892007350921631e-01,-4.039642959833145142e-02,-9.706724882125854492e-01,6.772627588361501694e-03,-1.404430508613586426e+00,1.000000000000000000e+00,-1.132456469349563122e-03,0.000000000000000000e+00
2.500878810882568359e+00,6.202519416809082031e+00,-3.643579483032226562e+01,-3.643579483032226562e+01,1.253339648246765137e-02,-8.934024810791015625e+01,6.940110027790069580e-02,4.659627377986907959e-02,-4.854012489318847656e+00,1.142581109888851643e-03,5.986869707703590393e-02,-1.304874181747436523e+00,4.149454832077026367e-02,5.494939684867858887e-01,-3.585414215922355652e-02,1.300963163375854492e+00,1.000000000000000000e+00,-3.789774607867002487e-03,0.000000000000000000e+00
2.500878810882568359e+00,6.202519416809082031e+00,-3.643579483032226562e+01,-3.643579483032226562e+01,1.253339648246765137e-02,-8.934024810791015625e+01,6.940110027790069580e-02,4.659627377986907959e-02,-4.854012489318847656e+00,1.142581109888851643e-03,5.986869707703590393e-02,-1.304874181747436523e+00,4.149454832077026367e-02,5.494939684867858887e-01,-3.585414215922355652e-02,1.300963163375854492e+00,1.000000000000000000e+00,-3.789774607867002487e-03,0.000000000000000000e+00
2.500878810882568359e+00,6.202519416809082031e+00,-3.643579483032226562e+01,-3.643579483032226562e+01,1.253339648246765137e-02,-8.934024810791015625e+01,6.940110027790069580e-02,4.659627377986907959e-02,-4.854012489318847656e+00,1.142581109888851643e-03,5.986869707703590393e-02,-1.304874181747436523e+00,4.149454832077026367e-02,5.494939684867858887e-01,-3.585414215922355652e-02,1.300963163375854492e+00,1.000000000000000000e+00,-3.789774607867002487e-03,0.000000000000000000e+00
2.560195446014404297e+00,6.204966068267822266e+00,-3.669078063964843750e+01,-3.669078063964843750e+01,1.610558480024337769e-02,-8.935009765625000000e+01,6.505586951971054077e-02,4.723796620965003967e-02,-4.846144199371337891e+00,1.835121889598667622e-03,1.081808563321828842e-02,1.326489597558975220e-01,1.167532149702310562e-02,6.617301702499389648e-01,-9.206759929656982422e-02,9.580613970756530762e-01,1.000000000000000000e+00,-4.560597706586122513e-03,0.000000000000000000e+00
2.560195446014404297e+00,6.204966068267822266e+00,-3.669078063964843750e+01,-3.669078063964843750e+01,1.610558480024337769e-02,-8.935009765625000000e+01,6.505586951971054077e-02,4.723796620965003967e-02,-4.846144199371337891e+00,1.835121889598667622e-03,1.081808563321828842e-02,1.326489597558975220e-01,1.167532149702310562e-02,6.617301702499389648e-01,-9.206759929656982422e-02,9.580613970756530762e-01,1.000000000000000000e+00,-4.560597706586122513e-03,0.000000000000000000e+00
2.560195446014404297e+00,6.207613945007324219e+00,-3.697534942626953125e+01,-3.697534942626953125e+01,1.890596188604831696e-02,-8.938202667236328125e+01,5.490445345640182495e-02,4.577903822064399719e-02,-4.829474449157714844e+00,-4.286797484382987022e-04,-2.492398582398891449e-02,2.847821414470672607e-01,-3.867426142096519470e-02,6.022647023200988770e-01,-1.993563175201416016e-01,7.159698605537414551e-01,1.000000000000000000e+00,-6.777191068977117538e-03,0.000000000000000000e+00
2.618730545043945312e+00,6.207613945007324219e+00,-3.697534942626953125e+01,-3.697534942626953125e+01,1.890596188604831696e-02,-8.938202667236328125e+01,5.490445345640182495e-02,4.577903822064399719e-02,-4.829474449157714844e+00,-4.286797484382987022e-04,-2.492398582398891449e-02,2.847821414470672607e-01,-3.867426142096519470e-02,6.022647023200988770e-01,-1.993563175201416016e-01,7.159698605537414551e-01,1.000000000000000000e+00,-6.777191068977117538e-03,0.000000000000000000e+00
2.618730545043945312e+00,6.210131645202636719e+00,-3.725529098510742188e+01,-3.725529098510742188e+01,2.113943360745906830e-02,-8.942141723632812500e+01,4.089872539043426514e-02,4.427835717797279358e-02,-4.822241306304931641e+00,-1.012939901556819677e-04,-2.560735121369361877e-02,1.234250441193580627e-01,5.586451385170221329e-03,7.460017800331115723e-01,-2.537433505058288574e-01,8.072937130928039551e-01,1.000000000000000000e+00,-5.793762393295764923e-03,0.000000000000000000e+00
2.677334070205688477e+00,6.210131645202636719e+00,-3.725529098510742188e+01,-3.725529098510742188e+01,2.113943360745906830e-02,-8.942141723632812500e+01,4.089872539043426514e-02,4.427835717797279358e-02,-4.822241306304931641e+00,-1.012939901556819677e-04,-2.560735121369361877e-02,1.234250441193580627e-01,5.586451385170221329e-03,7.460017800331115723e-01,-2.537433505058288574e-01,8.072937130928039551e-01,1.000000000000000000e+00,-5.793762393295764923e-03,0.000000000000000000e+00
2.677334070205688477e+00,6.210131645202636719e+00,-3.725529098510742188e+01,-3.725529098510742188e+01,2.113943360745906830e-02,-8.942141723632812500e+01,4.089872539043426514e-02,4.427835717797279358e-02,-4.822241306304931641e+00,-1.012939901556819677e-04,-2.560735121369361877e-02,1.234250441193580627e-01,5.586451385170221329e-03,7.460017800331115723e-01,-2.537433505058288574e-01,8.072937130928039551e-01,1.000000000000000000e+00,-5.793762393295764923e-03,0.000000000000000000e+00
2.677334070205688477e+00,6.210131645202636719e+00,-3.725529098510742188e+01,-3.725529098510742188e+01,2.113943360745906830e-02,-8.942141723632812500e+01,4.089872539043426514e-02,4.427835717797279358e-02,-4.822241306304931641e+00,-1.012939901556819677e-04,-2.560735121369361877e-02,1.234250441193580627e-01,5.586451385170221329e-03,7.460017800331115723e-01,-2.537433505058288574e-01,8.072937130928039551e-01,1.000000000000000000e+00,-5.793762393295764923e-03,0.000000000000000000e+00
2.755024909973144531e+00,6.212571144104003906e+00,-3.753487396240234375e+01,-3.753487396240234375e+01,2.240301854908466339e-02,-8.945624542236328125e+01,2.468939311802387238e-02,4.230223596096038818e-02,-4.806255340576171875e+00,-1.085027033695951104e-04,-2.543570473790168762e-02,2.057638466358184814e-01,-9.278717334382236004e-05,6.910270452499389648e-01,-2.806581556797027588e-01,1.133259534835815430e+00,1.000000000000000000e+00,-4.458363633602857590e-03,0.000000000000000000e+00
2.755024909973144531e+00,6.212571144104003906e+00,-3.753487396240234375e+01,-3.753487396240234375e+01,2.240301854908466339e-02,-8.945624542236328125e+01,2.468939311802387238e-02,4.230223596096038818e-02,-4.806255340576171875e+00,-1.085027033695951104e-04,-2.543570473790168762e-02,2.057638466358184814e-01,-9.278717334382236004e-05,6.910270452499389648e-01,-2.806581556797027588e-01,1.133259534835815430e+00,1.000000000000000000e+00,-4.458363633602857590e-03,0.000000000000000000e+00
2.755024909973144531e+00,6.212571144104003906e+00,-3.753487396240234375e+01,-3.753487396240234375e+01,2.240301854908466339e-02,-8.945624542236328125e+01,2.468939311802387238e-02,4.230223596096038818e-02,-4.806255340576171875e+00,-1.085027033695951104e-04,-2.543570473790168762e-02,2.057638466358184814e-01,-9.278717334382236004e-05,6.910270452499389648e-01,-2.806581556797027588e-01,1.133259534835815430e+00,1.000000000000000000e+00,-4.458363633602857590e-03,0.000000000000000000e+00
2.830169916152954102e+00,6.215563297271728516e+00,-3.790362548828125000e+01,-3.790362548828125000e+01,3.536671772599220276e-02,-8.952012634277343750e+01,3.238442353904247284e-03,3.906548023223876953e-02,-4.702409744262695312e+00,-6.426575127989053726e-04,-4.307346418499946594e-02,1.381936073303222656e+00,-7.108320947736501694e-03,-8.060495853424072266e-01,-2.710309922695159912e-01,-2.046432971954345703e+00,1.000000000000000000e+00,-3.215026808902621269e-03,0.000000000000000000e+00
2.830169916152954102e+00,6.215563297271728516e+00,-3.790362548828125000e+01,-3.790362548828125000e+01,3.536671772599220276e-02,-8.952012634277343750e+01,3.238442353904247284e-03,3.906548023223876953e-02,-4.702409744262695312e+00,-6.426575127989053726e-04,-4.307346418499946594e-02,1.381936073303222656e+00,-7.108320947736501694e-03,-8.060495853424072266e-01,-2.710309922695159912e-01,-2.046432971954345703e+00,1.000000000000000000e+00,-3.215026808902621269e-03,0.000000000000000000e+00
2.830169916152954102e+00,6.215563297271728516e+00,-3.790362548828125000e+01,-3.790362548828125000e+01,3.536671772599220276e-02,-8.952012634277343750e+01,3.238442353904247284e-03,3.906548023223876953e-02,-4.702409744262695312e+00,-6.426575127989053726e-04,-4.307346418499946594e-02,1.381936073303222656e+00,-7.108320947736501694e-03,-8.060495853424072266e-01,-2.710309922695159912e-01,-2.046432971954345703e+00,1.000000000000000000e+00,-3.215026808902621269e-03,0.000000000000000000e+00
2.830169916152954102e+00,6.215563297271728516e+00,-3.790362548828125000e+01,-3.790362548828125000e+01,3.536671772599220276e-02,-8.952012634277343750e+01,3.238442353904247284e-03,3.906548023223876953e-02,-4.702409744262695312e+00,-6.426575127989053726e-04,-4.307346418499946594e-02,1.381936073303222656e+00,-7.108320947736501694e-03,-8.060495853424072266e-01,-2.710309922695159912e-01,-2.046432971954345703e+00,1.000000000000000000e+00,-3.215026808902621269e-03,0.000000000000000000e+00
2.830169916152954102e+00,6.215563297271728516e+00,-3.790362548828125000e+01,-3.790362548828125000e+01,3.536671772599220276e-02,-8.952012634277343750e+01,3.238442353904247284e-03,3.906548023223876953e-02,-4.702409744262695312e+00,-6.426575127989053726e-04,-4.307346418499946594e-02,1.381936073303222656e+00,-7.108320947736501694e-03,-8.060495853424072266e-01,-2.710309922695159912e-01,-2.046432971954345703e+00,1.000000000000000000e+00,-3.215026808902621269e-03,0.000000000000000000e+00
