# Time,VehicleID,EGO,X,Y,Z,Roll,Pitch,Yaw,Vx,Vy,Vz,Ax,Ay,Az,Wx,Wy,Wz,Throttle,Steer,Brake
0.000000000000000000e+00,9.700000000000000000e+01,0.000000000000000000e+00,6.562175903320312500e+02,2.453281974792480469e+01,2.453281974792480469e+01,9.351894259452819824e-02,-1.071556701660156250e+02,2.123846113681793213e-01,-3.438649415969848633e+00,-1.107856750488281250e+01,-2.078780380543321371e-05,-7.870651483535766602e-01,-2.314436674118041992e+00,-8.876201900420710444e-05,-8.959407210350036621e-01,-4.715732038021087646e-01,-3.489515185356140137e-01,1.000000000000000000e+00,-2.443790435791015625e-03,0.000000000000000000e+00
3.123569488525390625e-02,9.700000000000000000e+01,0.000000000000000000e+00,6.560747680664062500e+02,2.407180595397949219e+01,2.407180595397949219e+01,1.236059293150901794e-01,-1.071730270385742188e+02,1.837983876466751099e-01,-3.497428417205810547e+00,-1.125303554534912109e+01,-3.065642522415146232e-05,-1.881789565086364746e+00,-5.585534095764160156e+00,-3.159405314363539219e-04,-8.809923529624938965e-01,-4.196581840515136719e-01,-4.526233375072479248e-01,1.000000000000000000e+00,-2.478790236636996269e-03,0.000000000000000000e+00
3.123569488525390625e-02,9.700000000000000000e+01,0.000000000000000000e+00,6.560747680664062500e+02,2.407180595397949219e+01,2.407180595397949219e+01,1.236059293150901794e-01,-1.071730270385742188e+02,1.837983876466751099e-01,-3.497428417205810547e+00,-1.125303554534912109e+01,-3.065642522415146232e-05,-1.881789565086364746e+00,-5.585534095764160156e+00,-3.159405314363539219e-04,-8.809923529624938965e-01,-4.196581840515136719e-01,-4.526233375072479248e-01,1.000000000000000000e+00,-2.478790236636996269e-03,0.000000000000000000e+00
6.454372406005859375e-02,9.700000000000000000e+01,0.000000000000000000e+00,6.559642333984375000e+02,2.371716690063476562e+01,2.371716690063476562e+01,1.453805714845657349e-01,-1.072033538818359375e+02,1.722541749477386475e-01,-3.565284729003906250e+00,-1.137512302398681641e+01,-3.781681516557000577e-05,-2.037235975265502930e+00,-3.665406942367553711e+00,-2.149748906958848238e-04,-7.390072941780090332e-01,-8.272312581539154053e-02,-1.123636603355407715e+00,1.000000000000000000e+00,-1.082000695168972015e-02,0.000000000000000000e+00
6.454372406005859375e-02,9.700000000000000000e+01,0.000000000000000000e+00,6.559642333984375000e+02,2.371716690063476562e+01,2.371716690063476562e+01,1.453805714845657349e-01,-1.072033538818359375e+02,1.722541749477386475e-01,-3.565284729003906250e+00,-1.137512302398681641e+01,-3.781681516557000577e-05,-2.037235975265502930e+00,-3.665406942367553711e+00,-2.149748906958848238e-04,-7.390072941780090332e-01,-8.272312581539154053e-02,-1.123636603355407715e+00,1.000000000000000000e+00,-1.082000695168972015e-02,0.000000000000000000e+00
6.454372406005859375e-02,9.700000000000000000e+01,0.000000000000000000e+00,6.559642333984375000e+02,2.371716690063476562e+01,2.371716690063476562e+01,1.453805714845657349e-01,-1.072033538818359375e+02,1.722541749477386475e-01,-3.565284729003906250e+00,-1.137512302398681641e+01,-3.781681516557000577e-05,-2.037235975265502930e+00,-3.665406942367553711e+00,-2.149748906958848238e-04,-7.390072941780090332e-01,-8.272312581539154053e-02,-1.123636603355407715e+00,1.000000000000000000e+00,-1.082000695168972015e-02,0.000000000000000000e+00
9.523081779479980469e-02,9.700000000000000000e+01,0.000000000000000000e+00,6.558443603515625000e+02,2.333469200134277344e+01,2.333469200134277344e+01,1.665609776973724365e-01,-1.072551727294921875e+02,1.660784184932708740e-01,-3.630815744400024414e+00,-1.150540637969970703e+01,-4.306076152715831995e-05,-2.135458469390869141e+00,-4.245542526245117188e+00,-1.708844356471672654e-04,-6.374883651733398438e-01,2.779943495988845825e-02,-1.683063268661499023e+00,1.000000000000000000e+00,-1.131334342062473297e-02,0.000000000000000000e+00
9.523081779479980469e-02,9.700000000000000000e+01,0.000000000000000000e+00,6.558443603515625000e+02,2.333469200134277344e+01,2.333469200134277344e+01,1.665609776973724365e-01,-1.072551727294921875e+02,1.660784184932708740e-01,-3.630815744400024414e+00,-1.150540637969970703e+01,-4.306076152715831995e-05,-2.135458469390869141e+00,-4.245542526245117188e+00,-1.708844356471672654e-04,-6.374883651733398438e-01,2.779943495988845825e-02,-1.683063268661499023e+00,1.000000000000000000e+00,-1.131334342062473297e-02,0.000000000000000000e+00
9.523081779479980469e-02,9.700000000000000000e+01,0.000000000000000000e+00,6.556198120117187500e+02,2.262292671203613281e+01,2.262292671203613281e+01,1.983486860990524292e-01,-1.073861923217773438e+02,1.583930253982543945e-01,-3.742666959762573242e+00,-1.174159717559814453e+01,-4.698993870988488197e-05,-1.730821847915649414e+00,-3.682061195373535156e+00,1.201492068503284827e-05,-4.850333034992218018e-01,2.656307443976402283e-02,-2.381615638732910156e+00,1.000000000000000000e+00,-1.171665173023939133e-02,0.000000000000000000e+00
1.573028564453125000e-01,9.700000000000000000e+01,0.000000000000000000e+00,6.556198120117187500e+02,2.262292671203613281e+01,2.262292671203613281e+01,1.983486860990524292e-01,-1.073861923217773438e+02,1.583930253982543945e-01,-3.742666959762573242e+00,-1.174159717559814453e+01,-4.698993870988488197e-05,-1.730821847915649414e+00,-3.682061195373535156e+00,1.201492068503284827e-05,-4.850333034992218018e-01,2.656307443976402283e-02,-2.381615638732910156e+00,1.000000000000000000e+00,-1.171665173023939133e-02,0.000000000000000000e+00
1.573028564453125000e-01,9.700000000000000000e+01,0.000000000000000000e+00,6.556198120117187500e+02,2.262292671203613281e+01,2.262292671203613281e+01,1.983486860990524292e-01,-1.073861923217773438e+02,1.583930253982543945e-01,-3.742666959762573242e+00,-1.174159717559814453e+01,-4.698993870988488197e-05,-1.730821847915649414e+00,-3.682061195373535156e+00,1.201492068503284827e-05,-4.850333034992218018e-01,2.656307443976402283e-02,-2.381615638732910156e+00,1.000000000000000000e+00,-1.171665173023939133e-02,0.000000000000000000e+00
1.888945102691650391e-01,9.700000000000000000e+01,0.000000000000000000e+00,6.555005493164062500e+02,2.224701881408691406e+01,2.224701881408691406e+01,2.118451297283172607e-01,-1.074678115844726562e+02,1.547091454267501831e-01,-3.799542665481567383e+00,-1.186261081695556641e+01,-4.699914643424563110e-05,-1.800339698791503906e+00,-3.830557346343994141e+00,-2.914606795911822701e-07,-4.243244528770446777e-01,1.386221591383218765e-02,-2.627948522567749023e+00,1.000000000000000000e+00,-1.176404953002929688e-02,0.000000000000000000e+00
2.209403514862060547e-01,9.700000000000000000e+01,0.000000000000000000e+00,6.553795776367187500e+02,2.186920928955078125e+01,2.186920928955078125e+01,2.232447266578674316e-01,-1.075669555664062500e+02,1.577481776475906372e-01,-3.874920368194580078e+00,-1.197505664825439453e+01,-4.551168603939004242e-05,-2.352183580398559570e+00,-3.508905649185180664e+00,4.641664418159052730e-05,-2.874937057495117188e-01,2.372277379035949707e-01,-3.293826818466186523e+00,1.000000000000000000e+00,-1.824121549725532532e-02,0.000000000000000000e+00
2.209403514862060547e-01,9.700000000000000000e+01,0.000000000000000000e+00,6.553795776367187500e+02,2.186920928955078125e+01,2.186920928955078125e+01,2.232447266578674316e-01,-1.075669555664062500e+02,1.577481776475906372e-01,-3.874920368194580078e+00,-1.197505664825439453e+01,-4.551168603939004242e-05,-2.352183580398559570e+00,-3.508905649185180664e+00,4.641664418159052730e-05,-2.874937057495117188e-01,2.372277379035949707e-01,-3.293826818466186523e+00,1.000000000000000000e+00,-1.824121549725532532e-02,0.000000000000000000e+00
2.209403514862060547e-01,9.700000000000000000e+01,0.000000000000000000e+00,6.552548828125000000e+02,2.148227310180664062e+01,2.148227310180664062e+01,2.329845726490020752e-01,-1.076849060058593750e+02,1.637263149023056030e-01,-3.946432352066040039e+00,-1.208966255187988281e+01,-4.264148446964100003e-05,-2.112765550613403320e+00,-3.385941743850708008e+00,8.479785901727154851e-05,-2.180104851722717285e-01,2.717432975769042969e-01,-3.799562692642211914e+00,1.000000000000000000e+00,-1.824293099343776703e-02,0.000000000000000000e+00
2.547879219055175781e-01,9.700000000000000000e+01,0.000000000000000000e+00,6.552548828125000000e+02,2.148227310180664062e+01,2.148227310180664062e+01,2.329845726490020752e-01,-1.076849060058593750e+02,1.637263149023056030e-01,-3.946432352066040039e+00,-1.208966255187988281e+01,-4.264148446964100003e-05,-2.112765550613403320e+00,-3.385941743850708008e+00,8.479785901727154851e-05,-2.180104851722717285e-01,2.717432975769042969e-01,-3.799562692642211914e+00,1.000000000000000000e+00,-1.824293099343776703e-02,0.000000000000000000e+00
2.547879219055175781e-01,9.700000000000000000e+01,0.000000000000000000e+00,6.551209716796875000e+02,2.106985473632812500e+01,2.106985473632812500e+01,2.411193251609802246e-01,-1.078222732543945312e+02,1.693908125162124634e-01,-4.019292354583740234e+00,-1.221034049987792969e+01,-4.250046549714170396e-05,-2.327595472335815430e+00,-3.855194091796875000e+00,4.505011474975617602e-06,-1.648363471031188965e-01,2.254849970340728760e-01,-4.176955223083496094e+00,1.000000000000000000e+00,-1.802930794656276703e-02,0.000000000000000000e+00
2.860906124114990234e-01,9.700000000000000000e+01,0.000000000000000000e+00,6.551209716796875000e+02,2.106985473632812500e+01,2.106985473632812500e+01,2.411193251609802246e-01,-1.078222732543945312e+02,1.693908125162124634e-01,-4.019292354583740234e+00,-1.221034049987792969e+01,-4.250046549714170396e-05,-2.327595472335815430e+00,-3.855194091796875000e+00,4.505011474975617602e-06,-1.648363471031188965e-01,2.254849970340728760e-01,-4.176955223083496094e+00,1.000000000000000000e+00,-1.802930794656276703e-02,0.000000000000000000e+00
2.860906124114990234e-01,9.700000000000000000e+01,0.000000000000000000e+00,6.551209716796875000e+02,2.106985473632812500e+01,2.106985473632812500e+01,2.411193251609802246e-01,-1.078222732543945312e+02,1.693908125162124634e-01,-4.019292354583740234e+00,-1.221034049987792969e+01,-4.250046549714170396e-05,-2.327595472335815430e+00,-3.855194091796875000e+00,4.505011474975617602e-06,-1.648363471031188965e-01,2.254849970340728760e-01,-4.176955223083496094e+00,1.000000000000000000e+00,-1.802930794656276703e-02,0.000000000000000000e+00
3.184695243835449219e-01,9.700000000000000000e+01,0.000000000000000000e+00,6.548624267578125000e+02,2.028234291076660156e+01,2.028234291076660156e+01,2.531882822513580322e-01,-1.081076812744140625e+02,1.789812594652175903e-01,-4.155030727386474609e+00,-1.243479824066162109e+01,-3.594770169002003968e-05,-2.217087030410766602e+00,-3.668348073959350586e+00,8.150673966156318784e-05,-1.124802157282829285e-01,1.756757050752639771e-01,-4.622855186462402344e+00,1.000000000000000000e+00,-1.747436448931694031e-02,0.000000000000000000e+00
3.184695243835449219e-01,9.700000000000000000e+01,0.000000000000000000e+00,6.548624267578125000e+02,2.028234291076660156e+01,2.028234291076660156e+01,2.531882822513580322e-01,-1.081076812744140625e+02,1.789812594652175903e-01,-4.155030727386474609e+00,-1.243479824066162109e+01,-3.594770169002003968e-05,-2.217087030410766602e+00,-3.668348073959350586e+00,8.150673966156318784e-05,-1.124802157282829285e-01,1.756757050752639771e-01,-4.622855186462402344e+00,1.000000000000000000e+00,-1.747436448931694031e-02,0.000000000000000000e+00
3.184695243835449219e-01,9.700000000000000000e+01,0.000000000000000000e+00,6.547332153320312500e+02,1.989391517639160156e+01,1.989391517639160156e+01,2.573615014553070068e-01,-1.082619323730468750e+02,1.871717423200607300e-01,-4.234916210174560547e+00,-1.253752136230468750e+01,-3.293480403954163194e-05,-2.532588481903076172e+00,-3.256604194641113281e+00,9.551710536470636725e-05,-2.941799908876419067e-02,3.177590072154998779e-01,-5.085869789123535156e+00,1.000000000000000000e+00,-2.195768430829048157e-02,0.000000000000000000e+00
3.810164928436279297e-01,9.700000000000000000e+01,0.000000000000000000e+00,6.547332153320312500e+02,1.989391517639160156e+01,1.989391517639160156e+01,2.573615014553070068e-01,-1.082619323730468750e+02,1.871717423200607300e-01,-4.234916210174560547e+00,-1.253752136230468750e+01,-3.293480403954163194e-05,-2.532588481903076172e+00,-3.256604194641113281e+00,9.551710536470636725e-05,-2.941799908876419067e-02,3.177590072154998779e-01,-5.085869789123535156e+00,1.000000000000000000e+00,-2.195768430829048157e-02,0.000000000000000000e+00
4.101848602294921875e-01,9.700000000000000000e+01,0.000000000000000000e+00,6.545994262695312500e+02,1.949540710449218750e+01,1.949540710449218750e+01,2.607492804527282715e-01,-1.084302825927734375e+02,1.969900280237197876e-01,-4.312747478485107422e+00,-1.264252185821533203e+01,-3.143768117297440767e-05,-2.668344974517822266e+00,-3.599807024002075195e+00,5.132693331688642502e-05,3.106315154582262039e-03,3.283902108669281006e-01,-5.415651798248291016e+00,1.000000000000000000e+00,-2.148809470236301422e-02,0.000000000000000000e+00
4.101848602294921875e-01,9.700000000000000000e+01,0.000000000000000000e+00,6.544736328125000000e+02,1.912398719787597656e+01,1.912398719787597656e+01,2.631808221340179443e-01,-1.085925903320312500e+02,2.052178531885147095e-01,-4.383003234863281250e+00,-1.273952198028564453e+01,-2.946423774119466543e-05,-2.417619943618774414e+00,-3.337938785552978516e+00,6.790953921154141426e-05,1.360142417252063751e-02,2.871310114860534668e-01,-5.612805366516113281e+00,1.000000000000000000e+00,-2.085294760763645172e-02,0.000000000000000000e+00
4.392447471618652344e-01,9.700000000000000000e+01,0.000000000000000000e+00,6.544736328125000000e+02,1.912398719787597656e+01,1.912398719787597656e+01,2.631808221340179443e-01,-1.085925903320312500e+02,2.052178531885147095e-01,-4.383003234863281250e+00,-1.273952198028564453e+01,-2.946423774119466543e-05,-2.417619943618774414e+00,-3.337938785552978516e+00,6.790953921154141426e-05,1.360142417252063751e-02,2.871310114860534668e-01,-5.612805366516113281e+00,1.000000000000000000e+00,-2.085294760763645172e-02,0.000000000000000000e+00
4.392447471618652344e-01,9.700000000000000000e+01,0.000000000000000000e+00,6.543464355468750000e+02,1.875113487243652344e+01,1.875113487243652344e+01,2.650796175003051758e-01,-1.087584686279296875e+02,2.125184237957000732e-01,-4.452709674835205078e+00,-1.283561229705810547e+01,-2.966449574159923941e-05,-2.190168619155883789e+00,-3.019147157669067383e+00,-6.292084435699507594e-06,2.086626924574375153e-02,2.520081698894500732e-01,-5.741024017333984375e+00,1.000000000000000000e+00,-2.036895789206027985e-02,0.000000000000000000e+00
4.710717201232910156e-01,9.700000000000000000e+01,0.000000000000000000e+00,6.543464355468750000e+02,1.875113487243652344e+01,1.875113487243652344e+01,2.650796175003051758e-01,-1.087584686279296875e+02,2.125184237957000732e-01,-4.452709674835205078e+00,-1.283561229705810547e+01,-2.966449574159923941e-05,-2.190168619155883789e+00,-3.019147157669067383e+00,-6.292084435699507594e-06,2.086626924574375153e-02,2.520081698894500732e-01,-5.741024017333984375e+00,1.000000000000000000e+00,-2.036895789206027985e-02,0.000000000000000000e+00
4.710717201232910156e-01,9.700000000000000000e+01,0.000000000000000000e+00,6.543464355468750000e+02,1.875113487243652344e+01,1.875113487243652344e+01,2.650796175003051758e-01,-1.087584686279296875e+02,2.125184237957000732e-01,-4.452709674835205078e+00,-1.283561229705810547e+01,-2.966449574159923941e-05,-2.190168619155883789e+00,-3.019147157669067383e+00,-6.292084435699507594e-06,2.086626924574375153e-02,2.520081698894500732e-01,-5.741024017333984375e+00,1.000000000000000000e+00,-2.036895789206027985e-02,0.000000000000000000e+00
4.710717201232910156e-01,9.700000000000000000e+01,0.000000000000000000e+00,6.543464355468750000e+02,1.875113487243652344e+01,1.875113487243652344e+01,2.650796175003051758e-01,-1.087584686279296875e+02,2.125184237957000732e-01,-4.452709674835205078e+00,-1.283561229705810547e+01,-2.966449574159923941e-05,-2.190168619155883789e+00,-3.019147157669067383e+00,-6.292084435699507594e-06,2.086626924574375153e-02,2.520081698894500732e-01,-5.741024017333984375e+00,1.000000000000000000e+00,-2.036895789206027985e-02,0.000000000000000000e+00
5.387325286865234375e-01,9.700000000000000000e+01,0.000000000000000000e+00,6.540580444335937500e+02,1.791835403442382812e+01,1.791835403442382812e+01,2.677707076072692871e-01,-1.091396026611328125e+02,2.302402257919311523e-01,-4.618682384490966797e+00,-1.304069042205810547e+01,-2.445779500703793019e-05,-2.522943019866943359e+00,-2.849015474319458008e+00,1.780296588549390435e-05,8.261888474225997925e-02,3.331614434719085693e-01,-6.151894569396972656e+00,1.000000000000000000e+00,-2.319974824786186218e-02,0.000000000000000000e+00
5.387325286865234375e-01,9.700000000000000000e+01,0.000000000000000000e+00,6.540580444335937500e+02,1.791835403442382812e+01,1.791835403442382812e+01,2.677707076072692871e-01,-1.091396026611328125e+02,2.302402257919311523e-01,-4.618682384490966797e+00,-1.304069042205810547e+01,-2.445779500703793019e-05,-2.522943019866943359e+00,-2.849015474319458008e+00,1.780296588549390435e-05,8.261888474225997925e-02,3.331614434719085693e-01,-6.151894569396972656e+00,1.000000000000000000e+00,-2.319974824786186218e-02,0.000000000000000000e+00
5.795006752014160156e-01,9.700000000000000000e+01,0.000000000000000000e+00,6.538947143554687500e+02,1.745397949218750000e+01,1.745397949218750000e+01,2.685220539569854736e-01,-1.093619537353515625e+02,2.412845641374588013e-01,-4.712863922119140625e+00,-1.315141105651855469e+01,-2.287595089001115412e-05,-2.310174465179443359e+00,-2.715861320495605469e+00,3.880097938235849142e-05,8.751247078180313110e-02,3.023066818714141846e-01,-6.355592250823974609e+00,1.000000000000000000e+00,-2.236061170697212219e-02,0.000000000000000000e+00
5.795006752014160156e-01,9.700000000000000000e+01,0.000000000000000000e+00,6.538947143554687500e+02,1.745397949218750000e+01,1.745397949218750000e+01,2.685220539569854736e-01,-1.093619537353515625e+02,2.412845641374588013e-01,-4.712863922119140625e+00,-1.315141105651855469e+01,-2.287595089001115412e-05,-2.310174465179443359e+00,-2.715861320495605469e+00,3.880097938235849142e-05,8.751247078180313110e-02,3.023066818714141846e-01,-6.355592250823974609e+00,1.000000000000000000e+00,-2.236061170697212219e-02,0.000000000000000000e+00
6.112861633300781250e-01,9.700000000000000000e+01,0.000000000000000000e+00,6.537022705078125000e+02,1.691354179382324219e+01,1.691354179382324219e+01,2.687884271144866943e-01,-1.096245880126953125e+02,2.535272240638732910e-01,-4.819454193115234375e+00,-1.327494144439697266e+01,-2.170267725887242705e-05,-3.353425502777099609e+00,-3.886376857757568359e+00,3.691224264912307262e-05,9.975434839725494385e-02,2.726363241672515869e-01,-6.485927104949951172e+00,5.000000000000000000e-01,-2.173748053610324860e-02,0.000000000000000000e+00
6.112861633300781250e-01,9.700000000000000000e+01,0.000000000000000000e+00,6.535491943359375000e+02,1.648891448974609375e+01,1.648891448974609375e+01,2.675794661045074463e-01,-1.098311309814453125e+02,2.619879841804504395e-01,-4.896744728088378906e+00,-1.335645389556884766e+01,-2.036724617937579751e-05,-2.713484764099121094e+00,-2.861706018447875977e+00,4.688377157435752451e-05,1.367382109165191650e-01,2.235655784606933594e-01,-6.503228664398193359e+00,5.000000000000000000e-01,-2.088241651654243469e-02,0.000000000000000000e+00
6.397700309753417969e-01,9.700000000000000000e+01,0.000000000000000000e+00,6.535491943359375000e+02,1.648891448974609375e+01,1.648891448974609375e+01,2.675794661045074463e-01,-1.098311309814453125e+02,2.619879841804504395e-01,-4.896744728088378906e+00,-1.335645389556884766e+01,-2.036724617937579751e-05,-2.713484764099121094e+00,-2.861706018447875977e+00,4.688377157435752451e-05,1.367382109165191650e-01,2.235655784606933594e-01,-6.503228664398193359e+00,5.000000000000000000e-01,-2.088241651654243469e-02,0.000000000000000000e+00
6.397700309753417969e-01,9.700000000000000000e+01,0.000000000000000000e+00,6.535491943359375000e+02,1.648891448974609375e+01,1.648891448974609375e+01,2.675794661045074463e-01,-1.098311309814453125e+02,2.619879841804504395e-01,-4.896744728088378906e+00,-1.335645389556884766e+01,-2.036724617937579751e-05,-2.713484764099121094e+00,-2.861706018447875977e+00,4.688377157435752451e-05,1.367382109165191650e-01,2.235655784606933594e-01,-6.503228664398193359e+00,5.000000000000000000e-01,-2.088241651654243469e-02,0.000000000000000000e+00
6.703431606292724609e-01,9.700000000000000000e+01,0.000000000000000000e+00,6.534096069335937500e+02,1.610685539245605469e+01,1.610685539245605469e+01,2.645127177238464355e-01,-1.100323715209960938e+02,2.775268852710723877e-01,-4.990065574645996094e+00,-1.340084838867187500e+01,-1.997663093789014965e-05,-3.052381277084350586e+00,-1.452075600624084473e+00,1.277642331842798740e-05,3.284703195095062256e-01,5.320236086845397949e-01,-7.240302562713623047e+00,5.000000000000000000e-01,-3.195600584149360657e-02,0.000000000000000000e+00
6.703431606292724609e-01,9.700000000000000000e+01,0.000000000000000000e+00,6.534096069335937500e+02,1.610685539245605469e+01,1.610685539245605469e+01,2.645127177238464355e-01,-1.100323715209960938e+02,2.775268852710723877e-01,-4.990065574645996094e+00,-1.340084838867187500e+01,-1.997663093789014965e-05,-3.052381277084350586e+00,-1.452075600624084473e+00,1.277642331842798740e-05,3.284703195095062256e-01,5.320236086845397949e-01,-7.240302562713623047e+00,5.000000000000000000e-01,-3.195600584149360657e-02,0.000000000000000000e+00
6.703431606292724609e-01,9.700000000000000000e+01,0.000000000000000000e+00,6.531002807617187500e+02,1.527772521972656250e+01,1.527772521972656250e+01,2.499712556600570679e-01,-1.105230026245117188e+02,3.205419182777404785e-01,-5.161911010742187500e+00,-1.346076107025146484e+01,-2.286556627950631082e-05,-2.674437284469604492e+00,-7.845582365989685059e-01,-1.311931118834763765e-04,5.169737935066223145e-01,5.279763340950012207e-01,-8.331732749938964844e+00,5.000000000000000000e-01,-3.165016323328018188e-02,0.000000000000000000e+00
7.320811748504638672e-01,9.700000000000000000e+01,0.000000000000000000e+00,6.531002807617187500e+02,1.527772521972656250e+01,1.527772521972656250e+01,2.499712556600570679e-01,-1.105230026245117188e+02,3.205419182777404785e-01,-5.161911010742187500e+00,-1.346076107025146484e+01,-2.286556627950631082e-05,-2.674437284469604492e+00,-7.845582365989685059e-01,-1.311931118834763765e-04,5.169737935066223145e-01,5.279763340950012207e-01,-8.331732749938964844e+00,5.000000000000000000e-01,-3.165016323328018188e-02,0.000000000000000000e+00
7.320811748504638672e-01,9.700000000000000000e+01,0.000000000000000000e+00,6.531002807617187500e+02,1.527772521972656250e+01,1.527772521972656250e+01,2.499712556600570679e-01,-1.105230026245117188e+02,3.205419182777404785e-01,-5.161911010742187500e+00,-1.346076107025146484e+01,-2.286556627950631082e-05,-2.674437284469604492e+00,-7.845582365989685059e-01,-1.311931118834763765e-04,5.169737935066223145e-01,5.279763340950012207e-01,-8.331732749938964844e+00,5.000000000000000000e-01,-3.165016323328018188e-02,0.000000000000000000e+00
7.629995346069335938e-01,9.700000000000000000e+01,0.000000000000000000e+00,6.529423828125000000e+02,1.486274909973144531e+01,1.486274909973144531e+01,2.390224635601043701e-01,-1.107871093750000000e+02,3.395398259162902832e-01,-5.237926006317138672e+00,-1.347333335876464844e+01,-2.184531876991968602e-05,-2.458571434020996094e+00,-4.066285789012908936e-01,3.299811214674264193e-05,5.625056028366088867e-01,4.288832545280456543e-01,-8.674304008483886719e+00,5.000000000000000000e-01,-3.142652660608291626e-02,0.000000000000000000e+00
7.953665256500244141e-01,9.700000000000000000e+01,0.000000000000000000e+00,6.527813720703125000e+02,1.444523811340332031e+01,1.444523811340332031e+01,2.259426414966583252e-01,-1.110617370605468750e+02,3.567794263362884521e-01,-5.311334133148193359e+00,-1.347539234161376953e+01,-1.981428795261308551e-05,-2.267993450164794922e+00,-6.361366063356399536e-02,6.275006307987496257e-05,6.033080220222473145e-01,3.508425056934356689e-01,-8.948712348937988281e+00,5.000000000000000000e-01,-3.154802322387695312e-02,0.000000000000000000e+00
7.953665256500244141e-01,9.700000000000000000e+01,0.000000000000000000e+00,6.527813720703125000e+02,1.444523811340332031e+01,1.444523811340332031e+01,2.259426414966583252e-01,-1.110617370605468750e+02,3.567794263362884521e-01,-5.311334133148193359e+00,-1.347539234161376953e+01,-1.981428795261308551e-05,-2.267993450164794922e+00,-6.361366063356399536e-02,6.275006307987496257e-05,6.033080220222473145e-01,3.508425056934356689e-01,-8.948712348937988281e+00,5.000000000000000000e-01,-3.154802322387695312e-02,0.000000000000000000e+00
8.295917510986328125e-01,9.700000000000000000e+01,0.000000000000000000e+00,6.526095581054687500e+02,1.400876712799072266e+01,1.400876712799072266e+01,2.101990580558776855e-01,-1.113860931396484375e+02,3.893475234508514404e-01,-5.430097579956054688e+00,-1.344654750823974609e+01,-2.224562194896861911e-05,-3.470056056976318359e+00,8.427945971488952637e-01,-7.103924144757911563e-05,8.621997833251953125e-01,8.385189175605773926e-01,-1.035174751281738281e+01,5.000000000000000000e-01,-4.830741882324218750e-02,0.000000000000000000e+00
8.295917510986328125e-01,9.700000000000000000e+01,0.000000000000000000e+00,6.526095581054687500e+02,1.400876712799072266e+01,1.400876712799072266e+01,2.101990580558776855e-01,-1.113860931396484375e+02,3.893475234508514404e-01,-5.430097579956054688e+00,-1.344654750823974609e+01,-2.224562194896861911e-05,-3.470056056976318359e+00,8.427945971488952637e-01,-7.103924144757911563e-05,8.621997833251953125e-01,8.385189175605773926e-01,-1.035174751281738281e+01,5.000000000000000000e-01,-4.830741882324218750e-02,0.000000000000000000e+00
8.295917510986328125e-01,9.700000000000000000e+01,0.000000000000000000e+00,6.526095581054687500e+02,1.400876712799072266e+01,1.400876712799072266e+01,2.101990580558776855e-01,-1.113860931396484375e+02,3.893475234508514404e-01,-5.430097579956054688e+00,-1.344654750823974609e+01,-2.224562194896861911e-05,-3.470056056976318359e+00,8.427945971488952637e-01,-7.103924144757911563e-05,8.621997833251953125e-01,8.385189175605773926e-01,-1.035174751281738281e+01,5.000000000000000000e-01,-4.830741882324218750e-02,0.000000000000000000e+00
8.575658798217773438e-01,9.700000000000000000e+01,0.000000000000000000e+00,6.524246826171875000e+02,1.354813098907470703e+01,1.354813098907470703e+01,1.932055503129959106e-01,-1.117670974731445312e+02,4.260359108448028564e-01,-5.542220115661621094e+00,-1.341115283966064453e+01,-3.250704685342498124e-05,-4.008079528808593750e+00,1.265264391899108887e+00,-3.668183926492929459e-04,8.777836561203002930e-01,8.264403939247131348e-01,-1.149456977844238281e+01,5.000000000000000000e-01,-4.862079769372940063e-02,0.000000000000000000e+00
8.575658798217773438e-01,9.700000000000000000e+01,0.000000000000000000e+00,6.524246826171875000e+02,1.354813098907470703e+01,1.354813098907470703e+01,1.932055503129959106e-01,-1.117670974731445312e+02,4.260359108448028564e-01,-5.542220115661621094e+00,-1.341115283966064453e+01,-3.250704685342498124e-05,-4.008079528808593750e+00,1.265264391899108887e+00,-3.668183926492929459e-04,8.777836561203002930e-01,8.264403939247131348e-01,-1.149456977844238281e+01,5.000000000000000000e-01,-4.862079769372940063e-02,0.000000000000000000e+00
9.135982990264892578e-01,9.700000000000000000e+01,0.000000000000000000e+00,6.521166992187500000e+02,1.280192756652832031e+01,1.280192756652832031e+01,1.628385335206985474e-01,-1.124593200683593750e+02,4.872224032878875732e-01,-5.714919090270996094e+00,-1.333936882019042969e+01,-4.510254802880808711e-05,-2.971505165100097656e+00,1.328109145164489746e+00,-2.575902908574789762e-04,9.014832377433776855e-01,7.463004589080810547e-01,-1.293354129791259766e+01,5.000000000000000000e-01,-4.978523403406143188e-02,0.000000000000000000e+00
9.135982990264892578e-01,9.700000000000000000e+01,0.000000000000000000e+00,6.521166992187500000e+02,1.280192756652832031e+01,1.280192756652832031e+01,1.628385335206985474e-01,-1.124593200683593750e+02,4.872224032878875732e-01,-5.714919090270996094e+00,-1.333936882019042969e+01,-4.510254802880808711e-05,-2.971505165100097656e+00,1.328109145164489746e+00,-2.575902908574789762e-04,9.014832377433776855e-01,7.463004589080810547e-01,-1.293354129791259766e+01,5.000000000000000000e-01,-4.978523403406143188e-02,0.000000000000000000e+00
9.135982990264892578e-01,9.700000000000000000e+01,0.000000000000000000e+00,6.521166992187500000e+02,1.280192756652832031e+01,1.280192756652832031e+01,1.628385335206985474e-01,-1.124593200683593750e+02,4.872224032878875732e-01,-5.714919090270996094e+00,-1.333936882019042969e+01,-4.510254802880808711e-05,-2.971505165100097656e+00,1.328109145164489746e+00,-2.575902908574789762e-04,9.014832377433776855e-01,7.463004589080810547e-01,-1.293354129791259766e+01,5.000000000000000000e-01,-4.978523403406143188e-02,0.000000000000000000e+00
9.718544483184814453e-01,9.700000000000000000e+01,0.000000000000000000e+00,6.517850341796875000e+02,1.203102016448974609e+01,1.203102016448974609e+01,1.307434737682342529e-01,-1.133085327148437500e+02,5.691961050033569336e-01,-5.947422504425048828e+00,-1.321536350250244141e+01,-6.610847049159929156e-05,-3.971077442169189453e+00,2.202807664871215820e+00,-4.899908090010285378e-04,1.079940199851989746e+00,1.128408432006835938e+00,-1.555398941040039062e+01,5.000000000000000000e-01,-6.484727561473846436e-02,0.000000000000000000e+00
9.718544483184814453e-01,9.700000000000000000e+01,0.000000000000000000e+00,6.517850341796875000e+02,1.203102016448974609e+01,1.203102016448974609e+01,1.307434737682342529e-01,-1.133085327148437500e+02,5.691961050033569336e-01,-5.947422504425048828e+00,-1.321536350250244141e+01,-6.610847049159929156e-05,-3.971077442169189453e+00,2.202807664871215820e+00,-4.899908090010285378e-04,1.079940199851989746e+00,1.128408432006835938e+00,-1.555398941040039062e+01,5.000000000000000000e-01,-6.484727561473846436e-02,0.000000000000000000e+00
1.003073692321777344e+00,9.700000000000000000e+01,0.000000000000000000e+00,6.516164550781250000e+02,1.165134716033935547e+01,1.165134716033935547e+01,1.155326440930366516e-01,-1.137738876342773438e+02,6.083329319953918457e-01,-6.052239418029785156e+00,-1.315297412872314453e+01,-7.764655310893431306e-05,-3.357445478439331055e+00,1.998426795005798340e+00,-3.695823834277689457e-04,1.015649557113647461e+00,1.011054277420043945e+00,-1.641858291625976562e+01,5.000000000000000000e-01,-6.410865485668182373e-02,0.000000000000000000e+00
1.003073692321777344e+00,9.700000000000000000e+01,0.000000000000000000e+00,6.516164550781250000e+02,1.165134716033935547e+01,1.165134716033935547e+01,1.155326440930366516e-01,-1.137738876342773438e+02,6.083329319953918457e-01,-6.052239418029785156e+00,-1.315297412872314453e+01,-7.764655310893431306e-05,-3.357445478439331055e+00,1.998426795005798340e+00,-3.695823834277689457e-04,1.015649557113647461e+00,1.011054277420043945e+00,-1.641858291625976562e+01,5.000000000000000000e-01,-6.410865485668182373e-02,0.000000000000000000e+00
1.003073692321777344e+00,9.700000000000000000e+01,0.000000000000000000e+00,6.516164550781250000e+02,1.165134716033935547e+01,1.165134716033935547e+01,1.155326440930366516e-01,-1.137738876342773438e+02,6.083329319953918457e-01,-6.052239418029785156e+00,-1.315297412872314453e+01,-7.764655310893431306e-05,-3.357445478439331055e+00,1.998426795005798340e+00,-3.695823834277689457e-04,1.015649557113647461e+00,1.011054277420043945e+00,-1.641858291625976562e+01,5.000000000000000000e-01,-6.410865485668182373e-02,0.000000000000000000e+00
1.032274961471557617e+00,9.700000000000000000e+01,0.000000000000000000e+00,6.514298706054687500e+02,1.124036979675292969e+01,1.124036979675292969e+01,9.955000132322311401e-02,-1.143033523559570312e+02,6.472981572151184082e-01,-6.163323879241943359e+00,-1.308278274536132812e+01,-8.536913082934916019e-05,-3.804096937179565430e+00,2.403709888458251953e+00,-2.644603373482823372e-04,9.542228579521179199e-01,8.952990174293518066e-01,-1.712730598449707031e+01,5.000000000000000000e-01,-6.359834969043731689e-02,0.000000000000000000e+00
1.032274961471557617e+00,9.700000000000000000e+01,0.000000000000000000e+00,6.514298706054687500e+02,1.124036979675292969e+01,1.124036979675292969e+01,9.955000132322311401e-02,-1.143033523559570312e+02,6.472981572151184082e-01,-6.163323879241943359e+00,-1.308278274536132812e+01,-8.536913082934916019e-05,-3.804096937179565430e+00,2.403709888458251953e+00,-2.644603373482823372e-04,9.542228579521179199e-01,8.952990174293518066e-01,-1.712730598449707031e+01,5.000000000000000000e-01,-6.359834969043731689e-02,0.000000000000000000e+00
1.032274961471557617e+00,9.700000000000000000e+01,0.000000000000000000e+00,6.510648193359375000e+02,1.046332454681396484e+01,1.046332454681396484e+01,7.195603847503662109e-02,-1.153736343383789062e+02,7.183114290237426758e-01,-6.399103164672851562e+00,-1.292414665222167969e+01,-9.089999366551637650e-05,-4.888065814971923828e+00,3.314929962158203125e+00,-1.477462355978786945e-04,9.774303436279296875e-01,1.027065157890319824e+00,-1.872530746459960938e+01,5.000000000000000000e-01,-7.475385814905166626e-02,0.000000000000000000e+00
1.062575101852416992e+00,9.700000000000000000e+01,0.000000000000000000e+00,6.510648193359375000e+02,1.046332454681396484e+01,1.046332454681396484e+01,7.195603847503662109e-02,-1.153736343383789062e+02,7.183114290237426758e-01,-6.399103164672851562e+00,-1.292414665222167969e+01,-9.089999366551637650e-05,-4.888065814971923828e+00,3.314929962158203125e+00,-1.477462355978786945e-04,9.774303436279296875e-01,1.027065157890319824e+00,-1.872530746459960938e+01,5.000000000000000000e-01,-7.475385814905166626e-02,0.000000000000000000e+00
1.062575101852416992e+00,9.700000000000000000e+01,0.000000000000000000e+00,6.510648193359375000e+02,1.046332454681396484e+01,1.046332454681396484e+01,7.195603847503662109e-02,-1.153736343383789062e+02,7.183114290237426758e-01,-6.399103164672851562e+00,-1.292414665222167969e+01,-9.089999366551637650e-05,-4.888065814971923828e+00,3.314929962158203125e+00,-1.477462355978786945e-04,9.774303436279296875e-01,1.027065157890319824e+00,-1.872530746459960938e+01,5.000000000000000000e-01,-7.475385814905166626e-02,0.000000000000000000e+00
1.062575101852416992e+00,9.700000000000000000e+01,0.000000000000000000e+00,6.510648193359375000e+02,1.046332454681396484e+01,1.046332454681396484e+01,7.195603847503662109e-02,-1.153736343383789062e+02,7.183114290237426758e-01,-6.399103164672851562e+00,-1.292414665222167969e+01,-9.089999366551637650e-05,-4.888065814971923828e+00,3.314929962158203125e+00,-1.477462355978786945e-04,9.774303436279296875e-01,1.027065157890319824e+00,-1.872530746459960938e+01,5.000000000000000000e-01,-7.475385814905166626e-02,0.000000000000000000e+00
1.062575101852416992e+00,9.700000000000000000e+01,0.000000000000000000e+00,6.510648193359375000e+02,1.046332454681396484e+01,1.046332454681396484e+01,7.195603847503662109e-02,-1.153736343383789062e+02,7.183114290237426758e-01,-6.399103164672851562e+00,-1.292414665222167969e+01,-9.089999366551637650e-05,-4.888065814971923828e+00,3.314929962158203125e+00,-1.477462355978786945e-04,9.774303436279296875e-01,1.027065157890319824e+00,-1.872530746459960938e+01,5.000000000000000000e-01,-7.475385814905166626e-02,0.000000000000000000e+00
1.165734052658081055e+00,9.700000000000000000e+01,0.000000000000000000e+00,6.508931274414062500e+02,1.011084651947021484e+01,1.011084651947021484e+01,6.061792373657226562e-02,-1.158980178833007812e+02,7.534323334693908691e-01,-6.510725021362304688e+00,-1.284494686126708984e+01,-1.032402651617303491e-04,-1.470120310783386230e+00,1.043104171752929688e+00,-1.625280565349385142e-04,9.263448119163513184e-01,9.770827293395996094e-01,-1.942273139953613281e+01,5.000000000000000000e-01,-7.300128787755966187e-02,0.000000000000000000e+00
1.165734052658081055e+00,9.700000000000000000e+01,0.000000000000000000e+00,6.508931274414062500e+02,1.011084651947021484e+01,1.011084651947021484e+01,6.061792373657226562e-02,-1.158980178833007812e+02,7.534323334693908691e-01,-6.510725021362304688e+00,-1.284494686126708984e+01,-1.032402651617303491e-04,-1.470120310783386230e+00,1.043104171752929688e+00,-1.625280565349385142e-04,9.263448119163513184e-01,9.770827293395996094e-01,-1.942273139953613281e+01,5.000000000000000000e-01,-7.300128787755966187e-02,0.000000000000000000e+00
1.198325634002685547e+00,9.700000000000000000e+01,0.000000000000000000e+00,6.503993530273437500e+02,9.139160156250000000e+00,9.139160156250000000e+00,3.277124464511871338e-02,-1.174288406372070312e+02,8.405265808105468750e-01,-6.811326026916503906e+00,-1.261886692047119141e+01,-1.131076642195694149e-04,-9.223271369934082031e+00,6.936758995056152344e+00,-3.027591446880251169e-04,7.732409834861755371e-01,7.737221717834472656e-01,-2.056010246276855469e+01,5.000000000000000000e-01,-7.173939049243927002e-02,0.000000000000000000e+00
1.198325634002685547e+00,9.700000000000000000e+01,0.000000000000000000e+00,6.501802368164062500e+02,8.727525711059570312e+00,8.727525711059570312e+00,2.250547148287296295e-02,-1.181166915893554688e+02,8.785888552665710449e-01,-6.954951763153076172e+00,-1.250675010681152344e+01,-1.158525483333505690e-04,-5.098947048187255859e+00,3.980329036712646484e+00,-9.744784620124846697e-05,8.236654996871948242e-01,8.978503942489624023e-01,-2.127197074890136719e+01,5.000000000000000000e-01,-7.797479629516601562e-02,0.000000000000000000e+00
1.226493358612060547e+00,9.700000000000000000e+01,0.000000000000000000e+00,6.501802368164062500e+02,8.727525711059570312e+00,8.727525711059570312e+00,2.250547148287296295e-02,-1.181166915893554688e+02,8.785888552665710449e-01,-6.954951763153076172e+00,-1.250675010681152344e+01,-1.158525483333505690e-04,-5.098947048187255859e+00,3.980329036712646484e+00,-9.744784620124846697e-05,8.236654996871948242e-01,8.978503942489624023e-01,-2.127197074890136719e+01,5.000000000000000000e-01,-7.797479629516601562e-02,0.000000000000000000e+00
1.226493358612060547e+00,9.700000000000000000e+01,0.000000000000000000e+00,6.501802368164062500e+02,8.727525711059570312e+00,8.727525711059570312e+00,2.250547148287296295e-02,-1.181166915893554688e+02,8.785888552665710449e-01,-6.954951763153076172e+00,-1.250675010681152344e+01,-1.158525483333505690e-04,-5.098947048187255859e+00,3.980329036712646484e+00,-9.744784620124846697e-05,8.236654996871948242e-01,8.978503942489624023e-01,-2.127197074890136719e+01,5.000000000000000000e-01,-7.797479629516601562e-02,0.000000000000000000e+00
1.226493358612060547e+00,9.700000000000000000e+01,0.000000000000000000e+00,6.499874267578125000e+02,8.374385833740234375e+00,8.374385833740234375e+00,1.473271753638982773e-02,-1.187220687866210938e+02,9.076623916625976562e-01,-7.069941997528076172e+00,-1.241352272033691406e+01,-1.189922550111077726e-04,-3.789165973663330078e+00,3.072035312652587891e+00,-1.034598317346535623e-04,7.192845344543457031e-01,7.577072978019714355e-01,-2.155853652954101562e+01,5.000000000000000000e-01,-7.463169097900390625e-02,0.000000000000000000e+00
1.256840467453002930e+00,9.700000000000000000e+01,0.000000000000000000e+00,6.499874267578125000e+02,8.374385833740234375e+00,8.374385833740234375e+00,1.473271753638982773e-02,-1.187220687866210938e+02,9.076623916625976562e-01,-7.069941997528076172e+00,-1.241352272033691406e+01,-1.189922550111077726e-04,-3.789165973663330078e+00,3.072035312652587891e+00,-1.034598317346535623e-04,7.192845344543457031e-01,7.577072978019714355e-01,-2.155853652954101562e+01,5.000000000000000000e-01,-7.463169097900390625e-02,0.000000000000000000e+00
1.256840467453002930e+00,9.700000000000000000e+01,0.000000000000000000e+00,6.499874267578125000e+02,8.374385833740234375e+00,8.374385833740234375e+00,1.473271753638982773e-02,-1.187220687866210938e+02,9.076623916625976562e-01,-7.069941997528076172e+00,-1.241352272033691406e+01,-1.189922550111077726e-04,-3.789165973663330078e+00,3.072035312652587891e+00,-1.034598317346535623e-04,7.192845344543457031e-01,7.577072978019714355e-01,-2.155853652954101562e+01,5.000000000000000000e-01,-7.463169097900390625e-02,0.000000000000000000e+00
1.313971757888793945e+00,9.700000000000000000e+01,0.000000000000000000e+00,6.495721435546875000e+02,7.640377044677734375e+00,7.640377044677734375e+00,7.103396346792578697e-04,-1.200011749267578125e+02,9.557420015335083008e-01,-7.298056602478027344e+00,-1.222064781188964844e+01,-1.069772770279087126e-04,-3.850525856018066406e+00,3.304826021194458008e+00,3.530707035679370165e-04,5.265746116638183594e-01,4.850707650184631348e-01,-2.155146217346191406e+01,5.000000000000000000e-01,-6.948480755090713501e-02,0.000000000000000000e+00
1.313971757888793945e+00,9.700000000000000000e+01,0.000000000000000000e+00,6.495721435546875000e+02,7.640377044677734375e+00,7.640377044677734375e+00,7.103396346792578697e-04,-1.200011749267578125e+02,9.557420015335083008e-01,-7.298056602478027344e+00,-1.222064781188964844e+01,-1.069772770279087126e-04,-3.850525856018066406e+00,3.304826021194458008e+00,3.530707035679370165e-04,5.265746116638183594e-01,4.850707650184631348e-01,-2.155146217346191406e+01,5.000000000000000000e-01,-6.948480755090713501e-02,0.000000000000000000e+00
1.313971757888793945e+00,9.700000000000000000e+01,0.000000000000000000e+00,6.495721435546875000e+02,7.640377044677734375e+00,7.640377044677734375e+00,7.103396346792578697e-04,-1.200011749267578125e+02,9.557420015335083008e-01,-7.298056602478027344e+00,-1.222064781188964844e+01,-1.069772770279087126e-04,-3.850525856018066406e+00,3.304826021194458008e+00,3.530707035679370165e-04,5.265746116638183594e-01,4.850707650184631348e-01,-2.155146217346191406e+01,5.000000000000000000e-01,-6.948480755090713501e-02,0.000000000000000000e+00
1.343364953994750977e+00,9.700000000000000000e+01,0.000000000000000000e+00,6.491546020507812500e+02,6.936408519744873047e+00,6.936408519744873047e+00,-1.022479217499494553e-02,-1.212399520874023438e+02,9.925016760826110840e-01,-7.527871131896972656e+00,-1.201859569549560547e+01,-8.603738388046622276e-05,-4.153697490692138672e+00,3.654740095138549805e+00,3.167846298310905695e-04,5.262620449066162109e-01,5.288637876510620117e-01,-2.161433792114257812e+01,5.000000000000000000e-01,-7.476882636547088623e-02,0.000000000000000000e+00
1.343364953994750977e+00,9.700000000000000000e+01,0.000000000000000000e+00,6.491546020507812500e+02,6.936408519744873047e+00,6.936408519744873047e+00,-1.022479217499494553e-02,-1.212399520874023438e+02,9.925016760826110840e-01,-7.527871131896972656e+00,-1.201859569549560547e+01,-8.603738388046622276e-05,-4.153697490692138672e+00,3.654740095138549805e+00,3.167846298310905695e-04,5.262620449066162109e-01,5.288637876510620117e-01,-2.161433792114257812e+01,5.000000000000000000e-01,-7.476882636547088623e-02,0.000000000000000000e+00
1.343364953994750977e+00,9.700000000000000000e+01,0.000000000000000000e+00,6.489312744140625000e+02,6.573748588562011719e+00,6.573748588562011719e+00,-1.437754742801189423e-02,-1.218900222778320312e+02,1.012684822082519531e+00,-7.653121948242187500e+00,-1.192174911499023438e+01,-8.309067925438284874e-05,-4.382654190063476562e+00,3.388761043548583984e+00,1.031082138069905341e-04,4.503859579563140869e-01,4.894603490829467773e-01,-2.161758995056152344e+01,5.000000000000000000e-01,-7.141246646642684937e-02,0.000000000000000000e+00
1.402015686035156250e+00,9.700000000000000000e+01,0.000000000000000000e+00,6.489312744140625000e+02,6.573748588562011719e+00,6.573748588562011719e+00,-1.437754742801189423e-02,-1.218900222778320312e+02,1.012684822082519531e+00,-7.653121948242187500e+00,-1.192174911499023438e+01,-8.309067925438284874e-05,-4.382654190063476562e+00,3.388761043548583984e+00,1.031082138069905341e-04,4.503859579563140869e-01,4.894603490829467773e-01,-2.161758995056152344e+01,5.000000000000000000e-01,-7.141246646642684937e-02,0.000000000000000000e+00
1.402015686035156250e+00,9.700000000000000000e+01,0.000000000000000000e+00,6.489312744140625000e+02,6.573748588562011719e+00,6.573748588562011719e+00,-1.437754742801189423e-02,-1.218900222778320312e+02,1.012684822082519531e+00,-7.653121948242187500e+00,-1.192174911499023438e+01,-8.309067925438284874e-05,-4.382654190063476562e+00,3.388761043548583984e+00,1.031082138069905341e-04,4.503859579563140869e-01,4.894603490829467773e-01,-2.161758995056152344e+01,5.000000000000000000e-01,-7.141246646642684937e-02,0.000000000000000000e+00
1.430099725723266602e+00,9.700000000000000000e+01,0.000000000000000000e+00,6.485006713867187500e+02,5.897797107696533203e+00,5.897797107696533203e+00,-1.880350895226001740e-02,-1.230983505249023438e+02,1.037599205970764160e+00,-7.871858119964599609e+00,-1.174779796600341797e+01,-6.663340172963216901e-05,-3.666644573211669922e+00,2.945227146148681641e+00,3.570920380298048258e-04,2.274309545755386353e-01,2.475205510854721069e-01,-2.110447311401367188e+01,5.000000000000000000e-01,-6.540860980749130249e-02,0.000000000000000000e+00
1.430099725723266602e+00,9.700000000000000000e+01,0.000000000000000000e+00,6.485006713867187500e+02,5.897797107696533203e+00,5.897797107696533203e+00,-1.880350895226001740e-02,-1.230983505249023438e+02,1.037599205970764160e+00,-7.871858119964599609e+00,-1.174779796600341797e+01,-6.663340172963216901e-05,-3.666644573211669922e+00,2.945227146148681641e+00,3.570920380298048258e-04,2.274309545755386353e-01,2.475205510854721069e-01,-2.110447311401367188e+01,5.000000000000000000e-01,-6.540860980749130249e-02,0.000000000000000000e+00
1.489104986190795898e+00,9.700000000000000000e+01,0.000000000000000000e+00,6.482754516601562500e+02,5.555607795715332031e+00,5.555607795715332031e+00,-1.995781250298023224e-02,-1.237014923095703125e+02,1.044198274612426758e+00,-7.978731632232666016e+00,-1.166027641296386719e+01,-5.270193287287838757e-05,-3.561689615249633789e+00,2.916761875152587891e+00,4.642831045202910900e-04,1.412332355976104736e-01,1.498903483152389526e-01,-2.070561790466308594e+01,5.000000000000000000e-01,-6.322336196899414062e-02,0.000000000000000000e+00
1.489104986190795898e+00,9.700000000000000000e+01,0.000000000000000000e+00,6.482754516601562500e+02,5.555607795715332031e+00,5.555607795715332031e+00,-1.995781250298023224e-02,-1.237014923095703125e+02,1.044198274612426758e+00,-7.978731632232666016e+00,-1.166027641296386719e+01,-5.270193287287838757e-05,-3.561689615249633789e+00,2.916761875152587891e+00,4.642831045202910900e-04,1.412332355976104736e-01,1.498903483152389526e-01,-2.070561790466308594e+01,5.000000000000000000e-01,-6.322336196899414062e-02,0.000000000000000000e+00
1.489104986190795898e+00,9.700000000000000000e+01,0.000000000000000000e+00,6.482754516601562500e+02,5.555607795715332031e+00,5.555607795715332031e+00,-1.995781250298023224e-02,-1.237014923095703125e+02,1.044198274612426758e+00,-7.978731632232666016e+00,-1.166027641296386719e+01,-5.270193287287838757e-05,-3.561689615249633789e+00,2.916761875152587891e+00,4.642831045202910900e-04,1.412332355976104736e-01,1.498903483152389526e-01,-2.070561790466308594e+01,5.000000000000000000e-01,-6.322336196899414062e-02,0.000000000000000000e+00
1.489104986190795898e+00,9.700000000000000000e+01,0.000000000000000000e+00,6.482754516601562500e+02,5.555607795715332031e+00,5.555607795715332031e+00,-1.995781250298023224e-02,-1.237014923095703125e+02,1.044198274612426758e+00,-7.978731632232666016e+00,-1.166027641296386719e+01,-5.270193287287838757e-05,-3.561689615249633789e+00,2.916761875152587891e+00,4.642831045202910900e-04,1.412332355976104736e-01,1.498903483152389526e-01,-2.070561790466308594e+01,5.000000000000000000e-01,-6.322336196899414062e-02,0.000000000000000000e+00
1.546860456466674805e+00,9.700000000000000000e+01,0.000000000000000000e+00,6.480387573242187500e+02,5.204524993896484375e+00,5.204524993896484375e+00,-2.078426443040370941e-02,-1.243252792358398438e+02,1.054854512214660645e+00,-8.104775428771972656e+00,-1.155477523803710938e+01,-3.991481935372576118e-05,-2.182369709014892578e+00,1.826687097549438477e+00,2.214009000454097986e-04,2.383911162614822388e-01,3.064509034156799316e-01,-2.081228637695312500e+01,5.000000000000000000e-01,-7.032518088817596436e-02,0.000000000000000000e+00
1.546860456466674805e+00,9.700000000000000000e+01,0.000000000000000000e+00,6.480387573242187500e+02,5.204524993896484375e+00,5.204524993896484375e+00,-2.078426443040370941e-02,-1.243252792358398438e+02,1.054854512214660645e+00,-8.104775428771972656e+00,-1.155477523803710938e+01,-3.991481935372576118e-05,-2.182369709014892578e+00,1.826687097549438477e+00,2.214009000454097986e-04,2.383911162614822388e-01,3.064509034156799316e-01,-2.081228637695312500e+01,5.000000000000000000e-01,-7.032518088817596436e-02,0.000000000000000000e+00
1.582453966140747070e+00,9.700000000000000000e+01,0.000000000000000000e+00,6.475731201171875000e+02,4.537074565887451172e+00,4.537074565887451172e+00,-2.151509560644626617e-02,-1.255184860229492188e+02,1.072397112846374512e+00,-8.327260017395019531e+00,-1.136228466033935547e+01,-3.353588181198574603e-05,-6.250706672668457031e+00,5.408024311065673828e+00,1.792163093341514468e-04,1.609706729650497437e-01,2.144315689802169800e-01,-2.057956123352050781e+01,5.000000000000000000e-01,-6.687297672033309937e-02,0.000000000000000000e+00
1.582453966140747070e+00,9.700000000000000000e+01,0.000000000000000000e+00,6.475731201171875000e+02,4.537074565887451172e+00,4.537074565887451172e+00,-2.151509560644626617e-02,-1.255184860229492188e+02,1.072397112846374512e+00,-8.327260017395019531e+00,-1.136228466033935547e+01,-3.353588181198574603e-05,-6.250706672668457031e+00,5.408024311065673828e+00,1.792163093341514468e-04,1.609706729650497437e-01,2.144315689802169800e-01,-2.057956123352050781e+01,5.000000000000000000e-01,-6.687297672033309937e-02,0.000000000000000000e+00
1.582453966140747070e+00,9.700000000000000000e+01,0.000000000000000000e+00,6.472801513671875000e+02,4.130843639373779297e+00,4.130843639373779297e+00,-2.151509560644626617e-02,-1.262378005981445312e+02,1.074973583221435547e+00,-8.448947906494140625e+00,-1.125333309173583984e+01,-2.330503411940298975e-05,-4.096210002899169922e+00,3.667485237121582031e+00,3.443867899477481842e-04,6.568467244505882263e-03,1.296197064220905304e-02,-2.004144096374511719e+01,5.000000000000000000e-01,-6.085186079144477844e-02,0.000000000000000000e+00
1.612161397933959961e+00,9.700000000000000000e+01,0.000000000000000000e+00,6.472801513671875000e+02,4.130843639373779297e+00,4.130843639373779297e+00,-2.151509560644626617e-02,-1.262378005981445312e+02,1.074973583221435547e+00,-8.448947906494140625e+00,-1.125333309173583984e+01,-2.330503411940298975e-05,-4.096210002899169922e+00,3.667485237121582031e+00,3.443867899477481842e-04,6.568467244505882263e-03,1.296197064220905304e-02,-2.004144096374511719e+01,5.000000000000000000e-01,-6.085186079144477844e-02,0.000000000000000000e+00
1.612161397933959961e+00,9.700000000000000000e+01,0.000000000000000000e+00,6.472801513671875000e+02,4.130843639373779297e+00,4.130843639373779297e+00,-2.151509560644626617e-02,-1.262378005981445312e+02,1.074973583221435547e+00,-8.448947906494140625e+00,-1.125333309173583984e+01,-2.330503411940298975e-05,-4.096210002899169922e+00,3.667485237121582031e+00,3.443867899477481842e-04,6.568467244505882263e-03,1.296197064220905304e-02,-2.004144096374511719e+01,5.000000000000000000e-01,-6.085186079144477844e-02,0.000000000000000000e+00
1.674853086471557617e+00,9.700000000000000000e+01,0.000000000000000000e+00,6.467822265625000000e+02,3.465665817260742188e+00,3.465665817260742188e+00,-2.148777432739734650e-02,-1.274298477172851562e+02,1.085567951202392578e+00,-8.675281524658203125e+00,-1.104403305053710938e+01,-1.436975526303285733e-05,-3.218506097793579102e+00,3.011788606643676758e+00,-5.449516720545943826e-06,9.075669199228286743e-02,1.225489675998687744e-01,-2.010928535461425781e+01,5.000000000000000000e-01,-6.551418453454971313e-02,0.000000000000000000e+00
1.641604185104370117e+00,9.700000000000000000e+01,0.000000000000000000e+00,6.467822265625000000e+02,3.465665817260742188e+00,3.465665817260742188e+00,-2.148777432739734650e-02,-1.274298477172851562e+02,1.085567951202392578e+00,-8.675281524658203125e+00,-1.104403305053710938e+01,-1.436975526303285733e-05,-3.218506097793579102e+00,3.011788606643676758e+00,-5.449516720545943826e-06,9.075669199228286743e-02,1.225489675998687744e-01,-2.010928535461425781e+01,5.000000000000000000e-01,-6.551418453454971313e-02,0.000000000000000000e+00
1.705059289932250977e+00,9.700000000000000000e+01,0.000000000000000000e+00,6.464966430664062500e+02,3.096917867660522461e+00,3.096917867660522461e+00,-2.130335941910743713e-02,-1.280898742675781250e+02,1.086108922958374023e+00,-8.787547111511230469e+00,-1.093673706054687500e+01,-6.083430434955516830e-06,-3.716639995574951172e+00,3.552117586135864258e+00,2.743252553045749664e-04,-1.429897360503673553e-02,-9.316908195614814758e-03,-1.977179908752441406e+01,5.000000000000000000e-01,-6.201782077550888062e-02,0.000000000000000000e+00
1.735986948013305664e+00,9.700000000000000000e+01,0.000000000000000000e+00,6.462340698242187500e+02,2.764822959899902344e+00,2.764822959899902344e+00,-2.105064131319522858e-02,-1.286755981445312500e+02,1.081065297126770020e+00,-8.882055282592773438e+00,-1.084436416625976562e+01,5.025104655942413956e-06,-3.055781841278076172e+00,2.986740827560424805e+00,3.591780550777912140e-04,-1.308712065219879150e-01,-1.507378071546554565e-01,-1.927375984191894531e+01,5.000000000000000000e-01,-5.797443538904190063e-02,0.000000000000000000e+00
1.735986948013305664e+00,9.700000000000000000e+01,0.000000000000000000e+00,6.462340698242187500e+02,2.764822959899902344e+00,2.764822959899902344e+00,-2.105064131319522858e-02,-1.286755981445312500e+02,1.081065297126770020e+00,-8.882055282592773438e+00,-1.084436416625976562e+01,5.025104655942413956e-06,-3.055781841278076172e+00,2.986740827560424805e+00,3.591780550777912140e-04,-1.308712065219879150e-01,-1.507378071546554565e-01,-1.927375984191894531e+01,5.000000000000000000e-01,-5.797443538904190063e-02,0.000000000000000000e+00
1.763690948486328125e+00,9.700000000000000000e+01,0.000000000000000000e+00,6.459622192382812500e+02,2.427689552307128906e+00,2.427689552307128906e+00,-2.075694315135478973e-02,-1.292577209472656250e+02,1.071236968040466309e+00,-8.974586486816406250e+00,-1.075210571289062500e+01,2.259858592879027128e-05,-3.339994430541992188e+00,3.330149173736572266e+00,6.343301502056419849e-04,-2.222376316785812378e-01,-2.569366693496704102e-01,-1.868277168273925781e+01,5.000000000000000000e-01,-5.511627346277236938e-02,0.000000000000000000e+00
1.763690948486328125e+00,9.700000000000000000e+01,0.000000000000000000e+00,6.459622192382812500e+02,2.427689552307128906e+00,2.427689552307128906e+00,-2.075694315135478973e-02,-1.292577209472656250e+02,1.071236968040466309e+00,-8.974586486816406250e+00,-1.075210571289062500e+01,2.259858592879027128e-05,-3.339994430541992188e+00,3.330149173736572266e+00,6.343301502056419849e-04,-2.222376316785812378e-01,-2.569366693496704102e-01,-1.868277168273925781e+01,5.000000000000000000e-01,-5.511627346277236938e-02,0.000000000000000000e+00
1.763690948486328125e+00,9.700000000000000000e+01,0.000000000000000000e+00,6.459622192382812500e+02,2.427689552307128906e+00,2.427689552307128906e+00,-2.075694315135478973e-02,-1.292577209472656250e+02,1.071236968040466309e+00,-8.974586486816406250e+00,-1.075210571289062500e+01,2.259858592879027128e-05,-3.339994430541992188e+00,3.330149173736572266e+00,6.343301502056419849e-04,-2.222376316785812378e-01,-2.569366693496704102e-01,-1.868277168273925781e+01,5.000000000000000000e-01,-5.511627346277236938e-02,0.000000000000000000e+00
1.792892456054687500e+00,9.700000000000000000e+01,0.000000000000000000e+00,6.457158813476562500e+02,2.128475666046142578e+00,2.128475666046142578e+00,-2.063400112092494965e-02,-1.297788238525390625e+02,1.068715333938598633e+00,-9.076036453247070312e+00,-1.064923954010009766e+01,3.242043385398574173e-05,-3.474134683609008789e+00,3.522632360458374023e+00,3.363472933415323496e-04,-2.528328448534011841e-02,-2.502731233835220337e-02,-1.884822273254394531e+01,5.000000000000000000e-01,-6.513194739818572998e-02,0.000000000000000000e+00
1.792892456054687500e+00,9.700000000000000000e+01,0.000000000000000000e+00,6.457158813476562500e+02,2.128475666046142578e+00,2.128475666046142578e+00,-2.063400112092494965e-02,-1.297788238525390625e+02,1.068715333938598633e+00,-9.076036453247070312e+00,-1.064923954010009766e+01,3.242043385398574173e-05,-3.474134683609008789e+00,3.522632360458374023e+00,3.363472933415323496e-04,-2.528328448534011841e-02,-2.502731233835220337e-02,-1.884822273254394531e+01,5.000000000000000000e-01,-6.513194739818572998e-02,0.000000000000000000e+00
1.820259332656860352e+00,9.700000000000000000e+01,0.000000000000000000e+00,6.452047729492187500e+02,1.525688409805297852e+00,1.525688409805297852e+00,-2.040860429406166077e-02,-1.308392944335937500e+02,1.065331459045410156e+00,-9.257943153381347656e+00,-1.045885562896728516e+01,2.446793405397329479e-05,-2.784411668777465820e+00,2.946445941925048828e+00,-7.628474850207567215e-05,-8.393722027540206909e-02,-9.095705300569534302e-02,-1.861031532287597656e+01,5.000000000000000000e-01,-5.917587131261825562e-02,0.000000000000000000e+00
1.850505590438842773e+00,9.700000000000000000e+01,0.000000000000000000e+00,6.452047729492187500e+02,1.525688409805297852e+00,1.525688409805297852e+00,-2.040860429406166077e-02,-1.308392944335937500e+02,1.065331459045410156e+00,-9.257943153381347656e+00,-1.045885562896728516e+01,2.446793405397329479e-05,-2.784411668777465820e+00,2.946445941925048828e+00,-7.628474850207567215e-05,-8.393722027540206909e-02,-9.095705300569534302e-02,-1.861031532287597656e+01,5.000000000000000000e-01,-5.917587131261825562e-02,0.000000000000000000e+00
1.850505590438842773e+00,9.700000000000000000e+01,0.000000000000000000e+00,6.452047729492187500e+02,1.525688409805297852e+00,1.525688409805297852e+00,-2.040860429406166077e-02,-1.308392944335937500e+02,1.065331459045410156e+00,-9.257943153381347656e+00,-1.045885562896728516e+01,2.446793405397329479e-05,-2.784411668777465820e+00,2.946445941925048828e+00,-7.628474850207567215e-05,-8.393722027540206909e-02,-9.095705300569534302e-02,-1.861031532287597656e+01,5.000000000000000000e-01,-5.917587131261825562e-02,0.000000000000000000e+00
1.909882545471191406e+00,9.700000000000000000e+01,0.000000000000000000e+00,6.446626586914062500e+02,9.090781807899475098e-01,9.090781807899475098e-01,-3.008698113262653351e-02,-1.319123992919921875e+02,1.044518947601318359e+00,-9.299594879150390625e+00,-1.015252876281738281e+01,4.100207297597080469e-05,1.511218190193176270e+00,6.947554588317871094e+00,3.438568091951310635e-04,-1.684796810150146484e-02,-6.745339632034301758e-01,-1.784297370910644531e+01,5.000000000000000000e-01,-5.345668643712997437e-02,0.000000000000000000e+00
1.909882545471191406e+00,9.700000000000000000e+01,0.000000000000000000e+00,6.446626586914062500e+02,9.090781807899475098e-01,9.090781807899475098e-01,-3.008698113262653351e-02,-1.319123992919921875e+02,1.044518947601318359e+00,-9.299594879150390625e+00,-1.015252876281738281e+01,4.100207297597080469e-05,1.511218190193176270e+00,6.947554588317871094e+00,3.438568091951310635e-04,-1.684796810150146484e-02,-6.745339632034301758e-01,-1.784297370910644531e+01,5.000000000000000000e-01,-5.345668643712997437e-02,0.000000000000000000e+00
1.938101291656494141e+00,9.700000000000000000e+01,0.000000000000000000e+00,6.443841552734375000e+02,6.012853384017944336e-01,6.012853384017944336e-01,-4.980573803186416626e-02,-1.324642791748046875e+02,1.036948442459106445e+00,-9.286006927490234375e+00,-9.916423797607421875e+00,5.052749838796444237e-05,4.815221428871154785e-01,8.366954803466796875e+00,3.375566448085010052e-04,3.952263593673706055e-01,-6.044096946716308594e-01,-1.818596458435058594e+01,1.000000000000000000e+00,-6.509952247142791748e-02,0.000000000000000000e+00
