# Time,X,Y,Z,Roll,Pitch,Yaw,Vx,Vy,Vz,Ax,Ay,Az,Wx,Wy,Wz,Throttle,Steer,Brake
0.000000000000000000e+00,4.202417907714843750e+02,-1.746749687194824219e+01,-1.746749687194824219e+01,3.591791391372680664e-01,1.797917785644531250e+02,-8.117675781250000000e-03,-1.458448410034179688e+01,5.282528698444366455e-02,-4.309235373511910439e-04,3.249521493911743164e+00,-8.629641495645046234e-03,-1.736058737151324749e-03,-5.311973392963409424e-03,2.529152393341064453e+00,-2.696278970688581467e-03,5.000000000000000000e-01,1.881917341961525381e-05,0.000000000000000000e+00
1.045818328857421875e-01,4.202417907714843750e+02,-1.746749687194824219e+01,-1.746749687194824219e+01,3.591791391372680664e-01,1.797917785644531250e+02,-8.117675781250000000e-03,-1.458448410034179688e+01,5.282528698444366455e-02,-4.309235373511910439e-04,3.249521493911743164e+00,-8.629641495645046234e-03,-1.736058737151324749e-03,-5.311973392963409424e-03,2.529152393341064453e+00,-2.696278970688581467e-03,5.000000000000000000e-01,1.881917341961525381e-05,0.000000000000000000e+00
1.045818328857421875e-01,4.202417907714843750e+02,-1.746749687194824219e+01,-1.746749687194824219e+01,3.591791391372680664e-01,1.797917785644531250e+02,-8.117675781250000000e-03,-1.458448410034179688e+01,5.282528698444366455e-02,-4.309235373511910439e-04,3.249521493911743164e+00,-8.629641495645046234e-03,-1.736058737151324749e-03,-5.311973392963409424e-03,2.529152393341064453e+00,-2.696278970688581467e-03,5.000000000000000000e-01,1.881917341961525381e-05,0.000000000000000000e+00
1.045818328857421875e-01,4.202417907714843750e+02,-1.746749687194824219e+01,-1.746749687194824219e+01,3.591791391372680664e-01,1.797917785644531250e+02,-8.117675781250000000e-03,-1.458448410034179688e+01,5.282528698444366455e-02,-4.309235373511910439e-04,3.249521493911743164e+00,-8.629641495645046234e-03,-1.736058737151324749e-03,-5.311973392963409424e-03,2.529152393341064453e+00,-2.696278970688581467e-03,5.000000000000000000e-01,1.881917341961525381e-05,0.000000000000000000e+00
1.045818328857421875e-01,4.202417907714843750e+02,-1.746749687194824219e+01,-1.746749687194824219e+01,3.591791391372680664e-01,1.797917785644531250e+02,-8.117675781250000000e-03,-1.458448410034179688e+01,5.282528698444366455e-02,-4.309235373511910439e-04,3.249521493911743164e+00,-8.629641495645046234e-03,-1.736058737151324749e-03,-5.311973392963409424e-03,2.529152393341064453e+00,-2.696278970688581467e-03,5.000000000000000000e-01,1.881917341961525381e-05,0.000000000000000000e+00
1.045818328857421875e-01,4.202417907714843750e+02,-1.746749687194824219e+01,-1.746749687194824219e+01,3.591791391372680664e-01,1.797917785644531250e+02,-8.117675781250000000e-03,-1.458448410034179688e+01,5.282528698444366455e-02,-4.309235373511910439e-04,3.249521493911743164e+00,-8.629641495645046234e-03,-1.736058737151324749e-03,-5.311973392963409424e-03,2.529152393341064453e+00,-2.696278970688581467e-03,5.000000000000000000e-01,1.881917341961525381e-05,0.000000000000000000e+00
1.045818328857421875e-01,4.188060302734375000e+02,-1.746229362487792969e+01,-1.746229362487792969e+01,5.874099135398864746e-01,1.797918853759765625e+02,-8.300780318677425385e-03,-1.417752265930175781e+01,5.144913494586944580e-02,-5.180067382752895355e-04,3.886597871780395508e+00,-1.314264442771673203e-02,-8.316694293171167374e-04,1.441088318824768066e-02,2.017942190170288086e+00,2.600017702206969261e-03,5.000000000000000000e-01,1.932779923663474619e-05,0.000000000000000000e+00
2.092907428741455078e-01,4.188060302734375000e+02,-1.746229362487792969e+01,-1.746229362487792969e+01,5.874099135398864746e-01,1.797918853759765625e+02,-8.300780318677425385e-03,-1.417752265930175781e+01,5.144913494586944580e-02,-5.180067382752895355e-04,3.886597871780395508e+00,-1.314264442771673203e-02,-8.316694293171167374e-04,1.441088318824768066e-02,2.017942190170288086e+00,2.600017702206969261e-03,5.000000000000000000e-01,1.932779923663474619e-05,0.000000000000000000e+00
2.092907428741455078e-01,4.188060302734375000e+02,-1.746229362487792969e+01,-1.746229362487792969e+01,5.874099135398864746e-01,1.797918853759765625e+02,-8.300780318677425385e-03,-1.417752265930175781e+01,5.144913494586944580e-02,-5.180067382752895355e-04,3.886597871780395508e+00,-1.314264442771673203e-02,-8.316694293171167374e-04,1.441088318824768066e-02,2.017942190170288086e+00,2.600017702206969261e-03,5.000000000000000000e-01,1.932779923663474619e-05,0.000000000000000000e+00
2.092907428741455078e-01,4.188060302734375000e+02,-1.746229362487792969e+01,-1.746229362487792969e+01,5.874099135398864746e-01,1.797918853759765625e+02,-8.300780318677425385e-03,-1.417752265930175781e+01,5.144913494586944580e-02,-5.180067382752895355e-04,3.886597871780395508e+00,-1.314264442771673203e-02,-8.316694293171167374e-04,1.441088318824768066e-02,2.017942190170288086e+00,2.600017702206969261e-03,5.000000000000000000e-01,1.932779923663474619e-05,0.000000000000000000e+00
2.092907428741455078e-01,4.188060302734375000e+02,-1.746229362487792969e+01,-1.746229362487792969e+01,5.874099135398864746e-01,1.797918853759765625e+02,-8.300780318677425385e-03,-1.417752265930175781e+01,5.144913494586944580e-02,-5.180067382752895355e-04,3.886597871780395508e+00,-1.314264442771673203e-02,-8.316694293171167374e-04,1.441088318824768066e-02,2.017942190170288086e+00,2.600017702206969261e-03,5.000000000000000000e-01,1.932779923663474619e-05,0.000000000000000000e+00
2.092907428741455078e-01,4.174110717773437500e+02,-1.745722579956054688e+01,-1.745722579956054688e+01,7.563477754592895508e-01,1.797919311523437500e+02,-6.652832962572574615e-03,-1.377483272552490234e+01,4.994181543588638306e-02,-5.082999705336987972e-04,5.396644592285156250e+00,-2.020032517611980438e-02,1.300851290579885244e-04,2.674573473632335663e-02,1.464211344718933105e+00,-6.306223222054541111e-04,5.000000000000000000e-01,-3.051757857974735089e-06,0.000000000000000000e+00
2.839093208312988281e-01,4.174110717773437500e+02,-1.745722579956054688e+01,-1.745722579956054688e+01,7.563477754592895508e-01,1.797919311523437500e+02,-6.652832962572574615e-03,-1.377483272552490234e+01,4.994181543588638306e-02,-5.082999705336987972e-04,5.396644592285156250e+00,-2.020032517611980438e-02,1.300851290579885244e-04,2.674573473632335663e-02,1.464211344718933105e+00,-6.306223222054541111e-04,5.000000000000000000e-01,-3.051757857974735089e-06,0.000000000000000000e+00
2.839093208312988281e-01,4.174110717773437500e+02,-1.745722579956054688e+01,-1.745722579956054688e+01,7.563477754592895508e-01,1.797919311523437500e+02,-6.652832962572574615e-03,-1.377483272552490234e+01,4.994181543588638306e-02,-5.082999705336987972e-04,5.396644592285156250e+00,-2.020032517611980438e-02,1.300851290579885244e-04,2.674573473632335663e-02,1.464211344718933105e+00,-6.306223222054541111e-04,5.000000000000000000e-01,-3.051757857974735089e-06,0.000000000000000000e+00
2.839093208312988281e-01,4.174110717773437500e+02,-1.745722579956054688e+01,-1.745722579956054688e+01,7.563477754592895508e-01,1.797919311523437500e+02,-6.652832962572574615e-03,-1.377483272552490234e+01,4.994181543588638306e-02,-5.082999705336987972e-04,5.396644592285156250e+00,-2.020032517611980438e-02,1.300851290579885244e-04,2.674573473632335663e-02,1.464211344718933105e+00,-6.306223222054541111e-04,5.000000000000000000e-01,-3.051757857974735089e-06,0.000000000000000000e+00
2.839093208312988281e-01,4.174110717773437500e+02,-1.745722579956054688e+01,-1.745722579956054688e+01,7.563477754592895508e-01,1.797919311523437500e+02,-6.652832962572574615e-03,-1.377483272552490234e+01,4.994181543588638306e-02,-5.082999705336987972e-04,5.396644592285156250e+00,-2.020032517611980438e-02,1.300851290579885244e-04,2.674573473632335663e-02,1.464211344718933105e+00,-6.306223222054541111e-04,5.000000000000000000e-01,-3.051757857974735089e-06,0.000000000000000000e+00
3.569011688232421875e-01,4.163948669433593750e+02,-1.745353317260742188e+01,-1.745353317260742188e+01,8.243423104286193848e-01,1.797917785644531250e+02,-4.913330078125000000e-03,-1.353237247467041016e+01,4.904860258102416992e-02,-4.547298594843596220e-04,3.321744203567504883e+00,-1.223715860396623611e-02,7.339190924540162086e-04,2.449280582368373871e-02,2.121898978948593140e-01,-3.115971339866518974e-03,1.000000000000000000e+00,-1.576741487951949239e-05,0.000000000000000000e+00
3.569011688232421875e-01,4.163948669433593750e+02,-1.745353317260742188e+01,-1.745353317260742188e+01,8.243423104286193848e-01,1.797917785644531250e+02,-4.913330078125000000e-03,-1.353237247467041016e+01,4.904860258102416992e-02,-4.547298594843596220e-04,3.321744203567504883e+00,-1.223715860396623611e-02,7.339190924540162086e-04,2.449280582368373871e-02,2.121898978948593140e-01,-3.115971339866518974e-03,1.000000000000000000e+00,-1.576741487951949239e-05,0.000000000000000000e+00
3.569011688232421875e-01,4.163948669433593750e+02,-1.745353317260742188e+01,-1.745353317260742188e+01,8.243423104286193848e-01,1.797917785644531250e+02,-4.913330078125000000e-03,-1.353237247467041016e+01,4.904860258102416992e-02,-4.547298594843596220e-04,3.321744203567504883e+00,-1.223715860396623611e-02,7.339190924540162086e-04,2.449280582368373871e-02,2.121898978948593140e-01,-3.115971339866518974e-03,1.000000000000000000e+00,-1.576741487951949239e-05,0.000000000000000000e+00
3.569011688232421875e-01,4.163948669433593750e+02,-1.745353317260742188e+01,-1.745353317260742188e+01,8.243423104286193848e-01,1.797917785644531250e+02,-4.913330078125000000e-03,-1.353237247467041016e+01,4.904860258102416992e-02,-4.547298594843596220e-04,3.321744203567504883e+00,-1.223715860396623611e-02,7.339190924540162086e-04,2.449280582368373871e-02,2.121898978948593140e-01,-3.115971339866518974e-03,1.000000000000000000e+00,-1.576741487951949239e-05,0.000000000000000000e+00
4.765405654907226562e-01,4.154062500000000000e+02,-1.744993972778320312e+01,-1.744993972778320312e+01,6.546667814254760742e-01,1.797914886474609375e+02,-3.295897971838712692e-03,-1.360750865936279297e+01,4.936402291059494019e-02,-2.600480802357196808e-04,-6.280221343040466309e-01,2.636425429955124855e-03,1.627238118089735508e-03,6.262945942580699921e-03,-3.988326549530029297e+00,-5.391845945268869400e-03,1.000000000000000000e+00,-2.237955777673050761e-05,0.000000000000000000e+00
4.765405654907226562e-01,4.154062500000000000e+02,-1.744993972778320312e+01,-1.744993972778320312e+01,6.546667814254760742e-01,1.797914886474609375e+02,-3.295897971838712692e-03,-1.360750865936279297e+01,4.936402291059494019e-02,-2.600480802357196808e-04,-6.280221343040466309e-01,2.636425429955124855e-03,1.627238118089735508e-03,6.262945942580699921e-03,-3.988326549530029297e+00,-5.391845945268869400e-03,1.000000000000000000e+00,-2.237955777673050761e-05,0.000000000000000000e+00
4.765405654907226562e-01,4.154062500000000000e+02,-1.744993972778320312e+01,-1.744993972778320312e+01,6.546667814254760742e-01,1.797914886474609375e+02,-3.295897971838712692e-03,-1.360750865936279297e+01,4.936402291059494019e-02,-2.600480802357196808e-04,-6.280221343040466309e-01,2.636425429955124855e-03,1.627238118089735508e-03,6.262945942580699921e-03,-3.988326549530029297e+00,-5.391845945268869400e-03,1.000000000000000000e+00,-2.237955777673050761e-05,0.000000000000000000e+00
4.765405654907226562e-01,4.154062500000000000e+02,-1.744993972778320312e+01,-1.744993972778320312e+01,6.546667814254760742e-01,1.797914886474609375e+02,-3.295897971838712692e-03,-1.360750865936279297e+01,4.936402291059494019e-02,-2.600480802357196808e-04,-6.280221343040466309e-01,2.636425429955124855e-03,1.627238118089735508e-03,6.262945942580699921e-03,-3.988326549530029297e+00,-5.391845945268869400e-03,1.000000000000000000e+00,-2.237955777673050761e-05,0.000000000000000000e+00
4.765405654907226562e-01,4.154062500000000000e+02,-1.744993972778320312e+01,-1.744993972778320312e+01,6.546667814254760742e-01,1.797914886474609375e+02,-3.295897971838712692e-03,-1.360750865936279297e+01,4.936402291059494019e-02,-2.600480802357196808e-04,-6.280221343040466309e-01,2.636425429955124855e-03,1.627238118089735508e-03,6.262945942580699921e-03,-3.988326549530029297e+00,-5.391845945268869400e-03,1.000000000000000000e+00,-2.237955777673050761e-05,0.000000000000000000e+00
4.765405654907226562e-01,4.154062500000000000e+02,-1.744993972778320312e+01,-1.744993972778320312e+01,6.546667814254760742e-01,1.797914886474609375e+02,-3.295897971838712692e-03,-1.360750865936279297e+01,4.936402291059494019e-02,-2.600480802357196808e-04,-6.280221343040466309e-01,2.636425429955124855e-03,1.627238118089735508e-03,6.262945942580699921e-03,-3.988326549530029297e+00,-5.391845945268869400e-03,1.000000000000000000e+00,-2.237955777673050761e-05,0.000000000000000000e+00
4.765405654907226562e-01,4.154062500000000000e+02,-1.744993972778320312e+01,-1.744993972778320312e+01,6.546667814254760742e-01,1.797914886474609375e+02,-3.295897971838712692e-03,-1.360750865936279297e+01,4.936402291059494019e-02,-2.600480802357196808e-04,-6.280221343040466309e-01,2.636425429955124855e-03,1.627238118089735508e-03,6.262945942580699921e-03,-3.988326549530029297e+00,-5.391845945268869400e-03,1.000000000000000000e+00,-2.237955777673050761e-05,0.000000000000000000e+00
6.200885772705078125e-01,4.140284423828125000e+02,-1.744491958618164062e+01,-1.744491958618164062e+01,1.084975525736808777e-01,1.797908325195312500e+02,-1.678466564044356346e-03,-1.396071052551269531e+01,5.078949779272079468e-02,1.157567658083280548e-05,-2.460513830184936523e+00,9.930300526320934296e-03,1.892215339466929436e-03,-8.101436309516429901e-03,-5.633188724517822266e+00,-7.196373306214809418e-03,1.000000000000000000e+00,-2.695719376788474619e-05,0.000000000000000000e+00
6.200885772705078125e-01,4.140284423828125000e+02,-1.744491958618164062e+01,-1.744491958618164062e+01,1.084975525736808777e-01,1.797908325195312500e+02,-1.678466564044356346e-03,-1.396071052551269531e+01,5.078949779272079468e-02,1.157567658083280548e-05,-2.460513830184936523e+00,9.930300526320934296e-03,1.892215339466929436e-03,-8.101436309516429901e-03,-5.633188724517822266e+00,-7.196373306214809418e-03,1.000000000000000000e+00,-2.695719376788474619e-05,0.000000000000000000e+00
6.200885772705078125e-01,4.140284423828125000e+02,-1.744491958618164062e+01,-1.744491958618164062e+01,1.084975525736808777e-01,1.797908325195312500e+02,-1.678466564044356346e-03,-1.396071052551269531e+01,5.078949779272079468e-02,1.157567658083280548e-05,-2.460513830184936523e+00,9.930300526320934296e-03,1.892215339466929436e-03,-8.101436309516429901e-03,-5.633188724517822266e+00,-7.196373306214809418e-03,1.000000000000000000e+00,-2.695719376788474619e-05,0.000000000000000000e+00
6.200885772705078125e-01,4.140284423828125000e+02,-1.744491958618164062e+01,-1.744491958618164062e+01,1.084975525736808777e-01,1.797908325195312500e+02,-1.678466564044356346e-03,-1.396071052551269531e+01,5.078949779272079468e-02,1.157567658083280548e-05,-2.460513830184936523e+00,9.930300526320934296e-03,1.892215339466929436e-03,-8.101436309516429901e-03,-5.633188724517822266e+00,-7.196373306214809418e-03,1.000000000000000000e+00,-2.695719376788474619e-05,0.000000000000000000e+00
6.200885772705078125e-01,4.140284423828125000e+02,-1.744491958618164062e+01,-1.744491958618164062e+01,1.084975525736808777e-01,1.797908325195312500e+02,-1.678466564044356346e-03,-1.396071052551269531e+01,5.078949779272079468e-02,1.157567658083280548e-05,-2.460513830184936523e+00,9.930300526320934296e-03,1.892215339466929436e-03,-8.101436309516429901e-03,-5.633188724517822266e+00,-7.196373306214809418e-03,1.000000000000000000e+00,-2.695719376788474619e-05,0.000000000000000000e+00
6.200885772705078125e-01,4.140284423828125000e+02,-1.744491958618164062e+01,-1.744491958618164062e+01,1.084975525736808777e-01,1.797908325195312500e+02,-1.678466564044356346e-03,-1.396071052551269531e+01,5.078949779272079468e-02,1.157567658083280548e-05,-2.460513830184936523e+00,9.930300526320934296e-03,1.892215339466929436e-03,-8.101436309516429901e-03,-5.633188724517822266e+00,-7.196373306214809418e-03,1.000000000000000000e+00,-2.695719376788474619e-05,0.000000000000000000e+00
7.946169376373291016e-01,4.126111145019531250e+02,-1.743975067138671875e+01,-1.743975067138671875e+01,-3.470145761966705322e-01,1.797905273437500000e+02,-8.850098238326609135e-04,-1.434497928619384766e+01,5.232917517423629761e-02,1.435040612705051899e-04,-2.201755285263061523e+00,8.821932598948478699e-03,7.559137884527444839e-04,-7.250841706991195679e-03,-3.458766937255859375e+00,-1.306343823671340942e-03,5.000000000000000000e-01,-1.017252657220524270e-06,0.000000000000000000e+00
7.946169376373291016e-01,4.126111145019531250e+02,-1.743975067138671875e+01,-1.743975067138671875e+01,-3.470145761966705322e-01,1.797905273437500000e+02,-8.850098238326609135e-04,-1.434497928619384766e+01,5.232917517423629761e-02,1.435040612705051899e-04,-2.201755285263061523e+00,8.821932598948478699e-03,7.559137884527444839e-04,-7.250841706991195679e-03,-3.458766937255859375e+00,-1.306343823671340942e-03,5.000000000000000000e-01,-1.017252657220524270e-06,0.000000000000000000e+00
7.946169376373291016e-01,4.126111145019531250e+02,-1.743975067138671875e+01,-1.743975067138671875e+01,-3.470145761966705322e-01,1.797905273437500000e+02,-8.850098238326609135e-04,-1.434497928619384766e+01,5.232917517423629761e-02,1.435040612705051899e-04,-2.201755285263061523e+00,8.821932598948478699e-03,7.559137884527444839e-04,-7.250841706991195679e-03,-3.458766937255859375e+00,-1.306343823671340942e-03,5.000000000000000000e-01,-1.017252657220524270e-06,0.000000000000000000e+00
7.946169376373291016e-01,4.126111145019531250e+02,-1.743975067138671875e+01,-1.743975067138671875e+01,-3.470145761966705322e-01,1.797905273437500000e+02,-8.850098238326609135e-04,-1.434497928619384766e+01,5.232917517423629761e-02,1.435040612705051899e-04,-2.201755285263061523e+00,8.821932598948478699e-03,7.559137884527444839e-04,-7.250841706991195679e-03,-3.458766937255859375e+00,-1.306343823671340942e-03,5.000000000000000000e-01,-1.017252657220524270e-06,0.000000000000000000e+00
8.783230781555175781e-01,4.111652526855468750e+02,-1.743447303771972656e+01,-1.743447303771972656e+01,-4.983442425727844238e-01,1.797907257080078125e+02,-4.882814246229827404e-04,-1.450666141510009766e+01,5.296168103814125061e-02,3.041714080609381199e-04,-1.931544423103332520e+00,7.556266151368618011e-03,1.919421367347240448e-03,2.743613906204700470e-03,-1.349331587553024292e-01,3.409059951081871986e-03,5.000000000000000000e-01,1.525878906250000000e-05,0.000000000000000000e+00
8.783230781555175781e-01,4.111652526855468750e+02,-1.743447303771972656e+01,-1.743447303771972656e+01,-4.983442425727844238e-01,1.797907257080078125e+02,-4.882814246229827404e-04,-1.450666141510009766e+01,5.296168103814125061e-02,3.041714080609381199e-04,-1.931544423103332520e+00,7.556266151368618011e-03,1.919421367347240448e-03,2.743613906204700470e-03,-1.349331587553024292e-01,3.409059951081871986e-03,5.000000000000000000e-01,1.525878906250000000e-05,0.000000000000000000e+00
9.483780860900878906e-01,4.099542236328125000e+02,-1.743005371093750000e+01,-1.743005371093750000e+01,-4.016697406768798828e-01,1.797910308837890625e+02,-2.136230614269152284e-04,-1.440754890441894531e+01,5.256601795554161072e-02,3.924394259229302406e-04,1.414781212806701660e+00,-5.647891666740179062e-03,1.259981538169085979e-03,1.065024547278881073e-02,1.898736119270324707e+00,3.828992368653416634e-03,5.000000000000000000e-01,1.373290979245211929e-05,0.000000000000000000e+00
9.483780860900878906e-01,4.099542236328125000e+02,-1.743005371093750000e+01,-1.743005371093750000e+01,-4.016697406768798828e-01,1.797910308837890625e+02,-2.136230614269152284e-04,-1.440754890441894531e+01,5.256601795554161072e-02,3.924394259229302406e-04,1.414781212806701660e+00,-5.647891666740179062e-03,1.259981538169085979e-03,1.065024547278881073e-02,1.898736119270324707e+00,3.828992368653416634e-03,5.000000000000000000e-01,1.373290979245211929e-05,0.000000000000000000e+00
9.483780860900878906e-01,4.099542236328125000e+02,-1.743005371093750000e+01,-1.743005371093750000e+01,-4.016697406768798828e-01,1.797910308837890625e+02,-2.136230614269152284e-04,-1.440754890441894531e+01,5.256601795554161072e-02,3.924394259229302406e-04,1.414781212806701660e+00,-5.647891666740179062e-03,1.259981538169085979e-03,1.065024547278881073e-02,1.898736119270324707e+00,3.828992368653416634e-03,5.000000000000000000e-01,1.373290979245211929e-05,0.000000000000000000e+00
9.483780860900878906e-01,4.099542236328125000e+02,-1.743005371093750000e+01,-1.743005371093750000e+01,-4.016697406768798828e-01,1.797910308837890625e+02,-2.136230614269152284e-04,-1.440754890441894531e+01,5.256601795554161072e-02,3.924394259229302406e-04,1.414781212806701660e+00,-5.647891666740179062e-03,1.259981538169085979e-03,1.065024547278881073e-02,1.898736119270324707e+00,3.828992368653416634e-03,5.000000000000000000e-01,1.373290979245211929e-05,0.000000000000000000e+00
9.483780860900878906e-01,4.089512023925781250e+02,-1.742639541625976562e+01,-1.742639541625976562e+01,-2.346511334180831909e-01,1.797912292480468750e+02,6.619492341997101903e-05,-1.423300552368164062e+01,5.188815295696258545e-02,3.351600025780498981e-04,2.215045213699340820e+00,-8.602455258369445801e-03,-7.269053603522479534e-04,1.342604029923677444e-02,2.599881172180175781e+00,1.916364300996065140e-03,5.000000000000000000e-01,4.069010628882097080e-06,0.000000000000000000e+00
1.027177095413208008e+00,4.089512023925781250e+02,-1.742639541625976562e+01,-1.742639541625976562e+01,-2.346511334180831909e-01,1.797912292480468750e+02,6.619492341997101903e-05,-1.423300552368164062e+01,5.188815295696258545e-02,3.351600025780498981e-04,2.215045213699340820e+00,-8.602455258369445801e-03,-7.269053603522479534e-04,1.342604029923677444e-02,2.599881172180175781e+00,1.916364300996065140e-03,5.000000000000000000e-01,4.069010628882097080e-06,0.000000000000000000e+00
1.027177095413208008e+00,4.089512023925781250e+02,-1.742639541625976562e+01,-1.742639541625976562e+01,-2.346511334180831909e-01,1.797912292480468750e+02,6.619492341997101903e-05,-1.423300552368164062e+01,5.188815295696258545e-02,3.351600025780498981e-04,2.215045213699340820e+00,-8.602455258369445801e-03,-7.269053603522479534e-04,1.342604029923677444e-02,2.599881172180175781e+00,1.916364300996065140e-03,5.000000000000000000e-01,4.069010628882097080e-06,0.000000000000000000e+00
1.095043420791625977e+00,4.078399047851562500e+02,-1.742234420776367188e+01,-1.742234420776367188e+01,-1.891279220581054688e-02,1.797912445068359375e+02,3.447266935836523771e-04,-1.399194335937500000e+01,5.097695812582969666e-02,1.734746183501556516e-04,3.552014350891113281e+00,-1.342631690204143524e-02,-2.382409526035189629e-03,1.294539216905832291e-02,2.703356981277465820e+00,2.365227701375260949e-04,5.000000000000000000e-01,-1.525878928987367544e-06,0.000000000000000000e+00
1.095043420791625977e+00,4.078399047851562500e+02,-1.742234420776367188e+01,-1.742234420776367188e+01,-1.891279220581054688e-02,1.797912445068359375e+02,3.447266935836523771e-04,-1.399194335937500000e+01,5.097695812582969666e-02,1.734746183501556516e-04,3.552014350891113281e+00,-1.342631690204143524e-02,-2.382409526035189629e-03,1.294539216905832291e-02,2.703356981277465820e+00,2.365227701375260949e-04,5.000000000000000000e-01,-1.525878928987367544e-06,0.000000000000000000e+00
1.095043420791625977e+00,4.078399047851562500e+02,-1.742234420776367188e+01,-1.742234420776367188e+01,-1.891279220581054688e-02,1.797912445068359375e+02,3.447266935836523771e-04,-1.399194335937500000e+01,5.097695812582969666e-02,1.734746183501556516e-04,3.552014350891113281e+00,-1.342631690204143524e-02,-2.382409526035189629e-03,1.294539216905832291e-02,2.703356981277465820e+00,2.365227701375260949e-04,5.000000000000000000e-01,-1.525878928987367544e-06,0.000000000000000000e+00
1.095043420791625977e+00,4.078399047851562500e+02,-1.742234420776367188e+01,-1.742234420776367188e+01,-1.891279220581054688e-02,1.797912445068359375e+02,3.447266935836523771e-04,-1.399194335937500000e+01,5.097695812582969666e-02,1.734746183501556516e-04,3.552014350891113281e+00,-1.342631690204143524e-02,-2.382409526035189629e-03,1.294539216905832291e-02,2.703356981277465820e+00,2.365227701375260949e-04,5.000000000000000000e-01,-1.525878928987367544e-06,0.000000000000000000e+00
1.168572425842285156e+00,4.068987731933593750e+02,-1.741891479492187500e+01,-1.741891479492187500e+01,1.514389514923095703e-01,1.797912445068359375e+02,4.996484494768083096e-04,-1.376568603515625000e+01,5.014439299702644348e-02,-6.322002718661678955e-06,3.077116489410400391e+00,-1.132294815033674240e-02,-2.445247489959001541e-03,1.053614541888237000e-02,2.438641309738159180e+00,-5.032073240727186203e-04,5.000000000000000000e-01,-3.560384129741578363e-06,0.000000000000000000e+00
1.168572425842285156e+00,4.068987731933593750e+02,-1.741891479492187500e+01,-1.741891479492187500e+01,1.514389514923095703e-01,1.797912445068359375e+02,4.996484494768083096e-04,-1.376568603515625000e+01,5.014439299702644348e-02,-6.322002718661678955e-06,3.077116489410400391e+00,-1.132294815033674240e-02,-2.445247489959001541e-03,1.053614541888237000e-02,2.438641309738159180e+00,-5.032073240727186203e-04,5.000000000000000000e-01,-3.560384129741578363e-06,0.000000000000000000e+00
1.168572425842285156e+00,4.068987731933593750e+02,-1.741891479492187500e+01,-1.741891479492187500e+01,1.514389514923095703e-01,1.797912445068359375e+02,4.996484494768083096e-04,-1.376568603515625000e+01,5.014439299702644348e-02,-6.322002718661678955e-06,3.077116489410400391e+00,-1.132294815033674240e-02,-2.445247489959001541e-03,1.053614541888237000e-02,2.438641309738159180e+00,-5.032073240727186203e-04,5.000000000000000000e-01,-3.560384129741578363e-06,0.000000000000000000e+00
1.168572425842285156e+00,4.068987731933593750e+02,-1.741891479492187500e+01,-1.741891479492187500e+01,1.514389514923095703e-01,1.797912445068359375e+02,4.996484494768083096e-04,-1.376568603515625000e+01,5.014439299702644348e-02,-6.322002718661678955e-06,3.077116489410400391e+00,-1.132294815033674240e-02,-2.445247489959001541e-03,1.053614541888237000e-02,2.438641309738159180e+00,-5.032073240727186203e-04,5.000000000000000000e-01,-3.560384129741578363e-06,0.000000000000000000e+00
1.168572425842285156e+00,4.058957214355468750e+02,-1.741526031494140625e+01,-1.741526031494140625e+01,2.977142632007598877e-01,1.797912445068359375e+02,5.505604785867035389e-04,-1.356931495666503906e+01,4.943258315324783325e-02,-1.514975010650232434e-04,2.616590738296508789e+00,-9.484671056270599365e-03,-1.934423693455755711e-03,4.822049755603075027e-03,1.296967744827270508e+00,-3.199924831278622150e-04,1.000000000000000000e+00,-1.017252657220524270e-06,0.000000000000000000e+00
1.243620872497558594e+00,4.058957214355468750e+02,-1.741526031494140625e+01,-1.741526031494140625e+01,2.977142632007598877e-01,1.797912445068359375e+02,5.505604785867035389e-04,-1.356931495666503906e+01,4.943258315324783325e-02,-1.514975010650232434e-04,2.616590738296508789e+00,-9.484671056270599365e-03,-1.934423693455755711e-03,4.822049755603075027e-03,1.296967744827270508e+00,-3.199924831278622150e-04,1.000000000000000000e+00,-1.017252657220524270e-06,0.000000000000000000e+00
1.243620872497558594e+00,4.058957214355468750e+02,-1.741526031494140625e+01,-1.741526031494140625e+01,2.977142632007598877e-01,1.797912445068359375e+02,5.505604785867035389e-04,-1.356931495666503906e+01,4.943258315324783325e-02,-1.514975010650232434e-04,2.616590738296508789e+00,-9.484671056270599365e-03,-1.934423693455755711e-03,4.822049755603075027e-03,1.296967744827270508e+00,-3.199924831278622150e-04,1.000000000000000000e+00,-1.017252657220524270e-06,0.000000000000000000e+00
1.243620872497558594e+00,4.058957214355468750e+02,-1.741526031494140625e+01,-1.741526031494140625e+01,2.977142632007598877e-01,1.797912445068359375e+02,5.505604785867035389e-04,-1.356931495666503906e+01,4.943258315324783325e-02,-1.514975010650232434e-04,2.616590738296508789e+00,-9.484671056270599365e-03,-1.934423693455755711e-03,4.822049755603075027e-03,1.296967744827270508e+00,-3.199924831278622150e-04,1.000000000000000000e+00,-1.017252657220524270e-06,0.000000000000000000e+00
1.312042951583862305e+00,4.048746337890625000e+02,-1.741154098510742188e+01,-1.741154098510742188e+01,2.240165323019027710e-01,1.797912292480468750e+02,4.975218325853347778e-04,-1.367357730865478516e+01,4.982113093137741089e-02,-1.930042490130290389e-04,-1.523811578750610352e+00,5.678690038621425629e-03,-6.066280184313654900e-04,-9.990517050027847290e-03,-2.435693025588989258e+00,-2.236139262095093727e-04,1.000000000000000000e+00,-5.086263286102621350e-07,0.000000000000000000e+00
1.312042951583862305e+00,4.048746337890625000e+02,-1.741154098510742188e+01,-1.741154098510742188e+01,2.240165323019027710e-01,1.797912292480468750e+02,4.975218325853347778e-04,-1.367357730865478516e+01,4.982113093137741089e-02,-1.930042490130290389e-04,-1.523811578750610352e+00,5.678690038621425629e-03,-6.066280184313654900e-04,-9.990517050027847290e-03,-2.435693025588989258e+00,-2.236139262095093727e-04,1.000000000000000000e+00,-5.086263286102621350e-07,0.000000000000000000e+00
1.312042951583862305e+00,4.039307861328125000e+02,-1.740810203552246094e+01,-1.740810203552246094e+01,-1.367403753101825714e-02,1.797912292480468750e+02,3.995575243607163429e-04,-1.390946769714355469e+01,5.068461596965789795e-02,-1.309406361542642117e-04,-3.318361282348632812e+00,1.214697770774364471e-02,8.730728295631706715e-04,-1.577095501124858856e-02,-3.906376600265502930e+00,3.223165404051542282e-04,1.000000000000000000e+00,2.034505314441048540e-06,0.000000000000000000e+00
1.383129358291625977e+00,4.039307861328125000e+02,-1.740810203552246094e+01,-1.740810203552246094e+01,-1.367403753101825714e-02,1.797912292480468750e+02,3.995575243607163429e-04,-1.390946769714355469e+01,5.068461596965789795e-02,-1.309406361542642117e-04,-3.318361282348632812e+00,1.214697770774364471e-02,8.730728295631706715e-04,-1.577095501124858856e-02,-3.906376600265502930e+00,3.223165404051542282e-04,1.000000000000000000e+00,2.034505314441048540e-06,0.000000000000000000e+00
1.383129358291625977e+00,4.039307861328125000e+02,-1.740810203552246094e+01,-1.740810203552246094e+01,-1.367403753101825714e-02,1.797912292480468750e+02,3.995575243607163429e-04,-1.390946769714355469e+01,5.068461596965789795e-02,-1.309406361542642117e-04,-3.318361282348632812e+00,1.214697770774364471e-02,8.730728295631706715e-04,-1.577095501124858856e-02,-3.906376600265502930e+00,3.223165404051542282e-04,1.000000000000000000e+00,2.034505314441048540e-06,0.000000000000000000e+00
1.450951814651489258e+00,4.029313964843750000e+02,-1.740446090698242188e+01,-1.740446090698242188e+01,-2.842656373977661133e-01,1.797912445068359375e+02,2.876573125831782818e-04,-1.418193340301513672e+01,5.167531967163085938e-02,-5.058523311163298786e-05,-4.017337799072265625e+00,1.460731122642755508e-02,1.184790511615574360e-03,-1.413336675614118576e-02,-3.467934131622314453e+00,6.060159066691994667e-04,5.000000000000000000e-01,2.543131586207891814e-06,0.000000000000000000e+00
1.450951814651489258e+00,4.029313964843750000e+02,-1.740446090698242188e+01,-1.740446090698242188e+01,-2.842656373977661133e-01,1.797912445068359375e+02,2.876573125831782818e-04,-1.418193340301513672e+01,5.167531967163085938e-02,-5.058523311163298786e-05,-4.017337799072265625e+00,1.460731122642755508e-02,1.184790511615574360e-03,-1.413336675614118576e-02,-3.467934131622314453e+00,6.060159066691994667e-04,5.000000000000000000e-01,2.543131586207891814e-06,0.000000000000000000e+00
1.450951814651489258e+00,4.029313964843750000e+02,-1.740446090698242188e+01,-1.740446090698242188e+01,-2.842656373977661133e-01,1.797912445068359375e+02,2.876573125831782818e-04,-1.418193340301513672e+01,5.167531967163085938e-02,-5.058523311163298786e-05,-4.017337799072265625e+00,1.460731122642755508e-02,1.184790511615574360e-03,-1.413336675614118576e-02,-3.467934131622314453e+00,6.060159066691994667e-04,5.000000000000000000e-01,2.543131586207891814e-06,0.000000000000000000e+00
1.527701377868652344e+00,4.019623718261718750e+02,-1.740093231201171875e+01,-1.740093231201171875e+01,-4.500752985477447510e-01,1.797912750244140625e+02,1.997782383114099503e-04,-1.436092948913574219e+01,5.232042819261550903e-02,5.119582419865764678e-05,-2.332209825515747070e+00,8.405370637774467468e-03,1.326145138591527939e-03,-7.265666499733924866e-03,-1.689055442810058594e+00,5.950724007561802864e-04,5.000000000000000000e-01,2.034505314441048540e-06,0.000000000000000000e+00
1.527701377868652344e+00,4.019623718261718750e+02,-1.740093231201171875e+01,-1.740093231201171875e+01,-4.500752985477447510e-01,1.797912750244140625e+02,1.997782383114099503e-04,-1.436092948913574219e+01,5.232042819261550903e-02,5.119582419865764678e-05,-2.332209825515747070e+00,8.405370637774467468e-03,1.326145138591527939e-03,-7.265666499733924866e-03,-1.689055442810058594e+00,5.950724007561802864e-04,5.000000000000000000e-01,2.034505314441048540e-06,0.000000000000000000e+00
1.527701377868652344e+00,4.019623718261718750e+02,-1.740093231201171875e+01,-1.740093231201171875e+01,-4.500752985477447510e-01,1.797912750244140625e+02,1.997782383114099503e-04,-1.436092948913574219e+01,5.232042819261550903e-02,5.119582419865764678e-05,-2.332209825515747070e+00,8.405370637774467468e-03,1.326145138591527939e-03,-7.265666499733924866e-03,-1.689055442810058594e+00,5.950724007561802864e-04,5.000000000000000000e-01,2.034505314441048540e-06,0.000000000000000000e+00
1.600134611129760742e+00,4.008574829101562500e+02,-1.739690589904785156e+01,-1.739690589904785156e+01,-4.757363200187683105e-01,1.797913513183593750e+02,1.340852759312838316e-04,-1.439495944976806641e+01,5.243367701768875122e-02,1.782048202585428953e-04,-4.698114395141601562e-01,1.563492580316960812e-03,1.753463060595095158e-03,1.413157675415277481e-03,5.707880854606628418e-01,5.300029297359287739e-04,5.000000000000000000e-01,1.525878928987367544e-06,0.000000000000000000e+00
1.600134611129760742e+00,4.008574829101562500e+02,-1.739690589904785156e+01,-1.739690589904785156e+01,-4.757363200187683105e-01,1.797913513183593750e+02,1.340852759312838316e-04,-1.439495944976806641e+01,5.243367701768875122e-02,1.782048202585428953e-04,-4.698114395141601562e-01,1.563492580316960812e-03,1.753463060595095158e-03,1.413157675415277481e-03,5.707880854606628418e-01,5.300029297359287739e-04,5.000000000000000000e-01,1.525878928987367544e-06,0.000000000000000000e+00
1.600134611129760742e+00,4.008574829101562500e+02,-1.739690589904785156e+01,-1.739690589904785156e+01,-4.757363200187683105e-01,1.797913513183593750e+02,1.340852759312838316e-04,-1.439495944976806641e+01,5.243367701768875122e-02,1.782048202585428953e-04,-4.698114395141601562e-01,1.563492580316960812e-03,1.753463060595095158e-03,1.413157675415277481e-03,5.707880854606628418e-01,5.300029297359287739e-04,5.000000000000000000e-01,1.525878928987367544e-06,0.000000000000000000e+00
1.600134611129760742e+00,4.008574829101562500e+02,-1.739690589904785156e+01,-1.739690589904785156e+01,-4.757363200187683105e-01,1.797913513183593750e+02,1.340852759312838316e-04,-1.439495944976806641e+01,5.243367701768875122e-02,1.782048202585428953e-04,-4.698114395141601562e-01,1.563492580316960812e-03,1.753463060595095158e-03,1.413157675415277481e-03,5.707880854606628418e-01,5.300029297359287739e-04,5.000000000000000000e-01,1.525878928987367544e-06,0.000000000000000000e+00
1.600134611129760742e+00,4.008574829101562500e+02,-1.739690589904785156e+01,-1.739690589904785156e+01,-4.757363200187683105e-01,1.797913513183593750e+02,1.340852759312838316e-04,-1.439495944976806641e+01,5.243367701768875122e-02,1.782048202585428953e-04,-4.698114395141601562e-01,1.563492580316960812e-03,1.753463060595095158e-03,1.413157675415277481e-03,5.707880854606628418e-01,5.300029297359287739e-04,5.000000000000000000e-01,1.525878928987367544e-06,0.000000000000000000e+00
1.600134611129760742e+00,3.998187866210937500e+02,-1.739312362670898438e+01,-1.739312362670898438e+01,-3.641720116138458252e-01,1.797913665771484375e+02,1.001858254312537611e-04,-1.427919483184814453e+01,5.200277268886566162e-02,2.397762000327929854e-04,1.003343462944030762e+00,-3.734690370038151741e-03,5.336452159099280834e-04,7.140954025089740753e-03,2.055496692657470703e+00,2.911792253144085407e-04,5.000000000000000000e-01,5.086263286102621350e-07,0.000000000000000000e+00
1.715513467788696289e+00,3.998187866210937500e+02,-1.739312362670898438e+01,-1.739312362670898438e+01,-3.641720116138458252e-01,1.797913665771484375e+02,1.001858254312537611e-04,-1.427919483184814453e+01,5.200277268886566162e-02,2.397762000327929854e-04,1.003343462944030762e+00,-3.734690370038151741e-03,5.336452159099280834e-04,7.140954025089740753e-03,2.055496692657470703e+00,2.911792253144085407e-04,5.000000000000000000e-01,5.086263286102621350e-07,0.000000000000000000e+00
1.715513467788696289e+00,3.998187866210937500e+02,-1.739312362670898438e+01,-1.739312362670898438e+01,-3.641720116138458252e-01,1.797913665771484375e+02,1.001858254312537611e-04,-1.427919483184814453e+01,5.200277268886566162e-02,2.397762000327929854e-04,1.003343462944030762e+00,-3.734690370038151741e-03,5.336452159099280834e-04,7.140954025089740753e-03,2.055496692657470703e+00,2.911792253144085407e-04,5.000000000000000000e-01,5.086263286102621350e-07,0.000000000000000000e+00
1.715513467788696289e+00,3.998187866210937500e+02,-1.739312362670898438e+01,-1.739312362670898438e+01,-3.641720116138458252e-01,1.797913665771484375e+02,1.001858254312537611e-04,-1.427919483184814453e+01,5.200277268886566162e-02,2.397762000327929854e-04,1.003343462944030762e+00,-3.734690370038151741e-03,5.336452159099280834e-04,7.140954025089740753e-03,2.055496692657470703e+00,2.911792253144085407e-04,5.000000000000000000e-01,5.086263286102621350e-07,0.000000000000000000e+00
1.813115119934082031e+00,3.984047851562500000e+02,-1.738797378540039062e+01,-1.738797378540039062e+01,-1.085863411426544189e-01,1.797913665771484375e+02,7.910362910479307175e-05,-1.400917720794677734e+01,5.101307108998298645e-02,1.656446984270587564e-04,2.766527175903320312e+00,-1.014021411538124084e-02,-7.595312199555337429e-04,9.548999369144439697e-03,2.675687551498413086e+00,-1.571395696373656392e-04,5.000000000000000000e-01,-1.017252657220524270e-06,0.000000000000000000e+00
1.813115119934082031e+00,3.984047851562500000e+02,-1.738797378540039062e+01,-1.738797378540039062e+01,-1.085863411426544189e-01,1.797913665771484375e+02,7.910362910479307175e-05,-1.400917720794677734e+01,5.101307108998298645e-02,1.656446984270587564e-04,2.766527175903320312e+00,-1.014021411538124084e-02,-7.595312199555337429e-04,9.548999369144439697e-03,2.675687551498413086e+00,-1.571395696373656392e-04,5.000000000000000000e-01,-1.017252657220524270e-06,0.000000000000000000e+00
1.813115119934082031e+00,3.984047851562500000e+02,-1.738797378540039062e+01,-1.738797378540039062e+01,-1.085863411426544189e-01,1.797913665771484375e+02,7.910362910479307175e-05,-1.400917720794677734e+01,5.101307108998298645e-02,1.656446984270587564e-04,2.766527175903320312e+00,-1.014021411538124084e-02,-7.595312199555337429e-04,9.548999369144439697e-03,2.675687551498413086e+00,-1.571395696373656392e-04,5.000000000000000000e-01,-1.017252657220524270e-06,0.000000000000000000e+00
1.813115119934082031e+00,3.984047851562500000e+02,-1.738797378540039062e+01,-1.738797378540039062e+01,-1.085863411426544189e-01,1.797913665771484375e+02,7.910362910479307175e-05,-1.400917720794677734e+01,5.101307108998298645e-02,1.656446984270587564e-04,2.766527175903320312e+00,-1.014021411538124084e-02,-7.595312199555337429e-04,9.548999369144439697e-03,2.675687551498413086e+00,-1.571395696373656392e-04,5.000000000000000000e-01,-1.017252657220524270e-06,0.000000000000000000e+00
1.896134853363037109e+00,3.970540466308593750e+02,-1.738305664062500000e+01,-1.738305664062500000e+01,1.417059302330017090e-01,1.797913513183593750e+02,5.696859079762361944e-05,-1.369441699981689453e+01,4.986783489584922791e-02,-3.610977000789716840e-05,3.791390180587768555e+00,-1.379474718123674393e-02,-2.430198946967720985e-03,8.658649399876594543e-03,2.442342996597290039e+00,-2.120911376550793648e-04,5.000000000000000000e-01,-1.017252657220524270e-06,0.000000000000000000e+00
1.896134853363037109e+00,3.970540466308593750e+02,-1.738305664062500000e+01,-1.738305664062500000e+01,1.417059302330017090e-01,1.797913513183593750e+02,5.696859079762361944e-05,-1.369441699981689453e+01,4.986783489584922791e-02,-3.610977000789716840e-05,3.791390180587768555e+00,-1.379474718123674393e-02,-2.430198946967720985e-03,8.658649399876594543e-03,2.442342996597290039e+00,-2.120911376550793648e-04,5.000000000000000000e-01,-1.017252657220524270e-06,0.000000000000000000e+00
1.896134853363037109e+00,3.970540466308593750e+02,-1.738305664062500000e+01,-1.738305664062500000e+01,1.417059302330017090e-01,1.797913513183593750e+02,5.696859079762361944e-05,-1.369441699981689453e+01,4.986783489584922791e-02,-3.610977000789716840e-05,3.791390180587768555e+00,-1.379474718123674393e-02,-2.430198946967720985e-03,8.658649399876594543e-03,2.442342996597290039e+00,-2.120911376550793648e-04,5.000000000000000000e-01,-1.017252657220524270e-06,0.000000000000000000e+00
1.896134853363037109e+00,3.970540466308593750e+02,-1.738305664062500000e+01,-1.738305664062500000e+01,1.417059302330017090e-01,1.797913513183593750e+02,5.696859079762361944e-05,-1.369441699981689453e+01,4.986783489584922791e-02,-3.610977000789716840e-05,3.791390180587768555e+00,-1.379474718123674393e-02,-2.430198946967720985e-03,8.658649399876594543e-03,2.442342996597290039e+00,-2.120911376550793648e-04,5.000000000000000000e-01,-1.017252657220524270e-06,0.000000000000000000e+00
1.896134853363037109e+00,3.970540466308593750e+02,-1.738305664062500000e+01,-1.738305664062500000e+01,1.417059302330017090e-01,1.797913513183593750e+02,5.696859079762361944e-05,-1.369441699981689453e+01,4.986783489584922791e-02,-3.610977000789716840e-05,3.791390180587768555e+00,-1.379474718123674393e-02,-2.430198946967720985e-03,8.658649399876594543e-03,2.442342996597290039e+00,-2.120911376550793648e-04,5.000000000000000000e-01,-1.017252657220524270e-06,0.000000000000000000e+00
1.896134853363037109e+00,3.970540466308593750e+02,-1.738305664062500000e+01,-1.738305664062500000e+01,1.417059302330017090e-01,1.797913513183593750e+02,5.696859079762361944e-05,-1.369441699981689453e+01,4.986783489584922791e-02,-3.610977000789716840e-05,3.791390180587768555e+00,-1.379474718123674393e-02,-2.430198946967720985e-03,8.658649399876594543e-03,2.442342996597290039e+00,-2.120911376550793648e-04,5.000000000000000000e-01,-1.017252657220524270e-06,0.000000000000000000e+00
1.896134853363037109e+00,3.970540466308593750e+02,-1.738305664062500000e+01,-1.738305664062500000e+01,1.417059302330017090e-01,1.797913513183593750e+02,5.696859079762361944e-05,-1.369441699981689453e+01,4.986783489584922791e-02,-3.610977000789716840e-05,3.791390180587768555e+00,-1.379474718123674393e-02,-2.430198946967720985e-03,8.658649399876594543e-03,2.442342996597290039e+00,-2.120911376550793648e-04,5.000000000000000000e-01,-1.017252657220524270e-06,0.000000000000000000e+00
2.195794820785522461e+00,3.933494567871093750e+02,-1.736956214904785156e+01,-1.736956214904785156e+01,-2.418228387832641602e-01,1.797912597656250000e+02,-6.103513806010596454e-05,-1.407070064544677734e+01,5.125620588660240173e-02,-1.065289325197227299e-04,-6.475100040435791016e+00,2.363169379532337189e-02,1.746712252497673035e-03,-1.385557278990745544e-02,-3.728203058242797852e+00,2.861890534404665232e-04,1.000000000000000000e+00,1.525878928987367544e-06,0.000000000000000000e+00
2.195794820785522461e+00,3.933494567871093750e+02,-1.736956214904785156e+01,-1.736956214904785156e+01,-2.418228387832641602e-01,1.797912597656250000e+02,-6.103513806010596454e-05,-1.407070064544677734e+01,5.125620588660240173e-02,-1.065289325197227299e-04,-6.475100040435791016e+00,2.363169379532337189e-02,1.746712252497673035e-03,-1.385557278990745544e-02,-3.728203058242797852e+00,2.861890534404665232e-04,1.000000000000000000e+00,1.525878928987367544e-06,0.000000000000000000e+00
2.195794820785522461e+00,3.933494567871093750e+02,-1.736956214904785156e+01,-1.736956214904785156e+01,-2.418228387832641602e-01,1.797912597656250000e+02,-6.103513806010596454e-05,-1.407070064544677734e+01,5.125620588660240173e-02,-1.065289325197227299e-04,-6.475100040435791016e+00,2.363169379532337189e-02,1.746712252497673035e-03,-1.385557278990745544e-02,-3.728203058242797852e+00,2.861890534404665232e-04,1.000000000000000000e+00,1.525878928987367544e-06,0.000000000000000000e+00
2.195794820785522461e+00,3.933494567871093750e+02,-1.736956214904785156e+01,-1.736956214904785156e+01,-2.418228387832641602e-01,1.797912597656250000e+02,-6.103513806010596454e-05,-1.407070064544677734e+01,5.125620588660240173e-02,-1.065289325197227299e-04,-6.475100040435791016e+00,2.363169379532337189e-02,1.746712252497673035e-03,-1.385557278990745544e-02,-3.728203058242797852e+00,2.861890534404665232e-04,1.000000000000000000e+00,1.525878928987367544e-06,0.000000000000000000e+00
2.195794820785522461e+00,3.933494567871093750e+02,-1.736956214904785156e+01,-1.736956214904785156e+01,-2.418228387832641602e-01,1.797912597656250000e+02,-6.103513806010596454e-05,-1.407070064544677734e+01,5.125620588660240173e-02,-1.065289325197227299e-04,-6.475100040435791016e+00,2.363169379532337189e-02,1.746712252497673035e-03,-1.385557278990745544e-02,-3.728203058242797852e+00,2.861890534404665232e-04,1.000000000000000000e+00,1.525878928987367544e-06,0.000000000000000000e+00
2.195794820785522461e+00,3.933494567871093750e+02,-1.736956214904785156e+01,-1.736956214904785156e+01,-2.418228387832641602e-01,1.797912597656250000e+02,-6.103513806010596454e-05,-1.407070064544677734e+01,5.125620588660240173e-02,-1.065289325197227299e-04,-6.475100040435791016e+00,2.363169379532337189e-02,1.746712252497673035e-03,-1.385557278990745544e-02,-3.728203058242797852e+00,2.861890534404665232e-04,1.000000000000000000e+00,1.525878928987367544e-06,0.000000000000000000e+00
2.195794820785522461e+00,3.933494567871093750e+02,-1.736956214904785156e+01,-1.736956214904785156e+01,-2.418228387832641602e-01,1.797912597656250000e+02,-6.103513806010596454e-05,-1.407070064544677734e+01,5.125620588660240173e-02,-1.065289325197227299e-04,-6.475100040435791016e+00,2.363169379532337189e-02,1.746712252497673035e-03,-1.385557278990745544e-02,-3.728203058242797852e+00,2.861890534404665232e-04,1.000000000000000000e+00,1.525878928987367544e-06,0.000000000000000000e+00
2.195794820785522461e+00,3.933494567871093750e+02,-1.736956214904785156e+01,-1.736956214904785156e+01,-2.418228387832641602e-01,1.797912597656250000e+02,-6.103513806010596454e-05,-1.407070064544677734e+01,5.125620588660240173e-02,-1.065289325197227299e-04,-6.475100040435791016e+00,2.363169379532337189e-02,1.746712252497673035e-03,-1.385557278990745544e-02,-3.728203058242797852e+00,2.861890534404665232e-04,1.000000000000000000e+00,1.525878928987367544e-06,0.000000000000000000e+00
2.195794820785522461e+00,3.933494567871093750e+02,-1.736956214904785156e+01,-1.736956214904785156e+01,-2.418228387832641602e-01,1.797912597656250000e+02,-6.103513806010596454e-05,-1.407070064544677734e+01,5.125620588660240173e-02,-1.065289325197227299e-04,-6.475100040435791016e+00,2.363169379532337189e-02,1.746712252497673035e-03,-1.385557278990745544e-02,-3.728203058242797852e+00,2.861890534404665232e-04,1.000000000000000000e+00,1.525878928987367544e-06,0.000000000000000000e+00
2.195794820785522461e+00,3.933494567871093750e+02,-1.736956214904785156e+01,-1.736956214904785156e+01,-2.418228387832641602e-01,1.797912597656250000e+02,-6.103513806010596454e-05,-1.407070064544677734e+01,5.125620588660240173e-02,-1.065289325197227299e-04,-6.475100040435791016e+00,2.363169379532337189e-02,1.746712252497673035e-03,-1.385557278990745544e-02,-3.728203058242797852e+00,2.861890534404665232e-04,1.000000000000000000e+00,1.525878928987367544e-06,0.000000000000000000e+00
2.374083757400512695e+00,3.925980834960937500e+02,-1.736682510375976562e+01,-1.736682510375976562e+01,-3.898330330848693848e-01,1.797913208007812500e+02,-6.103512714616954327e-05,-1.418755722045898438e+01,5.167850479483604431e-02,-1.022203196043847129e-05,-6.554336547851562500e-01,2.368620829656720161e-03,5.401732050813734531e-04,-6.288796197623014450e-03,-1.731083869934082031e+00,6.613018340431153774e-04,5.000000000000000000e-01,3.051757857974735089e-06,0.000000000000000000e+00
2.374083757400512695e+00,3.925980834960937500e+02,-1.736682510375976562e+01,-1.736682510375976562e+01,-3.898330330848693848e-01,1.797913208007812500e+02,-6.103512714616954327e-05,-1.418755722045898438e+01,5.167850479483604431e-02,-1.022203196043847129e-05,-6.554336547851562500e-01,2.368620829656720161e-03,5.401732050813734531e-04,-6.288796197623014450e-03,-1.731083869934082031e+00,6.613018340431153774e-04,5.000000000000000000e-01,3.051757857974735089e-06,0.000000000000000000e+00
2.374083757400512695e+00,3.925980834960937500e+02,-1.736682510375976562e+01,-1.736682510375976562e+01,-3.898330330848693848e-01,1.797913208007812500e+02,-6.103512714616954327e-05,-1.418755722045898438e+01,5.167850479483604431e-02,-1.022203196043847129e-05,-6.554336547851562500e-01,2.368620829656720161e-03,5.401732050813734531e-04,-6.288796197623014450e-03,-1.731083869934082031e+00,6.613018340431153774e-04,5.000000000000000000e-01,3.051757857974735089e-06,0.000000000000000000e+00
2.447860002517700195e+00,3.911856079101562500e+02,-1.736167716979980469e+01,-1.736167716979980469e+01,-3.351437151432037354e-01,1.797913665771484375e+02,-3.051750718441326171e-05,-1.407581424713134766e+01,5.126206576824188232e-02,1.745886693242937326e-04,1.514619946479797363e+00,-5.644622258841991425e-03,2.505016513168811798e-03,5.327326711267232895e-03,1.352794170379638672e+00,3.850712964776903391e-04,5.000000000000000000e-01,1.017252657220524270e-06,0.000000000000000000e+00
2.447860002517700195e+00,3.911856079101562500e+02,-1.736167716979980469e+01,-1.736167716979980469e+01,-3.351437151432037354e-01,1.797913665771484375e+02,-3.051750718441326171e-05,-1.407581424713134766e+01,5.126206576824188232e-02,1.745886693242937326e-04,1.514619946479797363e+00,-5.644622258841991425e-03,2.505016513168811798e-03,5.327326711267232895e-03,1.352794170379638672e+00,3.850712964776903391e-04,5.000000000000000000e-01,1.017252657220524270e-06,0.000000000000000000e+00
2.500878810882568359e+00,3.901501770019531250e+02,-1.735790824890136719e+01,-1.735790824890136719e+01,-2.298836708068847656e-01,1.797913665771484375e+02,-2.605531415622586167e-11,-1.399631595611572266e+01,5.096703395247459412e-02,1.693380181677639484e-04,1.499435663223266602e+00,-5.564663093537092209e-03,-9.903374302666634321e-05,5.697405897080898285e-03,1.417849898338317871e+00,1.860442716861143708e-05,5.000000000000000000e-01,-5.086263286102621350e-07,0.000000000000000000e+00
2.500878810882568359e+00,3.901501770019531250e+02,-1.735790824890136719e+01,-1.735790824890136719e+01,-2.298836708068847656e-01,1.797913665771484375e+02,-2.605531415622586167e-11,-1.399631595611572266e+01,5.096703395247459412e-02,1.693380181677639484e-04,1.499435663223266602e+00,-5.564663093537092209e-03,-9.903374302666634321e-05,5.697405897080898285e-03,1.417849898338317871e+00,1.860442716861143708e-05,5.000000000000000000e-01,-5.086263286102621350e-07,0.000000000000000000e+00
2.500878810882568359e+00,3.901501770019531250e+02,-1.735790824890136719e+01,-1.735790824890136719e+01,-2.298836708068847656e-01,1.797913665771484375e+02,-2.605531415622586167e-11,-1.399631595611572266e+01,5.096703395247459412e-02,1.693380181677639484e-04,1.499435663223266602e+00,-5.564663093537092209e-03,-9.903374302666634321e-05,5.697405897080898285e-03,1.417849898338317871e+00,1.860442716861143708e-05,5.000000000000000000e-01,-5.086263286102621350e-07,0.000000000000000000e+00
2.560195446014404297e+00,3.894096679687500000e+02,-1.735521125793457031e+01,-1.735521125793457031e+01,-1.615271419286727905e-01,1.797913665771484375e+02,2.119286182278301567e-05,-1.393978691101074219e+01,5.075918510556221008e-02,1.087425989680923522e-04,9.530048966407775879e-01,-3.504056483507156372e-03,-1.021558651700615883e-03,4.901173990219831467e-03,1.227358937263488770e+00,-6.418822158593684435e-05,5.000000000000000000e-01,-5.086263286102621350e-07,0.000000000000000000e+00
2.560195446014404297e+00,3.894096679687500000e+02,-1.735521125793457031e+01,-1.735521125793457031e+01,-1.615271419286727905e-01,1.797913665771484375e+02,2.119286182278301567e-05,-1.393978691101074219e+01,5.075918510556221008e-02,1.087425989680923522e-04,9.530048966407775879e-01,-3.504056483507156372e-03,-1.021558651700615883e-03,4.901173990219831467e-03,1.227358937263488770e+00,-6.418822158593684435e-05,5.000000000000000000e-01,-5.086263286102621350e-07,0.000000000000000000e+00
2.560195446014404297e+00,3.885848693847656250e+02,-1.735220718383789062e+01,-1.735220718383789062e+01,-9.570460766553878784e-02,1.797913665771484375e+02,4.076258483109995723e-05,-1.387692070007324219e+01,5.052997916936874390e-02,4.432020432432182133e-05,1.073991656303405762e+00,-3.915700595825910568e-03,-1.100577064789831638e-03,3.969031851738691330e-03,1.014022946357727051e+00,-1.096632040571421385e-04,5.000000000000000000e-01,-5.086263286102621350e-07,0.000000000000000000e+00
2.618730545043945312e+00,3.885848693847656250e+02,-1.735220718383789062e+01,-1.735220718383789062e+01,-9.570460766553878784e-02,1.797913665771484375e+02,4.076258483109995723e-05,-1.387692070007324219e+01,5.052997916936874390e-02,4.432020432432182133e-05,1.073991656303405762e+00,-3.915700595825910568e-03,-1.100577064789831638e-03,3.969031851738691330e-03,1.014022946357727051e+00,-1.096632040571421385e-04,5.000000000000000000e-01,-5.086263286102621350e-07,0.000000000000000000e+00
2.618730545043945312e+00,3.877745971679687500e+02,-1.734925651550292969e+01,-1.734925651550292969e+01,-4.489482939243316650e-02,1.797913513183593750e+02,4.692502989200875163e-05,-1.381528854370117188e+01,5.030794069170951843e-02,-1.297760809393366799e-05,1.051679968833923340e+00,-3.788824658840894699e-03,-9.777195518836379051e-04,2.913420088589191437e-03,7.875806093215942383e-01,-3.400154528208076954e-04,1.000000000000000000e+00,-1.525878928987367544e-06,0.000000000000000000e+00
2.677334070205688477e+00,3.877745971679687500e+02,-1.734925651550292969e+01,-1.734925651550292969e+01,-4.489482939243316650e-02,1.797913513183593750e+02,4.692502989200875163e-05,-1.381528854370117188e+01,5.030794069170951843e-02,-1.297760809393366799e-05,1.051679968833923340e+00,-3.788824658840894699e-03,-9.777195518836379051e-04,2.913420088589191437e-03,7.875806093215942383e-01,-3.400154528208076954e-04,1.000000000000000000e+00,-1.525878928987367544e-06,0.000000000000000000e+00
2.677334070205688477e+00,3.877745971679687500e+02,-1.734925651550292969e+01,-1.734925651550292969e+01,-4.489482939243316650e-02,1.797913513183593750e+02,4.692502989200875163e-05,-1.381528854370117188e+01,5.030794069170951843e-02,-1.297760809393366799e-05,1.051679968833923340e+00,-3.788824658840894699e-03,-9.777195518836379051e-04,2.913420088589191437e-03,7.875806093215942383e-01,-3.400154528208076954e-04,1.000000000000000000e+00,-1.525878928987367544e-06,0.000000000000000000e+00
2.677334070205688477e+00,3.877745971679687500e+02,-1.734925651550292969e+01,-1.734925651550292969e+01,-4.489482939243316650e-02,1.797913513183593750e+02,4.692502989200875163e-05,-1.381528854370117188e+01,5.030794069170951843e-02,-1.297760809393366799e-05,1.051679968833923340e+00,-3.788824658840894699e-03,-9.777195518836379051e-04,2.913420088589191437e-03,7.875806093215942383e-01,-3.400154528208076954e-04,1.000000000000000000e+00,-1.525878928987367544e-06,0.000000000000000000e+00
2.755024909973144531e+00,3.869670715332031250e+02,-1.734631729125976562e+01,-1.734631729125976562e+01,-5.614415276795625687e-03,1.797913208007812500e+02,4.149028973188251257e-05,-1.375392532348632812e+01,5.008861050009727478e-02,-5.300698830978944898e-05,7.898385524749755859e-01,-2.823115326464176178e-03,-5.152393714524805546e-04,2.036979421973228455e-03,6.053878068923950195e-01,-4.131011373829096556e-04,1.000000000000000000e+00,-1.525878928987367544e-06,0.000000000000000000e+00
2.755024909973144531e+00,3.869670715332031250e+02,-1.734631729125976562e+01,-1.734631729125976562e+01,-5.614415276795625687e-03,1.797913208007812500e+02,4.149028973188251257e-05,-1.375392532348632812e+01,5.008861050009727478e-02,-5.300698830978944898e-05,7.898385524749755859e-01,-2.823115326464176178e-03,-5.152393714524805546e-04,2.036979421973228455e-03,6.053878068923950195e-01,-4.131011373829096556e-04,1.000000000000000000e+00,-1.525878928987367544e-06,0.000000000000000000e+00
2.755024909973144531e+00,3.869670715332031250e+02,-1.734631729125976562e+01,-1.734631729125976562e+01,-5.614415276795625687e-03,1.797913208007812500e+02,4.149028973188251257e-05,-1.375392532348632812e+01,5.008861050009727478e-02,-5.300698830978944898e-05,7.898385524749755859e-01,-2.823115326464176178e-03,-5.152393714524805546e-04,2.036979421973228455e-03,6.053878068923950195e-01,-4.131011373829096556e-04,1.000000000000000000e+00,-1.525878928987367544e-06,0.000000000000000000e+00
2.830169916152954102e+00,3.859008789062500000e+02,-1.734243392944335938e+01,-1.734243392944335938e+01,1.180939655750989914e-02,1.797912597656250000e+02,2.000116728595457971e-05,-1.375576972961425781e+01,5.010116472840309143e-02,-7.817007281119003892e-05,-2.454462647438049316e-02,1.670666970312595367e-04,-3.348603495396673679e-04,-3.722480731084942818e-03,-9.331380724906921387e-01,-1.990394666790962219e-04,1.000000000000000000e+00,-5.086263286102621350e-07,0.000000000000000000e+00
2.830169916152954102e+00,3.859008789062500000e+02,-1.734243392944335938e+01,-1.734243392944335938e+01,1.180939655750989914e-02,1.797912597656250000e+02,2.000116728595457971e-05,-1.375576972961425781e+01,5.010116472840309143e-02,-7.817007281119003892e-05,-2.454462647438049316e-02,1.670666970312595367e-04,-3.348603495396673679e-04,-3.722480731084942818e-03,-9.331380724906921387e-01,-1.990394666790962219e-04,1.000000000000000000e+00,-5.086263286102621350e-07,0.000000000000000000e+00
2.830169916152954102e+00,3.859008789062500000e+02,-1.734243392944335938e+01,-1.734243392944335938e+01,1.180939655750989914e-02,1.797912597656250000e+02,2.000116728595457971e-05,-1.375576972961425781e+01,5.010116472840309143e-02,-7.817007281119003892e-05,-2.454462647438049316e-02,1.670666970312595367e-04,-3.348603495396673679e-04,-3.722480731084942818e-03,-9.331380724906921387e-01,-1.990394666790962219e-04,1.000000000000000000e+00,-5.086263286102621350e-07,0.000000000000000000e+00
2.830169916152954102e+00,3.859008789062500000e+02,-1.734243392944335938e+01,-1.734243392944335938e+01,1.180939655750989914e-02,1.797912597656250000e+02,2.000116728595457971e-05,-1.375576972961425781e+01,5.010116472840309143e-02,-7.817007281119003892e-05,-2.454462647438049316e-02,1.670666970312595367e-04,-3.348603495396673679e-04,-3.722480731084942818e-03,-9.331380724906921387e-01,-1.990394666790962219e-04,1.000000000000000000e+00,-5.086263286102621350e-07,0.000000000000000000e+00
2.830169916152954102e+00,3.859008789062500000e+02,-1.734243392944335938e+01,-1.734243392944335938e+01,1.180939655750989914e-02,1.797912597656250000e+02,2.000116728595457971e-05,-1.375576972961425781e+01,5.010116472840309143e-02,-7.817007281119003892e-05,-2.454462647438049316e-02,1.670666970312595367e-04,-3.348603495396673679e-04,-3.722480731084942818e-03,-9.331380724906921387e-01,-1.990394666790962219e-04,1.000000000000000000e+00,-5.086263286102621350e-07,0.000000000000000000e+00
2.917726278305053711e+00,3.848544921875000000e+02,-1.733862304687500000e+01,-1.733862304687500000e+01,-1.916755884885787964e-01,1.797912597656250000e+02,-2.605524823673377455e-11,-1.406049633026123047e+01,5.121428892016410828e-02,-8.798230555839836597e-05,-3.480347633361816406e+00,1.271322928369045258e-02,-1.120676097343675792e-04,-1.232411991804838181e-02,-3.292249202728271484e+00,7.576206553494557738e-05,1.000000000000000000e+00,5.086263286102621350e-07,0.000000000000000000e+00
