# Time,X,Y,Z,Roll,Pitch,Yaw,Vx,Vy,Vz,Ax,Ay,Az,Wx,Wy,Wz,Throttle,Steer,Brake
0.000000000000000000e+00,-1.133160552978515625e+02,2.468811340332031250e+02,2.468811340332031250e+02,4.801622778177261353e-02,-1.999816745519638062e-01,2.623658801894634962e-04,1.417606544494628906e+01,-4.959982261061668396e-02,5.435175353341037408e-06,-9.170724749565124512e-01,1.533974893391132355e-03,5.634690751321613789e-05,-7.549531874246895313e-04,4.369818866252899170e-01,-1.552191935479640961e-02,5.000000000000000000e-01,-3.883298631990328431e-05,0.000000000000000000e+00
1.045818328857421875e-01,-1.133160552978515625e+02,2.468811340332031250e+02,2.468811340332031250e+02,4.801622778177261353e-02,-1.999816745519638062e-01,2.623658801894634962e-04,1.417606544494628906e+01,-4.959982261061668396e-02,5.435175353341037408e-06,-9.170724749565124512e-01,1.533974893391132355e-03,5.634690751321613789e-05,-7.549531874246895313e-04,4.369818866252899170e-01,-1.552191935479640961e-02,5.000000000000000000e-01,-3.883298631990328431e-05,0.000000000000000000e+00
1.045818328857421875e-01,-1.133160552978515625e+02,2.468811340332031250e+02,2.468811340332031250e+02,4.801622778177261353e-02,-1.999816745519638062e-01,2.623658801894634962e-04,1.417606544494628906e+01,-4.959982261061668396e-02,5.435175353341037408e-06,-9.170724749565124512e-01,1.533974893391132355e-03,5.634690751321613789e-05,-7.549531874246895313e-04,4.369818866252899170e-01,-1.552191935479640961e-02,5.000000000000000000e-01,-3.883298631990328431e-05,0.000000000000000000e+00
1.045818328857421875e-01,-1.133160552978515625e+02,2.468811340332031250e+02,2.468811340332031250e+02,4.801622778177261353e-02,-1.999816745519638062e-01,2.623658801894634962e-04,1.417606544494628906e+01,-4.959982261061668396e-02,5.435175353341037408e-06,-9.170724749565124512e-01,1.533974893391132355e-03,5.634690751321613789e-05,-7.549531874246895313e-04,4.369818866252899170e-01,-1.552191935479640961e-02,5.000000000000000000e-01,-3.883298631990328431e-05,0.000000000000000000e+00
1.045818328857421875e-01,-1.133160552978515625e+02,2.468811340332031250e+02,2.468811340332031250e+02,4.801622778177261353e-02,-1.999816745519638062e-01,2.623658801894634962e-04,1.417606544494628906e+01,-4.959982261061668396e-02,5.435175353341037408e-06,-9.170724749565124512e-01,1.533974893391132355e-03,5.634690751321613789e-05,-7.549531874246895313e-04,4.369818866252899170e-01,-1.552191935479640961e-02,5.000000000000000000e-01,-3.883298631990328431e-05,0.000000000000000000e+00
1.045818328857421875e-01,-1.133160552978515625e+02,2.468811340332031250e+02,2.468811340332031250e+02,4.801622778177261353e-02,-1.999816745519638062e-01,2.623658801894634962e-04,1.417606544494628906e+01,-4.959982261061668396e-02,5.435175353341037408e-06,-9.170724749565124512e-01,1.533974893391132355e-03,5.634690751321613789e-05,-7.549531874246895313e-04,4.369818866252899170e-01,-1.552191935479640961e-02,5.000000000000000000e-01,-3.883298631990328431e-05,0.000000000000000000e+00
1.045818328857421875e-01,-1.119067230224609375e+02,2.468762054443359375e+02,2.468762054443359375e+02,6.556981243193149567e-03,-2.010803073644638062e-01,3.557732852641493082e-04,1.403616809844970703e+01,-4.913621768355369568e-02,6.064357421564636752e-06,-1.336059570312500000e+00,4.427559208124876022e-03,6.008868240314768627e-06,3.864361788146197796e-04,3.817307651042938232e-01,-8.700542151927947998e-03,5.000000000000000000e-01,-1.240335450347629376e-06,0.000000000000000000e+00
2.092907428741455078e-01,-1.119067230224609375e+02,2.468762054443359375e+02,2.468762054443359375e+02,6.556981243193149567e-03,-2.010803073644638062e-01,3.557732852641493082e-04,1.403616809844970703e+01,-4.913621768355369568e-02,6.064357421564636752e-06,-1.336059570312500000e+00,4.427559208124876022e-03,6.008868240314768627e-06,3.864361788146197796e-04,3.817307651042938232e-01,-8.700542151927947998e-03,5.000000000000000000e-01,-1.240335450347629376e-06,0.000000000000000000e+00
2.092907428741455078e-01,-1.119067230224609375e+02,2.468762054443359375e+02,2.468762054443359375e+02,6.556981243193149567e-03,-2.010803073644638062e-01,3.557732852641493082e-04,1.403616809844970703e+01,-4.913621768355369568e-02,6.064357421564636752e-06,-1.336059570312500000e+00,4.427559208124876022e-03,6.008868240314768627e-06,3.864361788146197796e-04,3.817307651042938232e-01,-8.700542151927947998e-03,5.000000000000000000e-01,-1.240335450347629376e-06,0.000000000000000000e+00
2.092907428741455078e-01,-1.119067230224609375e+02,2.468762054443359375e+02,2.468762054443359375e+02,6.556981243193149567e-03,-2.010803073644638062e-01,3.557732852641493082e-04,1.403616809844970703e+01,-4.913621768355369568e-02,6.064357421564636752e-06,-1.336059570312500000e+00,4.427559208124876022e-03,6.008868240314768627e-06,3.864361788146197796e-04,3.817307651042938232e-01,-8.700542151927947998e-03,5.000000000000000000e-01,-1.240335450347629376e-06,0.000000000000000000e+00
2.092907428741455078e-01,-1.119067230224609375e+02,2.468762054443359375e+02,2.468762054443359375e+02,6.556981243193149567e-03,-2.010803073644638062e-01,3.557732852641493082e-04,1.403616809844970703e+01,-4.913621768355369568e-02,6.064357421564636752e-06,-1.336059570312500000e+00,4.427559208124876022e-03,6.008868240314768627e-06,3.864361788146197796e-04,3.817307651042938232e-01,-8.700542151927947998e-03,5.000000000000000000e-01,-1.240335450347629376e-06,0.000000000000000000e+00
2.092907428741455078e-01,-1.105123977661132812e+02,2.468712768554687500e+02,2.468712768554687500e+02,-2.645332179963588715e-02,-2.016296386718750000e-01,4.164286074228584766e-04,1.387951183319091797e+01,-4.863370209932327271e-02,4.958279987476998940e-06,-2.099427223205566406e+00,6.734456866979598999e-03,-1.482308380218455568e-05,3.853715606965124607e-04,2.928479611873626709e-01,-3.693454200401902199e-03,5.000000000000000000e-01,1.231916212418582290e-05,0.000000000000000000e+00
2.839093208312988281e-01,-1.105123977661132812e+02,2.468712768554687500e+02,2.468712768554687500e+02,-2.645332179963588715e-02,-2.016296386718750000e-01,4.164286074228584766e-04,1.387951183319091797e+01,-4.863370209932327271e-02,4.958279987476998940e-06,-2.099427223205566406e+00,6.734456866979598999e-03,-1.482308380218455568e-05,3.853715606965124607e-04,2.928479611873626709e-01,-3.693454200401902199e-03,5.000000000000000000e-01,1.231916212418582290e-05,0.000000000000000000e+00
2.839093208312988281e-01,-1.105123977661132812e+02,2.468712768554687500e+02,2.468712768554687500e+02,-2.645332179963588715e-02,-2.016296386718750000e-01,4.164286074228584766e-04,1.387951183319091797e+01,-4.863370209932327271e-02,4.958279987476998940e-06,-2.099427223205566406e+00,6.734456866979598999e-03,-1.482308380218455568e-05,3.853715606965124607e-04,2.928479611873626709e-01,-3.693454200401902199e-03,5.000000000000000000e-01,1.231916212418582290e-05,0.000000000000000000e+00
2.839093208312988281e-01,-1.105123977661132812e+02,2.468712768554687500e+02,2.468712768554687500e+02,-2.645332179963588715e-02,-2.016296386718750000e-01,4.164286074228584766e-04,1.387951183319091797e+01,-4.863370209932327271e-02,4.958279987476998940e-06,-2.099427223205566406e+00,6.734456866979598999e-03,-1.482308380218455568e-05,3.853715606965124607e-04,2.928479611873626709e-01,-3.693454200401902199e-03,5.000000000000000000e-01,1.231916212418582290e-05,0.000000000000000000e+00
2.839093208312988281e-01,-1.105123977661132812e+02,2.468712768554687500e+02,2.468712768554687500e+02,-2.645332179963588715e-02,-2.016296386718750000e-01,4.164286074228584766e-04,1.387951183319091797e+01,-4.863370209932327271e-02,4.958279987476998940e-06,-2.099427223205566406e+00,6.734456866979598999e-03,-1.482308380218455568e-05,3.853715606965124607e-04,2.928479611873626709e-01,-3.693454200401902199e-03,5.000000000000000000e-01,1.231916212418582290e-05,0.000000000000000000e+00
3.569011688232421875e-01,-1.094818420410156250e+02,2.468676910400390625e+02,2.468676910400390625e+02,-4.387713223695755005e-02,-2.015686035156250000e-01,3.613990847952663898e-04,1.377603530883789062e+01,-4.811068996787071228e-02,4.357641046226490289e-06,-1.417644977569580078e+00,7.165350019931793213e-03,-8.228849765146151185e-06,1.594730303622782230e-03,1.811915934085845947e-01,3.572403453290462494e-03,1.000000000000000000e+00,4.760511365020647645e-05,0.000000000000000000e+00
3.569011688232421875e-01,-1.094818420410156250e+02,2.468676910400390625e+02,2.468676910400390625e+02,-4.387713223695755005e-02,-2.015686035156250000e-01,3.613990847952663898e-04,1.377603530883789062e+01,-4.811068996787071228e-02,4.357641046226490289e-06,-1.417644977569580078e+00,7.165350019931793213e-03,-8.228849765146151185e-06,1.594730303622782230e-03,1.811915934085845947e-01,3.572403453290462494e-03,1.000000000000000000e+00,4.760511365020647645e-05,0.000000000000000000e+00
3.569011688232421875e-01,-1.094818420410156250e+02,2.468676910400390625e+02,2.468676910400390625e+02,-4.387713223695755005e-02,-2.015686035156250000e-01,3.613990847952663898e-04,1.377603530883789062e+01,-4.811068996787071228e-02,4.357641046226490289e-06,-1.417644977569580078e+00,7.165350019931793213e-03,-8.228849765146151185e-06,1.594730303622782230e-03,1.811915934085845947e-01,3.572403453290462494e-03,1.000000000000000000e+00,4.760511365020647645e-05,0.000000000000000000e+00
3.569011688232421875e-01,-1.094818420410156250e+02,2.468676910400390625e+02,2.468676910400390625e+02,-4.387713223695755005e-02,-2.015686035156250000e-01,3.613990847952663898e-04,1.377603530883789062e+01,-4.811068996787071228e-02,4.357641046226490289e-06,-1.417644977569580078e+00,7.165350019931793213e-03,-8.228849765146151185e-06,1.594730303622782230e-03,1.811915934085845947e-01,3.572403453290462494e-03,1.000000000000000000e+00,4.760511365020647645e-05,0.000000000000000000e+00
4.765405654907226562e-01,-1.084774017333984375e+02,2.468641510009765625e+02,2.468641510009765625e+02,-4.690290614962577820e-02,-2.010803222656250000e-01,3.014386747963726521e-04,1.376527786254882812e+01,-4.800049215555191040e-02,4.796281245944555849e-06,-8.991558849811553955e-02,9.210829739458858967e-04,3.666352540676598437e-06,6.548512028530240059e-04,-6.220133602619171143e-02,8.290163241326808929e-03,1.000000000000000000e+00,4.242137219989672303e-05,0.000000000000000000e+00
4.765405654907226562e-01,-1.084774017333984375e+02,2.468641510009765625e+02,2.468641510009765625e+02,-4.690290614962577820e-02,-2.010803222656250000e-01,3.014386747963726521e-04,1.376527786254882812e+01,-4.800049215555191040e-02,4.796281245944555849e-06,-8.991558849811553955e-02,9.210829739458858967e-04,3.666352540676598437e-06,6.548512028530240059e-04,-6.220133602619171143e-02,8.290163241326808929e-03,1.000000000000000000e+00,4.242137219989672303e-05,0.000000000000000000e+00
4.765405654907226562e-01,-1.084774017333984375e+02,2.468641510009765625e+02,2.468641510009765625e+02,-4.690290614962577820e-02,-2.010803222656250000e-01,3.014386747963726521e-04,1.376527786254882812e+01,-4.800049215555191040e-02,4.796281245944555849e-06,-8.991558849811553955e-02,9.210829739458858967e-04,3.666352540676598437e-06,6.548512028530240059e-04,-6.220133602619171143e-02,8.290163241326808929e-03,1.000000000000000000e+00,4.242137219989672303e-05,0.000000000000000000e+00
4.765405654907226562e-01,-1.084774017333984375e+02,2.468641510009765625e+02,2.468641510009765625e+02,-4.690290614962577820e-02,-2.010803222656250000e-01,3.014386747963726521e-04,1.376527786254882812e+01,-4.800049215555191040e-02,4.796281245944555849e-06,-8.991558849811553955e-02,9.210829739458858967e-04,3.666352540676598437e-06,6.548512028530240059e-04,-6.220133602619171143e-02,8.290163241326808929e-03,1.000000000000000000e+00,4.242137219989672303e-05,0.000000000000000000e+00
4.765405654907226562e-01,-1.084774017333984375e+02,2.468641510009765625e+02,2.468641510009765625e+02,-4.690290614962577820e-02,-2.010803222656250000e-01,3.014386747963726521e-04,1.376527786254882812e+01,-4.800049215555191040e-02,4.796281245944555849e-06,-8.991558849811553955e-02,9.210829739458858967e-04,3.666352540676598437e-06,6.548512028530240059e-04,-6.220133602619171143e-02,8.290163241326808929e-03,1.000000000000000000e+00,4.242137219989672303e-05,0.000000000000000000e+00
4.765405654907226562e-01,-1.084774017333984375e+02,2.468641510009765625e+02,2.468641510009765625e+02,-4.690290614962577820e-02,-2.010803222656250000e-01,3.014386747963726521e-04,1.376527786254882812e+01,-4.800049215555191040e-02,4.796281245944555849e-06,-8.991558849811553955e-02,9.210829739458858967e-04,3.666352540676598437e-06,6.548512028530240059e-04,-6.220133602619171143e-02,8.290163241326808929e-03,1.000000000000000000e+00,4.242137219989672303e-05,0.000000000000000000e+00
4.765405654907226562e-01,-1.084774017333984375e+02,2.468641510009765625e+02,2.468641510009765625e+02,-4.690290614962577820e-02,-2.010803222656250000e-01,3.014386747963726521e-04,1.376527786254882812e+01,-4.800049215555191040e-02,4.796281245944555849e-06,-8.991558849811553955e-02,9.210829739458858967e-04,3.666352540676598437e-06,6.548512028530240059e-04,-6.220133602619171143e-02,8.290163241326808929e-03,1.000000000000000000e+00,4.242137219989672303e-05,0.000000000000000000e+00
6.200885772705078125e-01,-1.070994720458984375e+02,2.468593444824218750e+02,2.468593444824218750e+02,-3.198577463626861572e-02,-1.999206095933914185e-01,1.200134211103431880e-04,1.376811408996582031e+01,-4.776046052575111389e-02,6.846240466984454542e-06,1.975804008543491364e-02,1.672134851105511189e-03,1.428065206710016355e-05,1.581113319844007492e-03,-1.344407051801681519e-01,1.319838128983974457e-02,1.000000000000000000e+00,5.288980901241302490e-05,0.000000000000000000e+00
6.200885772705078125e-01,-1.070994720458984375e+02,2.468593444824218750e+02,2.468593444824218750e+02,-3.198577463626861572e-02,-1.999206095933914185e-01,1.200134211103431880e-04,1.376811408996582031e+01,-4.776046052575111389e-02,6.846240466984454542e-06,1.975804008543491364e-02,1.672134851105511189e-03,1.428065206710016355e-05,1.581113319844007492e-03,-1.344407051801681519e-01,1.319838128983974457e-02,1.000000000000000000e+00,5.288980901241302490e-05,0.000000000000000000e+00
6.200885772705078125e-01,-1.070994720458984375e+02,2.468593444824218750e+02,2.468593444824218750e+02,-3.198577463626861572e-02,-1.999206095933914185e-01,1.200134211103431880e-04,1.376811408996582031e+01,-4.776046052575111389e-02,6.846240466984454542e-06,1.975804008543491364e-02,1.672134851105511189e-03,1.428065206710016355e-05,1.581113319844007492e-03,-1.344407051801681519e-01,1.319838128983974457e-02,1.000000000000000000e+00,5.288980901241302490e-05,0.000000000000000000e+00
6.200885772705078125e-01,-1.070994720458984375e+02,2.468593444824218750e+02,2.468593444824218750e+02,-3.198577463626861572e-02,-1.999206095933914185e-01,1.200134211103431880e-04,1.376811408996582031e+01,-4.776046052575111389e-02,6.846240466984454542e-06,1.975804008543491364e-02,1.672134851105511189e-03,1.428065206710016355e-05,1.581113319844007492e-03,-1.344407051801681519e-01,1.319838128983974457e-02,1.000000000000000000e+00,5.288980901241302490e-05,0.000000000000000000e+00
6.200885772705078125e-01,-1.070994720458984375e+02,2.468593444824218750e+02,2.468593444824218750e+02,-3.198577463626861572e-02,-1.999206095933914185e-01,1.200134211103431880e-04,1.376811408996582031e+01,-4.776046052575111389e-02,6.846240466984454542e-06,1.975804008543491364e-02,1.672134851105511189e-03,1.428065206710016355e-05,1.581113319844007492e-03,-1.344407051801681519e-01,1.319838128983974457e-02,1.000000000000000000e+00,5.288980901241302490e-05,0.000000000000000000e+00
6.200885772705078125e-01,-1.070994720458984375e+02,2.468593444824218750e+02,2.468593444824218750e+02,-3.198577463626861572e-02,-1.999206095933914185e-01,1.200134211103431880e-04,1.376811408996582031e+01,-4.776046052575111389e-02,6.846240466984454542e-06,1.975804008543491364e-02,1.672134851105511189e-03,1.428065206710016355e-05,1.581113319844007492e-03,-1.344407051801681519e-01,1.319838128983974457e-02,1.000000000000000000e+00,5.288980901241302490e-05,0.000000000000000000e+00
7.946169376373291016e-01,-1.057242431640625000e+02,2.468545227050781250e+02,2.468545227050781250e+02,-2.142630144953727722e-02,-1.986694484949111938e-01,0.000000000000000000e+00,1.373902416229248047e+01,-4.748677089810371399e-02,3.032178710782318376e-06,-1.666773706674575806e-01,1.568167004734277725e-03,-2.185353514505550265e-05,9.379833936691284180e-04,-8.716354519128799438e-02,1.180219184607267380e-02,1.000000000000000000e+00,3.693793041747994721e-05,0.000000000000000000e+00
7.946169376373291016e-01,-1.057242431640625000e+02,2.468545227050781250e+02,2.468545227050781250e+02,-2.142630144953727722e-02,-1.986694484949111938e-01,0.000000000000000000e+00,1.373902416229248047e+01,-4.748677089810371399e-02,3.032178710782318376e-06,-1.666773706674575806e-01,1.568167004734277725e-03,-2.185353514505550265e-05,9.379833936691284180e-04,-8.716354519128799438e-02,1.180219184607267380e-02,1.000000000000000000e+00,3.693793041747994721e-05,0.000000000000000000e+00
7.946169376373291016e-01,-1.057242431640625000e+02,2.468545227050781250e+02,2.468545227050781250e+02,-2.142630144953727722e-02,-1.986694484949111938e-01,0.000000000000000000e+00,1.373902416229248047e+01,-4.748677089810371399e-02,3.032178710782318376e-06,-1.666773706674575806e-01,1.568167004734277725e-03,-2.185353514505550265e-05,9.379833936691284180e-04,-8.716354519128799438e-02,1.180219184607267380e-02,1.000000000000000000e+00,3.693793041747994721e-05,0.000000000000000000e+00
8.783230781555175781e-01,-1.043519592285156250e+02,2.468497619628906250e+02,2.468497619628906250e+02,-1.477369852364063263e-02,-1.979980468750000000e-01,8.577429980505257845e-06,1.371001148223876953e+01,-4.742335528135299683e-02,3.432655262258776929e-07,-3.466015756130218506e-01,7.575981435365974903e-04,-3.212324736523441970e-05,-4.498620401136577129e-04,-5.367603525519371033e-02,4.468852188438177109e-03,1.000000000000000000e+00,0.000000000000000000e+00,0.000000000000000000e+00
8.783230781555175781e-01,-1.043519592285156250e+02,2.468497619628906250e+02,2.468497619628906250e+02,-1.477369852364063263e-02,-1.979980468750000000e-01,8.577429980505257845e-06,1.371001148223876953e+01,-4.742335528135299683e-02,3.432655262258776929e-07,-3.466015756130218506e-01,7.575981435365974903e-04,-3.212324736523441970e-05,-4.498620401136577129e-04,-5.367603525519371033e-02,4.468852188438177109e-03,1.000000000000000000e+00,0.000000000000000000e+00,0.000000000000000000e+00
8.783230781555175781e-01,-1.043519592285156250e+02,2.468497619628906250e+02,2.468497619628906250e+02,-1.477369852364063263e-02,-1.979980468750000000e-01,8.577429980505257845e-06,1.371001148223876953e+01,-4.742335528135299683e-02,3.432655262258776929e-07,-3.466015756130218506e-01,7.575981435365974903e-04,-3.212324736523441970e-05,-4.498620401136577129e-04,-5.367603525519371033e-02,4.468852188438177109e-03,1.000000000000000000e+00,0.000000000000000000e+00,0.000000000000000000e+00
9.483780860900878906e-01,-1.032055053710937500e+02,2.468457489013671875e+02,2.468457489013671875e+02,-1.132445316761732101e-02,-1.976013034582138062e-01,-3.051757630601059645e-05,1.368577957153320312e+01,-4.716863483190536499e-02,2.097790741117933067e-07,-3.458983302116394043e-01,3.636006265878677368e-03,-1.905451995298790280e-06,5.943631986156105995e-04,-3.436109423637390137e-02,4.764080513268709183e-03,1.000000000000000000e+00,1.769214941305108368e-05,0.000000000000000000e+00
9.483780860900878906e-01,-1.032055053710937500e+02,2.468457489013671875e+02,2.468457489013671875e+02,-1.132445316761732101e-02,-1.976013034582138062e-01,-3.051757630601059645e-05,1.368577957153320312e+01,-4.716863483190536499e-02,2.097790741117933067e-07,-3.458983302116394043e-01,3.636006265878677368e-03,-1.905451995298790280e-06,5.943631986156105995e-04,-3.436109423637390137e-02,4.764080513268709183e-03,1.000000000000000000e+00,1.769214941305108368e-05,0.000000000000000000e+00
9.483780860900878906e-01,-1.032055053710937500e+02,2.468457489013671875e+02,2.468457489013671875e+02,-1.132445316761732101e-02,-1.976013034582138062e-01,-3.051757630601059645e-05,1.368577957153320312e+01,-4.716863483190536499e-02,2.097790741117933067e-07,-3.458983302116394043e-01,3.636006265878677368e-03,-1.905451995298790280e-06,5.943631986156105995e-04,-3.436109423637390137e-02,4.764080513268709183e-03,1.000000000000000000e+00,1.769214941305108368e-05,0.000000000000000000e+00
9.483780860900878906e-01,-1.032055053710937500e+02,2.468457489013671875e+02,2.468457489013671875e+02,-1.132445316761732101e-02,-1.976013034582138062e-01,-3.051757630601059645e-05,1.368577957153320312e+01,-4.716863483190536499e-02,2.097790741117933067e-07,-3.458983302116394043e-01,3.636006265878677368e-03,-1.905451995298790280e-06,5.943631986156105995e-04,-3.436109423637390137e-02,4.764080513268709183e-03,1.000000000000000000e+00,1.769214941305108368e-05,0.000000000000000000e+00
9.483780860900878906e-01,-1.022475738525390625e+02,2.468424377441406250e+02,2.468424377441406250e+02,-9.371018968522548676e-03,-1.973266601562500000e-01,-6.103515261202119291e-05,1.366553688049316406e+01,-4.706425592303276062e-02,-7.151554655138170347e-07,-2.568901777267456055e-01,1.324622076936066151e-03,-1.173789496533572674e-05,-1.778614823706448078e-04,-2.399631403386592865e-02,3.197216661646962166e-03,1.000000000000000000e+00,5.871616394870216027e-06,0.000000000000000000e+00
1.027177095413208008e+00,-1.022475738525390625e+02,2.468424377441406250e+02,2.468424377441406250e+02,-9.371018968522548676e-03,-1.973266601562500000e-01,-6.103515261202119291e-05,1.366553688049316406e+01,-4.706425592303276062e-02,-7.151554655138170347e-07,-2.568901777267456055e-01,1.324622076936066151e-03,-1.173789496533572674e-05,-1.778614823706448078e-04,-2.399631403386592865e-02,3.197216661646962166e-03,1.000000000000000000e+00,5.871616394870216027e-06,0.000000000000000000e+00
1.027177095413208008e+00,-1.022475738525390625e+02,2.468424377441406250e+02,2.468424377441406250e+02,-9.371018968522548676e-03,-1.973266601562500000e-01,-6.103515261202119291e-05,1.366553688049316406e+01,-4.706425592303276062e-02,-7.151554655138170347e-07,-2.568901777267456055e-01,1.324622076936066151e-03,-1.173789496533572674e-05,-1.778614823706448078e-04,-2.399631403386592865e-02,3.197216661646962166e-03,1.000000000000000000e+00,5.871616394870216027e-06,0.000000000000000000e+00
1.095043420791625977e+00,-1.011718139648437500e+02,2.468387298583984375e+02,2.468387298583984375e+02,-7.875207811594009399e-03,-1.970825046300888062e-01,-6.103514533606357872e-05,1.364281368255615234e+01,-4.690596088767051697e-02,-1.039341100295132492e-06,-3.348228633403778076e-01,2.332453383132815361e-03,-4.776826244778931141e-06,-2.213634434156119823e-05,-1.593386754393577576e-02,2.980865305289626122e-03,1.000000000000000000e+00,1.023057848215103149e-05,0.000000000000000000e+00
1.095043420791625977e+00,-1.011718139648437500e+02,2.468387298583984375e+02,2.468387298583984375e+02,-7.875207811594009399e-03,-1.970825046300888062e-01,-6.103514533606357872e-05,1.364281368255615234e+01,-4.690596088767051697e-02,-1.039341100295132492e-06,-3.348228633403778076e-01,2.332453383132815361e-03,-4.776826244778931141e-06,-2.213634434156119823e-05,-1.593386754393577576e-02,2.980865305289626122e-03,1.000000000000000000e+00,1.023057848215103149e-05,0.000000000000000000e+00
1.095043420791625977e+00,-1.011718139648437500e+02,2.468387298583984375e+02,2.468387298583984375e+02,-7.875207811594009399e-03,-1.970825046300888062e-01,-6.103514533606357872e-05,1.364281368255615234e+01,-4.690596088767051697e-02,-1.039341100295132492e-06,-3.348228633403778076e-01,2.332453383132815361e-03,-4.776826244778931141e-06,-2.213634434156119823e-05,-1.593386754393577576e-02,2.980865305289626122e-03,1.000000000000000000e+00,1.023057848215103149e-05,0.000000000000000000e+00
1.095043420791625977e+00,-1.011718139648437500e+02,2.468387298583984375e+02,2.468387298583984375e+02,-7.875207811594009399e-03,-1.970825046300888062e-01,-6.103514533606357872e-05,1.364281368255615234e+01,-4.690596088767051697e-02,-1.039341100295132492e-06,-3.348228633403778076e-01,2.332453383132815361e-03,-4.776826244778931141e-06,-2.213634434156119823e-05,-1.593386754393577576e-02,2.980865305289626122e-03,1.000000000000000000e+00,1.023057848215103149e-05,0.000000000000000000e+00
1.168572425842285156e+00,-1.002393112182617188e+02,2.468354949951171875e+02,2.468354949951171875e+02,9.050000458955764771e-03,-1.968383640050888062e-01,-3.051757630601059645e-05,1.380598258972167969e+01,-4.750759899616241455e-02,-1.373104623780818656e-06,2.219109296798706055e+00,-8.182323537766933441e-03,-4.539208930509630591e-06,-1.560762291774153709e-03,-3.672113418579101562e-01,3.967225551605224609e-03,1.000000000000000000e+00,-7.643737262696959078e-06,0.000000000000000000e+00
1.168572425842285156e+00,-1.002393112182617188e+02,2.468354949951171875e+02,2.468354949951171875e+02,9.050000458955764771e-03,-1.968383640050888062e-01,-3.051757630601059645e-05,1.380598258972167969e+01,-4.750759899616241455e-02,-1.373104623780818656e-06,2.219109296798706055e+00,-8.182323537766933441e-03,-4.539208930509630591e-06,-1.560762291774153709e-03,-3.672113418579101562e-01,3.967225551605224609e-03,1.000000000000000000e+00,-7.643737262696959078e-06,0.000000000000000000e+00
1.168572425842285156e+00,-1.002393112182617188e+02,2.468354949951171875e+02,2.468354949951171875e+02,9.050000458955764771e-03,-1.968383640050888062e-01,-3.051757630601059645e-05,1.380598258972167969e+01,-4.750759899616241455e-02,-1.373104623780818656e-06,2.219109296798706055e+00,-8.182323537766933441e-03,-4.539208930509630591e-06,-1.560762291774153709e-03,-3.672113418579101562e-01,3.967225551605224609e-03,1.000000000000000000e+00,-7.643737262696959078e-06,0.000000000000000000e+00
1.168572425842285156e+00,-1.002393112182617188e+02,2.468354949951171875e+02,2.468354949951171875e+02,9.050000458955764771e-03,-1.968383640050888062e-01,-3.051757630601059645e-05,1.380598258972167969e+01,-4.750759899616241455e-02,-1.373104623780818656e-06,2.219109296798706055e+00,-8.182323537766933441e-03,-4.539208930509630591e-06,-1.560762291774153709e-03,-3.672113418579101562e-01,3.967225551605224609e-03,1.000000000000000000e+00,-7.643737262696959078e-06,0.000000000000000000e+00
1.168572425842285156e+00,-9.921499633789062500e+01,2.468319854736328125e+02,2.468319854736328125e+02,4.368588700890541077e-02,-1.965026706457138062e-01,-6.103513806010596454e-05,1.401112174987792969e+01,-4.819989576935768127e-02,-9.535340836919203866e-07,2.733423233032226562e+00,-9.224665351212024689e-03,5.590662567556137219e-06,-9.032235830090939999e-04,-5.121788382530212402e-01,5.046136211603879929e-03,1.000000000000000000e+00,-8.354894816875457764e-06,0.000000000000000000e+00
1.243620872497558594e+00,-9.921499633789062500e+01,2.468319854736328125e+02,2.468319854736328125e+02,4.368588700890541077e-02,-1.965026706457138062e-01,-6.103513806010596454e-05,1.401112174987792969e+01,-4.819989576935768127e-02,-9.535340836919203866e-07,2.733423233032226562e+00,-9.224665351212024689e-03,5.590662567556137219e-06,-9.032235830090939999e-04,-5.121788382530212402e-01,5.046136211603879929e-03,1.000000000000000000e+00,-8.354894816875457764e-06,0.000000000000000000e+00
1.243620872497558594e+00,-9.921499633789062500e+01,2.468319854736328125e+02,2.468319854736328125e+02,4.368588700890541077e-02,-1.965026706457138062e-01,-6.103513806010596454e-05,1.401112174987792969e+01,-4.819989576935768127e-02,-9.535340836919203866e-07,2.733423233032226562e+00,-9.224665351212024689e-03,5.590662567556137219e-06,-9.032235830090939999e-04,-5.121788382530212402e-01,5.046136211603879929e-03,1.000000000000000000e+00,-8.354894816875457764e-06,0.000000000000000000e+00
1.243620872497558594e+00,-9.921499633789062500e+01,2.468319854736328125e+02,2.468319854736328125e+02,4.368588700890541077e-02,-1.965026706457138062e-01,-6.103513806010596454e-05,1.401112174987792969e+01,-4.819989576935768127e-02,-9.535340836919203866e-07,2.733423233032226562e+00,-9.224665351212024689e-03,5.590662567556137219e-06,-9.032235830090939999e-04,-5.121788382530212402e-01,5.046136211603879929e-03,1.000000000000000000e+00,-8.354894816875457764e-06,0.000000000000000000e+00
1.312042951583862305e+00,-9.815361022949218750e+01,2.468283386230468750e+02,2.468283386230468750e+02,8.137486875057220459e-02,-1.962279975414276123e-01,-9.155273437500000000e-05,1.421540260314941406e+01,-4.896229133009910583e-02,-7.227766218420583755e-06,2.985598564147949219e+00,-1.114253699779510498e-02,-9.169893746729940176e-05,-8.722674101591110229e-04,-4.578039050102233887e-01,2.734012901782989502e-03,5.000000000000000000e-01,-2.681259138626046479e-05,0.000000000000000000e+00
1.312042951583862305e+00,-9.815361022949218750e+01,2.468283386230468750e+02,2.468283386230468750e+02,8.137486875057220459e-02,-1.962279975414276123e-01,-9.155273437500000000e-05,1.421540260314941406e+01,-4.896229133009910583e-02,-7.227766218420583755e-06,2.985598564147949219e+00,-1.114253699779510498e-02,-9.169893746729940176e-05,-8.722674101591110229e-04,-4.578039050102233887e-01,2.734012901782989502e-03,5.000000000000000000e-01,-2.681259138626046479e-05,0.000000000000000000e+00
1.312042951583862305e+00,-9.717567443847656250e+01,2.468249511718750000e+02,2.468249511718750000e+02,1.035183444619178772e-01,-1.962890475988388062e-01,-9.155274165095761418e-05,1.433143043518066406e+01,-4.948816820979118347e-02,-8.210011401388328522e-06,1.632208347320556641e+00,-7.397713605314493179e-03,-1.381762285745935515e-05,-8.937803795561194420e-04,-2.311983108520507812e-01,-2.846756251528859138e-03,5.000000000000000000e-01,-4.853531572734937072e-05,0.000000000000000000e+00
1.383129358291625977e+00,-9.717567443847656250e+01,2.468249511718750000e+02,2.468249511718750000e+02,1.035183444619178772e-01,-1.962890475988388062e-01,-9.155274165095761418e-05,1.433143043518066406e+01,-4.948816820979118347e-02,-8.210011401388328522e-06,1.632208347320556641e+00,-7.397713605314493179e-03,-1.381762285745935515e-05,-8.937803795561194420e-04,-2.311983108520507812e-01,-2.846756251528859138e-03,5.000000000000000000e-01,-4.853531572734937072e-05,0.000000000000000000e+00
1.383129358291625977e+00,-9.717567443847656250e+01,2.468249511718750000e+02,2.468249511718750000e+02,1.035183444619178772e-01,-1.962890475988388062e-01,-9.155274165095761418e-05,1.433143043518066406e+01,-4.948816820979118347e-02,-8.210011401388328522e-06,1.632208347320556641e+00,-7.397713605314493179e-03,-1.381762285745935515e-05,-8.937803795561194420e-04,-2.311983108520507812e-01,-2.846756251528859138e-03,5.000000000000000000e-01,-4.853531572734937072e-05,0.000000000000000000e+00
1.450951814651489258e+00,-9.615390777587890625e+01,2.468214416503906250e+02,2.468214416503906250e+02,1.098977401852607727e-01,-1.966857761144638062e-01,-9.155272709904238582e-05,1.439374446868896484e+01,-4.979568347334861755e-02,-9.182577741739805788e-06,9.187817573547363281e-01,-4.534121602773666382e-03,-1.433988654753193259e-05,-4.569392767734825611e-04,-3.962476621381938457e-04,-7.261611055582761765e-03,5.000000000000000000e-01,-4.900954809272661805e-05,0.000000000000000000e+00
1.450951814651489258e+00,-9.615390777587890625e+01,2.468214416503906250e+02,2.468214416503906250e+02,1.098977401852607727e-01,-1.966857761144638062e-01,-9.155272709904238582e-05,1.439374446868896484e+01,-4.979568347334861755e-02,-9.182577741739805788e-06,9.187817573547363281e-01,-4.534121602773666382e-03,-1.433988654753193259e-05,-4.569392767734825611e-04,-3.962476621381938457e-04,-7.261611055582761765e-03,5.000000000000000000e-01,-4.900954809272661805e-05,0.000000000000000000e+00
1.450951814651489258e+00,-9.615390777587890625e+01,2.468214416503906250e+02,2.468214416503906250e+02,1.098977401852607727e-01,-1.966857761144638062e-01,-9.155272709904238582e-05,1.439374446868896484e+01,-4.979568347334861755e-02,-9.182577741739805788e-06,9.187817573547363281e-01,-4.534121602773666382e-03,-1.433988654753193259e-05,-4.569392767734825611e-04,-3.962476621381938457e-04,-7.261611055582761765e-03,5.000000000000000000e-01,-4.900954809272661805e-05,0.000000000000000000e+00
1.527701377868652344e+00,-9.517673492431640625e+01,2.468180236816406250e+02,2.468180236816406250e+02,1.030607223510742188e-01,-1.973266601562500000e-01,-3.051758176297880709e-05,1.441413211822509766e+01,-4.998887330293655396e-02,-6.798775302740978077e-06,2.656386494636535645e-01,-2.517145592719316483e-03,3.105949144810438156e-05,-5.483895074576139450e-04,1.589447408914566040e-01,-1.067833136767148972e-02,5.000000000000000000e-01,-5.166400296729989350e-05,0.000000000000000000e+00
1.527701377868652344e+00,-9.517673492431640625e+01,2.468180236816406250e+02,2.468180236816406250e+02,1.030607223510742188e-01,-1.973266601562500000e-01,-3.051758176297880709e-05,1.441413211822509766e+01,-4.998887330293655396e-02,-6.798775302740978077e-06,2.656386494636535645e-01,-2.517145592719316483e-03,3.105949144810438156e-05,-5.483895074576139450e-04,1.589447408914566040e-01,-1.067833136767148972e-02,5.000000000000000000e-01,-5.166400296729989350e-05,0.000000000000000000e+00
1.527701377868652344e+00,-9.517673492431640625e+01,2.468180236816406250e+02,2.468180236816406250e+02,1.030607223510742188e-01,-1.973266601562500000e-01,-3.051758176297880709e-05,1.441413211822509766e+01,-4.998887330293655396e-02,-6.798775302740978077e-06,2.656386494636535645e-01,-2.517145592719316483e-03,3.105949144810438156e-05,-5.483895074576139450e-04,1.589447408914566040e-01,-1.067833136767148972e-02,5.000000000000000000e-01,-5.166400296729989350e-05,0.000000000000000000e+00
1.600134611129760742e+00,-9.407078552246093750e+01,2.468142395019531250e+02,2.468142395019531250e+02,8.563007414340972900e-02,-1.980895847082138062e-01,2.073964969895314425e-05,1.440649604797363281e+01,-4.998217150568962097e-02,-3.671082595246843994e-06,-1.054221913218498230e-01,9.252379095414653420e-05,4.318035644246265292e-05,2.650702954269945621e-04,2.587884664535522461e-01,-9.560319595038890839e-03,5.000000000000000000e-01,-2.737045360845513642e-05,0.000000000000000000e+00
1.600134611129760742e+00,-9.407078552246093750e+01,2.468142395019531250e+02,2.468142395019531250e+02,8.563007414340972900e-02,-1.980895847082138062e-01,2.073964969895314425e-05,1.440649604797363281e+01,-4.998217150568962097e-02,-3.671082595246843994e-06,-1.054221913218498230e-01,9.252379095414653420e-05,4.318035644246265292e-05,2.650702954269945621e-04,2.587884664535522461e-01,-9.560319595038890839e-03,5.000000000000000000e-01,-2.737045360845513642e-05,0.000000000000000000e+00
1.600134611129760742e+00,-9.407078552246093750e+01,2.468142395019531250e+02,2.468142395019531250e+02,8.563007414340972900e-02,-1.980895847082138062e-01,2.073964969895314425e-05,1.440649604797363281e+01,-4.998217150568962097e-02,-3.671082595246843994e-06,-1.054221913218498230e-01,9.252379095414653420e-05,4.318035644246265292e-05,2.650702954269945621e-04,2.587884664535522461e-01,-9.560319595038890839e-03,5.000000000000000000e-01,-2.737045360845513642e-05,0.000000000000000000e+00
1.600134611129760742e+00,-9.407078552246093750e+01,2.468142395019531250e+02,2.468142395019531250e+02,8.563007414340972900e-02,-1.980895847082138062e-01,2.073964969895314425e-05,1.440649604797363281e+01,-4.998217150568962097e-02,-3.671082595246843994e-06,-1.054221913218498230e-01,9.252379095414653420e-05,4.318035644246265292e-05,2.650702954269945621e-04,2.587884664535522461e-01,-9.560319595038890839e-03,5.000000000000000000e-01,-2.737045360845513642e-05,0.000000000000000000e+00
1.600134611129760742e+00,-9.407078552246093750e+01,2.468142395019531250e+02,2.468142395019531250e+02,8.563007414340972900e-02,-1.980895847082138062e-01,2.073964969895314425e-05,1.440649604797363281e+01,-4.998217150568962097e-02,-3.671082595246843994e-06,-1.054221913218498230e-01,9.252379095414653420e-05,4.318035644246265292e-05,2.650702954269945621e-04,2.587884664535522461e-01,-9.560319595038890839e-03,5.000000000000000000e-01,-2.737045360845513642e-05,0.000000000000000000e+00
1.600134611129760742e+00,-9.302851104736328125e+01,2.468106231689453125e+02,2.468106231689453125e+02,6.559029966592788696e-02,-1.987304687500000000e-01,8.284677460324019194e-05,1.437961483001708984e+01,-4.996029660105705261e-02,-3.814144733382818231e-08,-2.329821735620498657e-01,1.895919704111292958e-04,3.148705945932306349e-05,-6.891451630508527160e-05,2.842466235160827637e-01,-8.522101677954196930e-03,5.000000000000000000e-01,-2.172067797800991684e-05,0.000000000000000000e+00
1.715513467788696289e+00,-9.302851104736328125e+01,2.468106231689453125e+02,2.468106231689453125e+02,6.559029966592788696e-02,-1.987304687500000000e-01,8.284677460324019194e-05,1.437961483001708984e+01,-4.996029660105705261e-02,-3.814144733382818231e-08,-2.329821735620498657e-01,1.895919704111292958e-04,3.148705945932306349e-05,-6.891451630508527160e-05,2.842466235160827637e-01,-8.522101677954196930e-03,5.000000000000000000e-01,-2.172067797800991684e-05,0.000000000000000000e+00
1.715513467788696289e+00,-9.302851104736328125e+01,2.468106231689453125e+02,2.468106231689453125e+02,6.559029966592788696e-02,-1.987304687500000000e-01,8.284677460324019194e-05,1.437961483001708984e+01,-4.996029660105705261e-02,-3.814144733382818231e-08,-2.329821735620498657e-01,1.895919704111292958e-04,3.148705945932306349e-05,-6.891451630508527160e-05,2.842466235160827637e-01,-8.522101677954196930e-03,5.000000000000000000e-01,-2.172067797800991684e-05,0.000000000000000000e+00
1.715513467788696289e+00,-9.302851104736328125e+01,2.468106231689453125e+02,2.468106231689453125e+02,6.559029966592788696e-02,-1.987304687500000000e-01,8.284677460324019194e-05,1.437961483001708984e+01,-4.996029660105705261e-02,-3.814144733382818231e-08,-2.329821735620498657e-01,1.895919704111292958e-04,3.148705945932306349e-05,-6.891451630508527160e-05,2.842466235160827637e-01,-8.522101677954196930e-03,5.000000000000000000e-01,-2.172067797800991684e-05,0.000000000000000000e+00
1.813115119934082031e+00,-9.159386444091796875e+01,2.468055877685546875e+02,2.468055877685546875e+02,3.758652880787849426e-02,-1.994628906250000000e-01,1.913388259708881378e-04,1.432399272918701172e+01,-4.987890273332595825e-02,2.517280563552048989e-06,-5.698889493942260742e-01,8.339394698850810528e-04,2.618216058181133121e-05,-2.975239185616374016e-04,2.639406323432922363e-01,-6.900050211697816849e-03,5.000000000000000000e-01,-1.499950849392917007e-05,0.000000000000000000e+00
1.813115119934082031e+00,-9.159386444091796875e+01,2.468055877685546875e+02,2.468055877685546875e+02,3.758652880787849426e-02,-1.994628906250000000e-01,1.913388259708881378e-04,1.432399272918701172e+01,-4.987890273332595825e-02,2.517280563552048989e-06,-5.698889493942260742e-01,8.339394698850810528e-04,2.618216058181133121e-05,-2.975239185616374016e-04,2.639406323432922363e-01,-6.900050211697816849e-03,5.000000000000000000e-01,-1.499950849392917007e-05,0.000000000000000000e+00
1.813115119934082031e+00,-9.159386444091796875e+01,2.468055877685546875e+02,2.468055877685546875e+02,3.758652880787849426e-02,-1.994628906250000000e-01,1.913388259708881378e-04,1.432399272918701172e+01,-4.987890273332595825e-02,2.517280563552048989e-06,-5.698889493942260742e-01,8.339394698850810528e-04,2.618216058181133121e-05,-2.975239185616374016e-04,2.639406323432922363e-01,-6.900050211697816849e-03,5.000000000000000000e-01,-1.499950849392917007e-05,0.000000000000000000e+00
1.813115119934082031e+00,-9.159386444091796875e+01,2.468055877685546875e+02,2.468055877685546875e+02,3.758652880787849426e-02,-1.994628906250000000e-01,1.913388259708881378e-04,1.432399272918701172e+01,-4.987890273332595825e-02,2.517280563552048989e-06,-5.698889493942260742e-01,8.339394698850810528e-04,2.618216058181133121e-05,-2.975239185616374016e-04,2.639406323432922363e-01,-6.900050211697816849e-03,5.000000000000000000e-01,-1.499950849392917007e-05,0.000000000000000000e+00
1.896134853363037109e+00,-9.019968414306640625e+01,2.468007965087890625e+02,2.468007965087890625e+02,1.490347180515527725e-02,-1.998290866613388062e-01,2.104804880218580365e-04,1.425806713104248047e+01,-4.960298538208007812e-02,5.177609182283049449e-06,-7.940955162048339844e-01,3.323515411466360092e-03,3.204453241778537631e-05,5.856934585608541965e-04,2.093074619770050049e-01,-1.836239011026918888e-03,5.000000000000000000e-01,1.032706313708331436e-05,0.000000000000000000e+00
1.896134853363037109e+00,-9.019968414306640625e+01,2.468007965087890625e+02,2.468007965087890625e+02,1.490347180515527725e-02,-1.998290866613388062e-01,2.104804880218580365e-04,1.425806713104248047e+01,-4.960298538208007812e-02,5.177609182283049449e-06,-7.940955162048339844e-01,3.323515411466360092e-03,3.204453241778537631e-05,5.856934585608541965e-04,2.093074619770050049e-01,-1.836239011026918888e-03,5.000000000000000000e-01,1.032706313708331436e-05,0.000000000000000000e+00
1.896134853363037109e+00,-9.019968414306640625e+01,2.468007965087890625e+02,2.468007965087890625e+02,1.490347180515527725e-02,-1.998290866613388062e-01,2.104804880218580365e-04,1.425806713104248047e+01,-4.960298538208007812e-02,5.177609182283049449e-06,-7.940955162048339844e-01,3.323515411466360092e-03,3.204453241778537631e-05,5.856934585608541965e-04,2.093074619770050049e-01,-1.836239011026918888e-03,5.000000000000000000e-01,1.032706313708331436e-05,0.000000000000000000e+00
1.896134853363037109e+00,-9.019968414306640625e+01,2.468007965087890625e+02,2.468007965087890625e+02,1.490347180515527725e-02,-1.998290866613388062e-01,2.104804880218580365e-04,1.425806713104248047e+01,-4.960298538208007812e-02,5.177609182283049449e-06,-7.940955162048339844e-01,3.323515411466360092e-03,3.204453241778537631e-05,5.856934585608541965e-04,2.093074619770050049e-01,-1.836239011026918888e-03,5.000000000000000000e-01,1.032706313708331436e-05,0.000000000000000000e+00
1.896134853363037109e+00,-9.019968414306640625e+01,2.468007965087890625e+02,2.468007965087890625e+02,1.490347180515527725e-02,-1.998290866613388062e-01,2.104804880218580365e-04,1.425806713104248047e+01,-4.960298538208007812e-02,5.177609182283049449e-06,-7.940955162048339844e-01,3.323515411466360092e-03,3.204453241778537631e-05,5.856934585608541965e-04,2.093074619770050049e-01,-1.836239011026918888e-03,5.000000000000000000e-01,1.032706313708331436e-05,0.000000000000000000e+00
1.896134853363037109e+00,-9.019968414306640625e+01,2.468007965087890625e+02,2.468007965087890625e+02,1.490347180515527725e-02,-1.998290866613388062e-01,2.104804880218580365e-04,1.425806713104248047e+01,-4.960298538208007812e-02,5.177609182283049449e-06,-7.940955162048339844e-01,3.323515411466360092e-03,3.204453241778537631e-05,5.856934585608541965e-04,2.093074619770050049e-01,-1.836239011026918888e-03,5.000000000000000000e-01,1.032706313708331436e-05,0.000000000000000000e+00
1.896134853363037109e+00,-9.019968414306640625e+01,2.468007965087890625e+02,2.468007965087890625e+02,1.490347180515527725e-02,-1.998290866613388062e-01,2.104804880218580365e-04,1.425806713104248047e+01,-4.960298538208007812e-02,5.177609182283049449e-06,-7.940955162048339844e-01,3.323515411466360092e-03,3.204453241778537631e-05,5.856934585608541965e-04,2.093074619770050049e-01,-1.836239011026918888e-03,5.000000000000000000e-01,1.032706313708331436e-05,0.000000000000000000e+00
2.195794820785522461e+00,-8.636962890625000000e+01,2.467874298095703125e+02,2.467874298095703125e+02,-2.099600061774253845e-02,-1.999511420726776123e-01,2.729964617174118757e-04,1.405475902557373047e+01,-4.895953088998794556e-02,2.526867547203437425e-06,-1.262878894805908203e+00,4.748225677758455276e-03,-1.239626635651802644e-05,4.393250274006277323e-04,7.543049007654190063e-02,5.855571362189948559e-04,5.000000000000000000e-01,9.914860129356384277e-06,0.000000000000000000e+00
2.195794820785522461e+00,-8.636962890625000000e+01,2.467874298095703125e+02,2.467874298095703125e+02,-2.099600061774253845e-02,-1.999511420726776123e-01,2.729964617174118757e-04,1.405475902557373047e+01,-4.895953088998794556e-02,2.526867547203437425e-06,-1.262878894805908203e+00,4.748225677758455276e-03,-1.239626635651802644e-05,4.393250274006277323e-04,7.543049007654190063e-02,5.855571362189948559e-04,5.000000000000000000e-01,9.914860129356384277e-06,0.000000000000000000e+00
2.195794820785522461e+00,-8.636962890625000000e+01,2.467874298095703125e+02,2.467874298095703125e+02,-2.099600061774253845e-02,-1.999511420726776123e-01,2.729964617174118757e-04,1.405475902557373047e+01,-4.895953088998794556e-02,2.526867547203437425e-06,-1.262878894805908203e+00,4.748225677758455276e-03,-1.239626635651802644e-05,4.393250274006277323e-04,7.543049007654190063e-02,5.855571362189948559e-04,5.000000000000000000e-01,9.914860129356384277e-06,0.000000000000000000e+00
2.195794820785522461e+00,-8.636962890625000000e+01,2.467874298095703125e+02,2.467874298095703125e+02,-2.099600061774253845e-02,-1.999511420726776123e-01,2.729964617174118757e-04,1.405475902557373047e+01,-4.895953088998794556e-02,2.526867547203437425e-06,-1.262878894805908203e+00,4.748225677758455276e-03,-1.239626635651802644e-05,4.393250274006277323e-04,7.543049007654190063e-02,5.855571362189948559e-04,5.000000000000000000e-01,9.914860129356384277e-06,0.000000000000000000e+00
2.195794820785522461e+00,-8.636962890625000000e+01,2.467874298095703125e+02,2.467874298095703125e+02,-2.099600061774253845e-02,-1.999511420726776123e-01,2.729964617174118757e-04,1.405475902557373047e+01,-4.895953088998794556e-02,2.526867547203437425e-06,-1.262878894805908203e+00,4.748225677758455276e-03,-1.239626635651802644e-05,4.393250274006277323e-04,7.543049007654190063e-02,5.855571362189948559e-04,5.000000000000000000e-01,9.914860129356384277e-06,0.000000000000000000e+00
2.195794820785522461e+00,-8.636962890625000000e+01,2.467874298095703125e+02,2.467874298095703125e+02,-2.099600061774253845e-02,-1.999511420726776123e-01,2.729964617174118757e-04,1.405475902557373047e+01,-4.895953088998794556e-02,2.526867547203437425e-06,-1.262878894805908203e+00,4.748225677758455276e-03,-1.239626635651802644e-05,4.393250274006277323e-04,7.543049007654190063e-02,5.855571362189948559e-04,5.000000000000000000e-01,9.914860129356384277e-06,0.000000000000000000e+00
2.195794820785522461e+00,-8.636962890625000000e+01,2.467874298095703125e+02,2.467874298095703125e+02,-2.099600061774253845e-02,-1.999511420726776123e-01,2.729964617174118757e-04,1.405475902557373047e+01,-4.895953088998794556e-02,2.526867547203437425e-06,-1.262878894805908203e+00,4.748225677758455276e-03,-1.239626635651802644e-05,4.393250274006277323e-04,7.543049007654190063e-02,5.855571362189948559e-04,5.000000000000000000e-01,9.914860129356384277e-06,0.000000000000000000e+00
2.195794820785522461e+00,-8.636962890625000000e+01,2.467874298095703125e+02,2.467874298095703125e+02,-2.099600061774253845e-02,-1.999511420726776123e-01,2.729964617174118757e-04,1.405475902557373047e+01,-4.895953088998794556e-02,2.526867547203437425e-06,-1.262878894805908203e+00,4.748225677758455276e-03,-1.239626635651802644e-05,4.393250274006277323e-04,7.543049007654190063e-02,5.855571362189948559e-04,5.000000000000000000e-01,9.914860129356384277e-06,0.000000000000000000e+00
2.195794820785522461e+00,-8.636962890625000000e+01,2.467874298095703125e+02,2.467874298095703125e+02,-2.099600061774253845e-02,-1.999511420726776123e-01,2.729964617174118757e-04,1.405475902557373047e+01,-4.895953088998794556e-02,2.526867547203437425e-06,-1.262878894805908203e+00,4.748225677758455276e-03,-1.239626635651802644e-05,4.393250274006277323e-04,7.543049007654190063e-02,5.855571362189948559e-04,5.000000000000000000e-01,9.914860129356384277e-06,0.000000000000000000e+00
2.195794820785522461e+00,-8.636962890625000000e+01,2.467874298095703125e+02,2.467874298095703125e+02,-2.099600061774253845e-02,-1.999511420726776123e-01,2.729964617174118757e-04,1.405475902557373047e+01,-4.895953088998794556e-02,2.526867547203437425e-06,-1.262878894805908203e+00,4.748225677758455276e-03,-1.239626635651802644e-05,4.393250274006277323e-04,7.543049007654190063e-02,5.855571362189948559e-04,5.000000000000000000e-01,9.914860129356384277e-06,0.000000000000000000e+00
2.374083757400512695e+00,-8.562511444091796875e+01,2.467848510742187500e+02,2.467848510742187500e+02,-2.441792562603950500e-02,-1.998596042394638062e-01,2.453507040627300739e-04,1.401422119140625000e+01,-4.876067861914634705e-02,2.994140004375367425e-06,-2.273715585470199585e-01,1.115337130613625050e-03,2.620871782710310072e-06,8.644004701636731625e-04,5.853759869933128357e-02,2.096262760460376740e-03,5.000000000000000000e-01,2.023298293352127075e-05,0.000000000000000000e+00
2.374083757400512695e+00,-8.562511444091796875e+01,2.467848510742187500e+02,2.467848510742187500e+02,-2.441792562603950500e-02,-1.998596042394638062e-01,2.453507040627300739e-04,1.401422119140625000e+01,-4.876067861914634705e-02,2.994140004375367425e-06,-2.273715585470199585e-01,1.115337130613625050e-03,2.620871782710310072e-06,8.644004701636731625e-04,5.853759869933128357e-02,2.096262760460376740e-03,5.000000000000000000e-01,2.023298293352127075e-05,0.000000000000000000e+00
2.374083757400512695e+00,-8.562511444091796875e+01,2.467848510742187500e+02,2.467848510742187500e+02,-2.441792562603950500e-02,-1.998596042394638062e-01,2.453507040627300739e-04,1.401422119140625000e+01,-4.876067861914634705e-02,2.994140004375367425e-06,-2.273715585470199585e-01,1.115337130613625050e-03,2.620871782710310072e-06,8.644004701636731625e-04,5.853759869933128357e-02,2.096262760460376740e-03,5.000000000000000000e-01,2.023298293352127075e-05,0.000000000000000000e+00
2.447860002517700195e+00,-8.422812652587890625e+01,2.467799987792968750e+02,2.467799987792968750e+02,-2.899415232241153717e-02,-1.995544284582138062e-01,1.903353695524856448e-04,1.393837738037109375e+01,-4.842290654778480530e-02,2.727053924900246784e-06,-1.028024792671203613e+00,4.578331019729375839e-03,-3.620217967181815766e-06,6.171400891616940498e-04,3.581675142049789429e-02,3.428902244195342064e-03,5.000000000000000000e-01,1.936219632625579834e-05,0.000000000000000000e+00
2.447860002517700195e+00,-8.422812652587890625e+01,2.467799987792968750e+02,2.467799987792968750e+02,-2.899415232241153717e-02,-1.995544284582138062e-01,1.903353695524856448e-04,1.393837738037109375e+01,-4.842290654778480530e-02,2.727053924900246784e-06,-1.028024792671203613e+00,4.578331019729375839e-03,-3.620217967181815766e-06,6.171400891616940498e-04,3.581675142049789429e-02,3.428902244195342064e-03,5.000000000000000000e-01,1.936219632625579834e-05,0.000000000000000000e+00
2.500878810882568359e+00,-8.320227050781250000e+01,2.467764587402343750e+02,2.467764587402343750e+02,-3.097490593791007996e-02,-1.992492526769638062e-01,1.446475507691502571e-04,1.388311004638671875e+01,-4.813705757260322571e-02,2.631752522574970499e-06,-1.042409896850585938e+00,5.391463637351989746e-03,-1.797501795408606995e-06,7.297650445252656937e-04,2.230713889002799988e-02,4.708287771791219711e-03,5.000000000000000000e-01,2.500191294529940933e-05,0.000000000000000000e+00
2.500878810882568359e+00,-8.320227050781250000e+01,2.467764587402343750e+02,2.467764587402343750e+02,-3.097490593791007996e-02,-1.992492526769638062e-01,1.446475507691502571e-04,1.388311004638671875e+01,-4.813705757260322571e-02,2.631752522574970499e-06,-1.042409896850585938e+00,5.391463637351989746e-03,-1.797501795408606995e-06,7.297650445252656937e-04,2.230713889002799988e-02,4.708287771791219711e-03,5.000000000000000000e-01,2.500191294529940933e-05,0.000000000000000000e+00
2.500878810882568359e+00,-8.246738433837890625e+01,2.467738800048828125e+02,2.467738800048828125e+02,-3.158279135823249817e-02,-1.990356296300888062e-01,1.427790557499974966e-04,1.385034275054931641e+01,-4.803499206900596619e-02,1.497070115874521434e-06,-5.524132251739501953e-01,1.720689353533089161e-03,-1.912924381031189114e-05,-1.367429213132709265e-04,-1.451260875910520554e-03,3.554402384907007217e-03,1.000000000000000000e+00,9.295157724409364164e-06,0.000000000000000000e+00
2.560195446014404297e+00,-8.246738433837890625e+01,2.467738800048828125e+02,2.467738800048828125e+02,-3.158279135823249817e-02,-1.990356296300888062e-01,1.427790557499974966e-04,1.385034275054931641e+01,-4.803499206900596619e-02,1.497070115874521434e-06,-5.524132251739501953e-01,1.720689353533089161e-03,-1.912924381031189114e-05,-1.367429213132709265e-04,-1.451260875910520554e-03,3.554402384907007217e-03,1.000000000000000000e+00,9.295157724409364164e-06,0.000000000000000000e+00
2.560195446014404297e+00,-8.246738433837890625e+01,2.467738800048828125e+02,2.467738800048828125e+02,-3.158279135823249817e-02,-1.990356296300888062e-01,1.427790557499974966e-04,1.385034275054931641e+01,-4.803499206900596619e-02,1.497070115874521434e-06,-5.524132251739501953e-01,1.720689353533089161e-03,-1.912924381031189114e-05,-1.367429213132709265e-04,-1.451260875910520554e-03,3.554402384907007217e-03,1.000000000000000000e+00,9.295157724409364164e-06,0.000000000000000000e+00
2.618730545043945312e+00,-8.164575195312500000e+01,2.467710723876953125e+02,2.467710723876953125e+02,-2.773739583790302277e-02,-1.988525539636611938e-01,1.525617844890803099e-04,1.386003398895263672e+01,-4.806791618466377258e-02,1.659147187638154719e-06,1.655628532171249390e-01,-5.624679033644497395e-04,2.768886815829318948e-06,-4.421961493790149689e-04,-1.155764907598495483e-01,3.304504789412021637e-03,1.000000000000000000e+00,5.911476819164818153e-06,0.000000000000000000e+00
2.618730545043945312e+00,-8.164575195312500000e+01,2.467710723876953125e+02,2.467710723876953125e+02,-2.773739583790302277e-02,-1.988525539636611938e-01,1.525617844890803099e-04,1.386003398895263672e+01,-4.806791618466377258e-02,1.659147187638154719e-06,1.655628532171249390e-01,-5.624679033644497395e-04,2.768886815829318948e-06,-4.421961493790149689e-04,-1.155764907598495483e-01,3.304504789412021637e-03,1.000000000000000000e+00,5.911476819164818153e-06,0.000000000000000000e+00
2.677334070205688477e+00,-8.083211517333984375e+01,2.467682495117187500e+02,2.467682495117187500e+02,-1.528596226125955582e-02,-1.986694335937500000e-01,1.597928785486146808e-04,1.392701530456542969e+01,-4.832715913653373718e-02,3.423189809836912900e-06,1.142957091331481934e+00,-4.423675127327442169e-03,3.010130603797733784e-05,-9.219409548677504063e-04,-2.693638205528259277e-01,3.092244034633040428e-03,1.000000000000000000e+00,-3.736466169357299805e-06,0.000000000000000000e+00
2.677334070205688477e+00,-8.083211517333984375e+01,2.467682495117187500e+02,2.467682495117187500e+02,-1.528596226125955582e-02,-1.986694335937500000e-01,1.597928785486146808e-04,1.392701530456542969e+01,-4.832715913653373718e-02,3.423189809836912900e-06,1.142957091331481934e+00,-4.423675127327442169e-03,3.010130603797733784e-05,-9.219409548677504063e-04,-2.693638205528259277e-01,3.092244034633040428e-03,1.000000000000000000e+00,-3.736466169357299805e-06,0.000000000000000000e+00
2.677334070205688477e+00,-8.083211517333984375e+01,2.467682495117187500e+02,2.467682495117187500e+02,-1.528596226125955582e-02,-1.986694335937500000e-01,1.597928785486146808e-04,1.392701530456542969e+01,-4.832715913653373718e-02,3.423189809836912900e-06,1.142957091331481934e+00,-4.423675127327442169e-03,3.010130603797733784e-05,-9.219409548677504063e-04,-2.693638205528259277e-01,3.092244034633040428e-03,1.000000000000000000e+00,-3.736466169357299805e-06,0.000000000000000000e+00
2.677334070205688477e+00,-8.083211517333984375e+01,2.467682495117187500e+02,2.467682495117187500e+02,-1.528596226125955582e-02,-1.986694335937500000e-01,1.597928785486146808e-04,1.392701530456542969e+01,-4.832715913653373718e-02,3.423189809836912900e-06,1.142957091331481934e+00,-4.423675127327442169e-03,3.010130603797733784e-05,-9.219409548677504063e-04,-2.693638205528259277e-01,3.092244034633040428e-03,1.000000000000000000e+00,-3.736466169357299805e-06,0.000000000000000000e+00
2.755024909973144531e+00,-8.001231384277343750e+01,2.467654266357421875e+02,2.467654266357421875e+02,4.371320828795433044e-03,-1.985168606042861938e-01,1.492801238782703876e-04,1.402056598663330078e+01,-4.868300259113311768e-02,1.115635427595407236e-06,1.204140424728393555e+00,-4.580250009894371033e-03,-2.970175773953087628e-05,-8.347441907972097397e-04,-3.558461666107177734e-01,2.554073696956038475e-03,5.000000000000000000e-01,-1.108087599277496338e-05,0.000000000000000000e+00
2.755024909973144531e+00,-8.001231384277343750e+01,2.467654266357421875e+02,2.467654266357421875e+02,4.371320828795433044e-03,-1.985168606042861938e-01,1.492801238782703876e-04,1.402056598663330078e+01,-4.868300259113311768e-02,1.115635427595407236e-06,1.204140424728393555e+00,-4.580250009894371033e-03,-2.970175773953087628e-05,-8.347441907972097397e-04,-3.558461666107177734e-01,2.554073696956038475e-03,5.000000000000000000e-01,-1.108087599277496338e-05,0.000000000000000000e+00
2.755024909973144531e+00,-8.001231384277343750e+01,2.467654266357421875e+02,2.467654266357421875e+02,4.371320828795433044e-03,-1.985168606042861938e-01,1.492801238782703876e-04,1.402056598663330078e+01,-4.868300259113311768e-02,1.115635427595407236e-06,1.204140424728393555e+00,-4.580250009894371033e-03,-2.970175773953087628e-05,-8.347441907972097397e-04,-3.558461666107177734e-01,2.554073696956038475e-03,5.000000000000000000e-01,-1.108087599277496338e-05,0.000000000000000000e+00
2.830169916152954102e+00,-7.891894531250000000e+01,2.467616119384765625e+02,2.467616119384765625e+02,2.820185013115406036e-02,-1.984863132238388062e-01,1.342276518698781729e-04,1.409648132324218750e+01,-4.903374239802360535e-02,-3.165706857544137165e-06,1.010251283645629883e+00,-4.667506553232669830e-03,-5.697440428775735199e-05,-5.971504142507910728e-04,-2.497509717941284180e-01,-9.519986342638731003e-04,5.000000000000000000e-01,-2.496168053767178208e-05,0.000000000000000000e+00
2.830169916152954102e+00,-7.891894531250000000e+01,2.467616119384765625e+02,2.467616119384765625e+02,2.820185013115406036e-02,-1.984863132238388062e-01,1.342276518698781729e-04,1.409648132324218750e+01,-4.903374239802360535e-02,-3.165706857544137165e-06,1.010251283645629883e+00,-4.667506553232669830e-03,-5.697440428775735199e-05,-5.971504142507910728e-04,-2.497509717941284180e-01,-9.519986342638731003e-04,5.000000000000000000e-01,-2.496168053767178208e-05,0.000000000000000000e+00
2.830169916152954102e+00,-7.891894531250000000e+01,2.467616119384765625e+02,2.467616119384765625e+02,2.820185013115406036e-02,-1.984863132238388062e-01,1.342276518698781729e-04,1.409648132324218750e+01,-4.903374239802360535e-02,-3.165706857544137165e-06,1.010251283645629883e+00,-4.667506553232669830e-03,-5.697440428775735199e-05,-5.971504142507910728e-04,-2.497509717941284180e-01,-9.519986342638731003e-04,5.000000000000000000e-01,-2.496168053767178208e-05,0.000000000000000000e+00
2.830169916152954102e+00,-7.891894531250000000e+01,2.467616119384765625e+02,2.467616119384765625e+02,2.820185013115406036e-02,-1.984863132238388062e-01,1.342276518698781729e-04,1.409648132324218750e+01,-4.903374239802360535e-02,-3.165706857544137165e-06,1.010251283645629883e+00,-4.667506553232669830e-03,-5.697440428775735199e-05,-5.971504142507910728e-04,-2.497509717941284180e-01,-9.519986342638731003e-04,5.000000000000000000e-01,-2.496168053767178208e-05,0.000000000000000000e+00
2.830169916152954102e+00,-7.891894531250000000e+01,2.467616119384765625e+02,2.467616119384765625e+02,2.820185013115406036e-02,-1.984863132238388062e-01,1.342276518698781729e-04,1.409648132324218750e+01,-4.903374239802360535e-02,-3.165706857544137165e-06,1.010251283645629883e+00,-4.667506553232669830e-03,-5.697440428775735199e-05,-5.971504142507910728e-04,-2.497509717941284180e-01,-9.519986342638731003e-04,5.000000000000000000e-01,-2.496168053767178208e-05,0.000000000000000000e+00
2.917726278305053711e+00,-7.786069488525390625e+01,2.467579040527343750e+02,2.467579040527343750e+02,3.424656763672828674e-02,-1.986694335937500000e-01,9.652918379288166761e-05,1.407314586639404297e+01,-4.895064607262611389e-02,-3.604347284635878168e-06,-2.665192484855651855e-01,9.490609518252313137e-04,-5.009806045563891530e-06,4.201548872515559196e-04,-1.020539551973342896e-03,-3.204995300620794296e-03,5.000000000000000000e-01,-1.675449311733245850e-05,0.000000000000000000e+00
