# Time,X,Y,Z,Roll,Pitch,Yaw,Vx,Vy,Vz,Ax,Ay,Az,Wx,Wy,Wz,Throttle,Steer,Brake
0.000000000000000000e+00,8.348527908325195312e+00,2.379232330322265625e+02,2.379232330322265625e+02,1.876321136951446533e-01,-3.522186756134033203e+00,2.061792016029357910e-01,5.555679798126220703e+00,-3.427197933197021484e-01,-2.357149423914961517e-05,6.666666865348815918e-01,4.802940040826797485e-02,4.156970317126251757e-05,5.709397606551647186e-03,-3.167653679847717285e-01,1.027627348899841309e+00,1.000000000000000000e+00,7.820939645171165466e-03,0.000000000000000000e+00
1.045818328857421875e-01,8.348527908325195312e+00,2.379232330322265625e+02,2.379232330322265625e+02,1.876321136951446533e-01,-3.522186756134033203e+00,2.061792016029357910e-01,5.555679798126220703e+00,-3.427197933197021484e-01,-2.357149423914961517e-05,6.666666865348815918e-01,4.802940040826797485e-02,4.156970317126251757e-05,5.709397606551647186e-03,-3.167653679847717285e-01,1.027627348899841309e+00,1.000000000000000000e+00,7.820939645171165466e-03,0.000000000000000000e+00
1.045818328857421875e-01,8.348527908325195312e+00,2.379232330322265625e+02,2.379232330322265625e+02,1.876321136951446533e-01,-3.522186756134033203e+00,2.061792016029357910e-01,5.555679798126220703e+00,-3.427197933197021484e-01,-2.357149423914961517e-05,6.666666865348815918e-01,4.802940040826797485e-02,4.156970317126251757e-05,5.709397606551647186e-03,-3.167653679847717285e-01,1.027627348899841309e+00,1.000000000000000000e+00,7.820939645171165466e-03,0.000000000000000000e+00
1.045818328857421875e-01,8.348527908325195312e+00,2.379232330322265625e+02,2.379232330322265625e+02,1.876321136951446533e-01,-3.522186756134033203e+00,2.061792016029357910e-01,5.555679798126220703e+00,-3.427197933197021484e-01,-2.357149423914961517e-05,6.666666865348815918e-01,4.802940040826797485e-02,4.156970317126251757e-05,5.709397606551647186e-03,-3.167653679847717285e-01,1.027627348899841309e+00,1.000000000000000000e+00,7.820939645171165466e-03,0.000000000000000000e+00
1.045818328857421875e-01,8.348527908325195312e+00,2.379232330322265625e+02,2.379232330322265625e+02,1.876321136951446533e-01,-3.522186756134033203e+00,2.061792016029357910e-01,5.555679798126220703e+00,-3.427197933197021484e-01,-2.357149423914961517e-05,6.666666865348815918e-01,4.802940040826797485e-02,4.156970317126251757e-05,5.709397606551647186e-03,-3.167653679847717285e-01,1.027627348899841309e+00,1.000000000000000000e+00,7.820939645171165466e-03,0.000000000000000000e+00
1.045818328857421875e-01,8.348527908325195312e+00,2.379232330322265625e+02,2.379232330322265625e+02,1.876321136951446533e-01,-3.522186756134033203e+00,2.061792016029357910e-01,5.555679798126220703e+00,-3.427197933197021484e-01,-2.357149423914961517e-05,6.666666865348815918e-01,4.802940040826797485e-02,4.156970317126251757e-05,5.709397606551647186e-03,-3.167653679847717285e-01,1.027627348899841309e+00,1.000000000000000000e+00,7.820939645171165466e-03,0.000000000000000000e+00
1.045818328857421875e-01,8.924805641174316406e+00,2.378886413574218750e+02,2.378886413574218750e+02,-2.090720832347869873e-02,-3.455017805099487305e+00,1.884299218654632568e-01,5.710661888122558594e+00,-3.464158177375793457e-01,-4.939209702570224181e-06,1.480123162269592285e+00,-3.529808670282363892e-02,1.779436424840241671e-04,2.203935235738754272e-01,-7.032153010368347168e-01,6.677144169807434082e-01,5.000000000000000000e-01,4.841780755668878555e-03,0.000000000000000000e+00
2.092907428741455078e-01,8.924805641174316406e+00,2.378886413574218750e+02,2.378886413574218750e+02,-2.090720832347869873e-02,-3.455017805099487305e+00,1.884299218654632568e-01,5.710661888122558594e+00,-3.464158177375793457e-01,-4.939209702570224181e-06,1.480123162269592285e+00,-3.529808670282363892e-02,1.779436424840241671e-04,2.203935235738754272e-01,-7.032153010368347168e-01,6.677144169807434082e-01,5.000000000000000000e-01,4.841780755668878555e-03,0.000000000000000000e+00
2.092907428741455078e-01,8.924805641174316406e+00,2.378886413574218750e+02,2.378886413574218750e+02,-2.090720832347869873e-02,-3.455017805099487305e+00,1.884299218654632568e-01,5.710661888122558594e+00,-3.464158177375793457e-01,-4.939209702570224181e-06,1.480123162269592285e+00,-3.529808670282363892e-02,1.779436424840241671e-04,2.203935235738754272e-01,-7.032153010368347168e-01,6.677144169807434082e-01,5.000000000000000000e-01,4.841780755668878555e-03,0.000000000000000000e+00
2.092907428741455078e-01,8.924805641174316406e+00,2.378886413574218750e+02,2.378886413574218750e+02,-2.090720832347869873e-02,-3.455017805099487305e+00,1.884299218654632568e-01,5.710661888122558594e+00,-3.464158177375793457e-01,-4.939209702570224181e-06,1.480123162269592285e+00,-3.529808670282363892e-02,1.779436424840241671e-04,2.203935235738754272e-01,-7.032153010368347168e-01,6.677144169807434082e-01,5.000000000000000000e-01,4.841780755668878555e-03,0.000000000000000000e+00
2.092907428741455078e-01,8.924805641174316406e+00,2.378886413574218750e+02,2.378886413574218750e+02,-2.090720832347869873e-02,-3.455017805099487305e+00,1.884299218654632568e-01,5.710661888122558594e+00,-3.464158177375793457e-01,-4.939209702570224181e-06,1.480123162269592285e+00,-3.529808670282363892e-02,1.779436424840241671e-04,2.203935235738754272e-01,-7.032153010368347168e-01,6.677144169807434082e-01,5.000000000000000000e-01,4.841780755668878555e-03,0.000000000000000000e+00
2.092907428741455078e-01,9.508272171020507812e+00,2.378565521240234375e+02,2.378565521240234375e+02,-6.567226350307464600e-02,-3.215759754180908203e+00,1.909109503030776978e-01,5.684007644653320312e+00,-3.215040564537048340e-01,4.233608251524856314e-06,-3.572065234184265137e-01,3.338546752929687500e-01,1.229294139193370938e-04,-3.269031941890716553e-01,-2.789339303970336914e+00,2.538190364837646484e+00,5.000000000000000000e-01,2.077590674161911011e-02,0.000000000000000000e+00
2.839093208312988281e-01,9.508272171020507812e+00,2.378565521240234375e+02,2.378565521240234375e+02,-6.567226350307464600e-02,-3.215759754180908203e+00,1.909109503030776978e-01,5.684007644653320312e+00,-3.215040564537048340e-01,4.233608251524856314e-06,-3.572065234184265137e-01,3.338546752929687500e-01,1.229294139193370938e-04,-3.269031941890716553e-01,-2.789339303970336914e+00,2.538190364837646484e+00,5.000000000000000000e-01,2.077590674161911011e-02,0.000000000000000000e+00
2.839093208312988281e-01,9.508272171020507812e+00,2.378565521240234375e+02,2.378565521240234375e+02,-6.567226350307464600e-02,-3.215759754180908203e+00,1.909109503030776978e-01,5.684007644653320312e+00,-3.215040564537048340e-01,4.233608251524856314e-06,-3.572065234184265137e-01,3.338546752929687500e-01,1.229294139193370938e-04,-3.269031941890716553e-01,-2.789339303970336914e+00,2.538190364837646484e+00,5.000000000000000000e-01,2.077590674161911011e-02,0.000000000000000000e+00
2.839093208312988281e-01,9.508272171020507812e+00,2.378565521240234375e+02,2.378565521240234375e+02,-6.567226350307464600e-02,-3.215759754180908203e+00,1.909109503030776978e-01,5.684007644653320312e+00,-3.215040564537048340e-01,4.233608251524856314e-06,-3.572065234184265137e-01,3.338546752929687500e-01,1.229294139193370938e-04,-3.269031941890716553e-01,-2.789339303970336914e+00,2.538190364837646484e+00,5.000000000000000000e-01,2.077590674161911011e-02,0.000000000000000000e+00
2.839093208312988281e-01,9.508272171020507812e+00,2.378565521240234375e+02,2.378565521240234375e+02,-6.567226350307464600e-02,-3.215759754180908203e+00,1.909109503030776978e-01,5.684007644653320312e+00,-3.215040564537048340e-01,4.233608251524856314e-06,-3.572065234184265137e-01,3.338546752929687500e-01,1.229294139193370938e-04,-3.269031941890716553e-01,-2.789339303970336914e+00,2.538190364837646484e+00,5.000000000000000000e-01,2.077590674161911011e-02,0.000000000000000000e+00
3.569011688232421875e-01,9.940669059753417969e+00,2.378337097167968750e+02,2.378337097167968750e+02,-4.680728539824485779e-02,-3.083497047424316406e+00,2.065374851226806641e-01,5.836428165435791016e+00,-3.154332339763641357e-01,1.127074756368529052e-05,2.088185548782348633e+00,8.317124098539352417e-02,9.640993812354281545e-05,-1.934389472007751465e-01,9.512666463851928711e-01,1.620672464370727539e+00,5.000000000000000000e-01,1.368628349155187607e-02,0.000000000000000000e+00
3.569011688232421875e-01,9.940669059753417969e+00,2.378337097167968750e+02,2.378337097167968750e+02,-4.680728539824485779e-02,-3.083497047424316406e+00,2.065374851226806641e-01,5.836428165435791016e+00,-3.154332339763641357e-01,1.127074756368529052e-05,2.088185548782348633e+00,8.317124098539352417e-02,9.640993812354281545e-05,-1.934389472007751465e-01,9.512666463851928711e-01,1.620672464370727539e+00,5.000000000000000000e-01,1.368628349155187607e-02,0.000000000000000000e+00
3.569011688232421875e-01,9.940669059753417969e+00,2.378337097167968750e+02,2.378337097167968750e+02,-4.680728539824485779e-02,-3.083497047424316406e+00,2.065374851226806641e-01,5.836428165435791016e+00,-3.154332339763641357e-01,1.127074756368529052e-05,2.088185548782348633e+00,8.317124098539352417e-02,9.640993812354281545e-05,-1.934389472007751465e-01,9.512666463851928711e-01,1.620672464370727539e+00,5.000000000000000000e-01,1.368628349155187607e-02,0.000000000000000000e+00
3.569011688232421875e-01,9.940669059753417969e+00,2.378337097167968750e+02,2.378337097167968750e+02,-4.680728539824485779e-02,-3.083497047424316406e+00,2.065374851226806641e-01,5.836428165435791016e+00,-3.154332339763641357e-01,1.127074756368529052e-05,2.088185548782348633e+00,8.317124098539352417e-02,9.640993812354281545e-05,-1.934389472007751465e-01,9.512666463851928711e-01,1.620672464370727539e+00,5.000000000000000000e-01,1.368628349155187607e-02,0.000000000000000000e+00
4.765405654907226562e-01,1.035504722595214844e+01,2.378123626708984375e+02,2.378123626708984375e+02,4.838505759835243225e-02,-2.997406721115112305e+00,2.178412228822708130e-01,5.562721252441406250e+00,-2.917615175247192383e-01,7.504321274609537795e-06,-2.287765741348266602e+00,1.978588849306106567e-01,-3.148148971376940608e-05,-2.389624863862991333e-01,-2.674708843231201172e+00,1.129107952117919922e+00,5.000000000000000000e-01,9.191998280584812164e-03,0.000000000000000000e+00
4.765405654907226562e-01,1.035504722595214844e+01,2.378123626708984375e+02,2.378123626708984375e+02,4.838505759835243225e-02,-2.997406721115112305e+00,2.178412228822708130e-01,5.562721252441406250e+00,-2.917615175247192383e-01,7.504321274609537795e-06,-2.287765741348266602e+00,1.978588849306106567e-01,-3.148148971376940608e-05,-2.389624863862991333e-01,-2.674708843231201172e+00,1.129107952117919922e+00,5.000000000000000000e-01,9.191998280584812164e-03,0.000000000000000000e+00
4.765405654907226562e-01,1.035504722595214844e+01,2.378123626708984375e+02,2.378123626708984375e+02,4.838505759835243225e-02,-2.997406721115112305e+00,2.178412228822708130e-01,5.562721252441406250e+00,-2.917615175247192383e-01,7.504321274609537795e-06,-2.287765741348266602e+00,1.978588849306106567e-01,-3.148148971376940608e-05,-2.389624863862991333e-01,-2.674708843231201172e+00,1.129107952117919922e+00,5.000000000000000000e-01,9.191998280584812164e-03,0.000000000000000000e+00
4.765405654907226562e-01,1.035504722595214844e+01,2.378123626708984375e+02,2.378123626708984375e+02,4.838505759835243225e-02,-2.997406721115112305e+00,2.178412228822708130e-01,5.562721252441406250e+00,-2.917615175247192383e-01,7.504321274609537795e-06,-2.287765741348266602e+00,1.978588849306106567e-01,-3.148148971376940608e-05,-2.389624863862991333e-01,-2.674708843231201172e+00,1.129107952117919922e+00,5.000000000000000000e-01,9.191998280584812164e-03,0.000000000000000000e+00
4.765405654907226562e-01,1.035504722595214844e+01,2.378123626708984375e+02,2.378123626708984375e+02,4.838505759835243225e-02,-2.997406721115112305e+00,2.178412228822708130e-01,5.562721252441406250e+00,-2.917615175247192383e-01,7.504321274609537795e-06,-2.287765741348266602e+00,1.978588849306106567e-01,-3.148148971376940608e-05,-2.389624863862991333e-01,-2.674708843231201172e+00,1.129107952117919922e+00,5.000000000000000000e-01,9.191998280584812164e-03,0.000000000000000000e+00
4.765405654907226562e-01,1.035504722595214844e+01,2.378123626708984375e+02,2.378123626708984375e+02,4.838505759835243225e-02,-2.997406721115112305e+00,2.178412228822708130e-01,5.562721252441406250e+00,-2.917615175247192383e-01,7.504321274609537795e-06,-2.287765741348266602e+00,1.978588849306106567e-01,-3.148148971376940608e-05,-2.389624863862991333e-01,-2.674708843231201172e+00,1.129107952117919922e+00,5.000000000000000000e-01,9.191998280584812164e-03,0.000000000000000000e+00
4.765405654907226562e-01,1.035504722595214844e+01,2.378123626708984375e+02,2.378123626708984375e+02,4.838505759835243225e-02,-2.997406721115112305e+00,2.178412228822708130e-01,5.562721252441406250e+00,-2.917615175247192383e-01,7.504321274609537795e-06,-2.287765741348266602e+00,1.978588849306106567e-01,-3.148148971376940608e-05,-2.389624863862991333e-01,-2.674708843231201172e+00,1.129107952117919922e+00,5.000000000000000000e-01,9.191998280584812164e-03,0.000000000000000000e+00
6.200885772705078125e-01,1.091406917572021484e+01,2.377840423583984375e+02,2.377840423583984375e+02,1.400052160024642944e-01,-2.922180175781250000e+00,2.087536454200744629e-01,5.406105995178222656e+00,-2.771783173084259033e-01,-1.697257403066032566e-06,-1.091030478477478027e+00,1.015911027789115906e-01,-6.410105561371892691e-05,3.639591485261917114e-02,-3.308481216430664062e+00,8.167307376861572266e-01,5.000000000000000000e-01,6.263510324060916901e-03,0.000000000000000000e+00
6.200885772705078125e-01,1.091406917572021484e+01,2.377840423583984375e+02,2.377840423583984375e+02,1.400052160024642944e-01,-2.922180175781250000e+00,2.087536454200744629e-01,5.406105995178222656e+00,-2.771783173084259033e-01,-1.697257403066032566e-06,-1.091030478477478027e+00,1.015911027789115906e-01,-6.410105561371892691e-05,3.639591485261917114e-02,-3.308481216430664062e+00,8.167307376861572266e-01,5.000000000000000000e-01,6.263510324060916901e-03,0.000000000000000000e+00
6.200885772705078125e-01,1.091406917572021484e+01,2.377840423583984375e+02,2.377840423583984375e+02,1.400052160024642944e-01,-2.922180175781250000e+00,2.087536454200744629e-01,5.406105995178222656e+00,-2.771783173084259033e-01,-1.697257403066032566e-06,-1.091030478477478027e+00,1.015911027789115906e-01,-6.410105561371892691e-05,3.639591485261917114e-02,-3.308481216430664062e+00,8.167307376861572266e-01,5.000000000000000000e-01,6.263510324060916901e-03,0.000000000000000000e+00
6.200885772705078125e-01,1.091406917572021484e+01,2.377840423583984375e+02,2.377840423583984375e+02,1.400052160024642944e-01,-2.922180175781250000e+00,2.087536454200744629e-01,5.406105995178222656e+00,-2.771783173084259033e-01,-1.697257403066032566e-06,-1.091030478477478027e+00,1.015911027789115906e-01,-6.410105561371892691e-05,3.639591485261917114e-02,-3.308481216430664062e+00,8.167307376861572266e-01,5.000000000000000000e-01,6.263510324060916901e-03,0.000000000000000000e+00
6.200885772705078125e-01,1.091406917572021484e+01,2.377840423583984375e+02,2.377840423583984375e+02,1.400052160024642944e-01,-2.922180175781250000e+00,2.087536454200744629e-01,5.406105995178222656e+00,-2.771783173084259033e-01,-1.697257403066032566e-06,-1.091030478477478027e+00,1.015911027789115906e-01,-6.410105561371892691e-05,3.639591485261917114e-02,-3.308481216430664062e+00,8.167307376861572266e-01,5.000000000000000000e-01,6.263510324060916901e-03,0.000000000000000000e+00
6.200885772705078125e-01,1.091406917572021484e+01,2.377840423583984375e+02,2.377840423583984375e+02,1.400052160024642944e-01,-2.922180175781250000e+00,2.087536454200744629e-01,5.406105995178222656e+00,-2.771783173084259033e-01,-1.697257403066032566e-06,-1.091030478477478027e+00,1.015911027789115906e-01,-6.410105561371892691e-05,3.639591485261917114e-02,-3.308481216430664062e+00,8.167307376861572266e-01,5.000000000000000000e-01,6.263510324060916901e-03,0.000000000000000000e+00
7.946169376373291016e-01,1.146844482421875000e+01,2.377589263916015625e+02,2.377589263916015625e+02,1.116326078772544861e-01,-2.678344488143920898e+00,2.115995287895202637e-01,5.476899147033691406e+00,-2.575046420097351074e-01,-5.492248419614043087e-06,4.056254923343658447e-01,1.127248033881187439e-01,-2.174426481360569596e-05,-1.971192955970764160e-01,-8.888573050498962402e-01,2.811220645904541016e+00,1.000000000000000000e+00,2.156254462897777557e-02,0.000000000000000000e+00
7.946169376373291016e-01,1.146844482421875000e+01,2.377589263916015625e+02,2.377589263916015625e+02,1.116326078772544861e-01,-2.678344488143920898e+00,2.115995287895202637e-01,5.476899147033691406e+00,-2.575046420097351074e-01,-5.492248419614043087e-06,4.056254923343658447e-01,1.127248033881187439e-01,-2.174426481360569596e-05,-1.971192955970764160e-01,-8.888573050498962402e-01,2.811220645904541016e+00,1.000000000000000000e+00,2.156254462897777557e-02,0.000000000000000000e+00
7.946169376373291016e-01,1.146844482421875000e+01,2.377589263916015625e+02,2.377589263916015625e+02,1.116326078772544861e-01,-2.678344488143920898e+00,2.115995287895202637e-01,5.476899147033691406e+00,-2.575046420097351074e-01,-5.492248419614043087e-06,4.056254923343658447e-01,1.127248033881187439e-01,-2.174426481360569596e-05,-1.971192955970764160e-01,-8.888573050498962402e-01,2.811220645904541016e+00,1.000000000000000000e+00,2.156254462897777557e-02,0.000000000000000000e+00
8.783230781555175781e-01,1.205001068115234375e+01,2.377342987060546875e+02,2.377342987060546875e+02,-1.879531294107437134e-01,-2.470306396484375000e+00,2.308669239282608032e-01,5.892816066741943359e+00,-2.561835944652557373e-01,-2.050057992164511234e-05,4.968774318695068359e+00,1.578196696937084198e-02,-1.792978582670912147e-04,-1.776566803455352783e-01,1.268959879875183105e+00,2.118287324905395508e+00,1.000000000000000000e+00,1.418998278677463531e-02,0.000000000000000000e+00
8.783230781555175781e-01,1.205001068115234375e+01,2.377342987060546875e+02,2.377342987060546875e+02,-1.879531294107437134e-01,-2.470306396484375000e+00,2.308669239282608032e-01,5.892816066741943359e+00,-2.561835944652557373e-01,-2.050057992164511234e-05,4.968774318695068359e+00,1.578196696937084198e-02,-1.792978582670912147e-04,-1.776566803455352783e-01,1.268959879875183105e+00,2.118287324905395508e+00,1.000000000000000000e+00,1.418998278677463531e-02,0.000000000000000000e+00
8.783230781555175781e-01,1.205001068115234375e+01,2.377342987060546875e+02,2.377342987060546875e+02,-1.879531294107437134e-01,-2.470306396484375000e+00,2.308669239282608032e-01,5.892816066741943359e+00,-2.561835944652557373e-01,-2.050057992164511234e-05,4.968774318695068359e+00,1.578196696937084198e-02,-1.792978582670912147e-04,-1.776566803455352783e-01,1.268959879875183105e+00,2.118287324905395508e+00,1.000000000000000000e+00,1.418998278677463531e-02,0.000000000000000000e+00
9.483780860900878906e-01,1.256975269317626953e+01,2.377130432128906250e+02,2.377130432128906250e+02,-4.443652629852294922e-01,-2.368470191955566406e+00,2.419664263725280762e-01,6.306880950927734375e+00,-2.620995342731475830e-01,-5.345552199287340045e-05,5.910567760467529297e+00,-8.444706350564956665e-02,-4.704152524936944246e-04,-7.640980184078216553e-03,1.418476700782775879e+00,1.053910851478576660e+00,5.000000000000000000e-01,6.603686138987541199e-03,0.000000000000000000e+00
9.483780860900878906e-01,1.256975269317626953e+01,2.377130432128906250e+02,2.377130432128906250e+02,-4.443652629852294922e-01,-2.368470191955566406e+00,2.419664263725280762e-01,6.306880950927734375e+00,-2.620995342731475830e-01,-5.345552199287340045e-05,5.910567760467529297e+00,-8.444706350564956665e-02,-4.704152524936944246e-04,-7.640980184078216553e-03,1.418476700782775879e+00,1.053910851478576660e+00,5.000000000000000000e-01,6.603686138987541199e-03,0.000000000000000000e+00
9.483780860900878906e-01,1.256975269317626953e+01,2.377130432128906250e+02,2.377130432128906250e+02,-4.443652629852294922e-01,-2.368470191955566406e+00,2.419664263725280762e-01,6.306880950927734375e+00,-2.620995342731475830e-01,-5.345552199287340045e-05,5.910567760467529297e+00,-8.444706350564956665e-02,-4.704152524936944246e-04,-7.640980184078216553e-03,1.418476700782775879e+00,1.053910851478576660e+00,5.000000000000000000e-01,6.603686138987541199e-03,0.000000000000000000e+00
9.483780860900878906e-01,1.256975269317626953e+01,2.377130432128906250e+02,2.377130432128906250e+02,-4.443652629852294922e-01,-2.368470191955566406e+00,2.419664263725280762e-01,6.306880950927734375e+00,-2.620995342731475830e-01,-5.345552199287340045e-05,5.910567760467529297e+00,-8.444706350564956665e-02,-4.704152524936944246e-04,-7.640980184078216553e-03,1.418476700782775879e+00,1.053910851478576660e+00,5.000000000000000000e-01,6.603686138987541199e-03,0.000000000000000000e+00
9.483780860900878906e-01,1.302248287200927734e+01,2.376963043212890625e+02,2.376963043212890625e+02,-5.388131141662597656e-01,-2.203094244003295898e+00,2.560071051120758057e-01,6.545880794525146484e+00,-2.521969974040985107e-01,-2.210307320638094097e-05,3.033030986785888672e+00,1.256682872772216797e-01,3.978787281084805727e-04,-2.177272439002990723e-01,1.179429054260253906e+00,2.585562229156494141e+00,5.000000000000000000e-01,1.908721216022968292e-02,0.000000000000000000e+00
1.027177095413208008e+00,1.302248287200927734e+01,2.376963043212890625e+02,2.376963043212890625e+02,-5.388131141662597656e-01,-2.203094244003295898e+00,2.560071051120758057e-01,6.545880794525146484e+00,-2.521969974040985107e-01,-2.210307320638094097e-05,3.033030986785888672e+00,1.256682872772216797e-01,3.978787281084805727e-04,-2.177272439002990723e-01,1.179429054260253906e+00,2.585562229156494141e+00,5.000000000000000000e-01,1.908721216022968292e-02,0.000000000000000000e+00
1.027177095413208008e+00,1.302248287200927734e+01,2.376963043212890625e+02,2.376963043212890625e+02,-5.388131141662597656e-01,-2.203094244003295898e+00,2.560071051120758057e-01,6.545880794525146484e+00,-2.521969974040985107e-01,-2.210307320638094097e-05,3.033030986785888672e+00,1.256682872772216797e-01,3.978787281084805727e-04,-2.177272439002990723e-01,1.179429054260253906e+00,2.585562229156494141e+00,5.000000000000000000e-01,1.908721216022968292e-02,0.000000000000000000e+00
1.095043420791625977e+00,1.353289127349853516e+01,2.376785736083984375e+02,2.376785736083984375e+02,-4.337784647941589355e-01,-2.043732404708862305e+00,2.755404412746429443e-01,6.375498294830322266e+00,-2.291749119758605957e-01,4.554984116111882031e-05,-2.510560274124145508e+00,3.392269313335418701e-01,9.968554368242621422e-04,-3.590497374534606934e-01,-3.350023984909057617e+00,1.959018349647521973e+00,5.000000000000000000e-01,1.421397086232900620e-02,0.000000000000000000e+00
1.095043420791625977e+00,1.353289127349853516e+01,2.376785736083984375e+02,2.376785736083984375e+02,-4.337784647941589355e-01,-2.043732404708862305e+00,2.755404412746429443e-01,6.375498294830322266e+00,-2.291749119758605957e-01,4.554984116111882031e-05,-2.510560274124145508e+00,3.392269313335418701e-01,9.968554368242621422e-04,-3.590497374534606934e-01,-3.350023984909057617e+00,1.959018349647521973e+00,5.000000000000000000e-01,1.421397086232900620e-02,0.000000000000000000e+00
1.095043420791625977e+00,1.353289127349853516e+01,2.376785736083984375e+02,2.376785736083984375e+02,-4.337784647941589355e-01,-2.043732404708862305e+00,2.755404412746429443e-01,6.375498294830322266e+00,-2.291749119758605957e-01,4.554984116111882031e-05,-2.510560274124145508e+00,3.392269313335418701e-01,9.968554368242621422e-04,-3.590497374534606934e-01,-3.350023984909057617e+00,1.959018349647521973e+00,5.000000000000000000e-01,1.421397086232900620e-02,0.000000000000000000e+00
1.095043420791625977e+00,1.353289127349853516e+01,2.376785736083984375e+02,2.376785736083984375e+02,-4.337784647941589355e-01,-2.043732404708862305e+00,2.755404412746429443e-01,6.375498294830322266e+00,-2.291749119758605957e-01,4.554984116111882031e-05,-2.510560274124145508e+00,3.392269313335418701e-01,9.968554368242621422e-04,-3.590497374534606934e-01,-3.350023984909057617e+00,1.959018349647521973e+00,5.000000000000000000e-01,1.421397086232900620e-02,0.000000000000000000e+00
1.168572425842285156e+00,1.396897315979003906e+01,2.376639404296875000e+02,2.376639404296875000e+02,-3.103364706039428711e-01,-1.956390380859375000e+00,2.841126024723052979e-01,6.408680915832519531e+00,-2.200710773468017578e-01,8.498944953316822648e-05,4.512861371040344238e-01,1.238128319382667542e-01,5.363816162571310997e-04,-1.113245114684104919e-01,-1.400822043418884277e+00,1.136703848838806152e+00,5.000000000000000000e-01,8.850443176925182343e-03,0.000000000000000000e+00
1.168572425842285156e+00,1.396897315979003906e+01,2.376639404296875000e+02,2.376639404296875000e+02,-3.103364706039428711e-01,-1.956390380859375000e+00,2.841126024723052979e-01,6.408680915832519531e+00,-2.200710773468017578e-01,8.498944953316822648e-05,4.512861371040344238e-01,1.238128319382667542e-01,5.363816162571310997e-04,-1.113245114684104919e-01,-1.400822043418884277e+00,1.136703848838806152e+00,5.000000000000000000e-01,8.850443176925182343e-03,0.000000000000000000e+00
1.168572425842285156e+00,1.396897315979003906e+01,2.376639404296875000e+02,2.376639404296875000e+02,-3.103364706039428711e-01,-1.956390380859375000e+00,2.841126024723052979e-01,6.408680915832519531e+00,-2.200710773468017578e-01,8.498944953316822648e-05,4.512861371040344238e-01,1.238128319382667542e-01,5.363816162571310997e-04,-1.113245114684104919e-01,-1.400822043418884277e+00,1.136703848838806152e+00,5.000000000000000000e-01,8.850443176925182343e-03,0.000000000000000000e+00
1.168572425842285156e+00,1.396897315979003906e+01,2.376639404296875000e+02,2.376639404296875000e+02,-3.103364706039428711e-01,-1.956390380859375000e+00,2.841126024723052979e-01,6.408680915832519531e+00,-2.200710773468017578e-01,8.498944953316822648e-05,4.512861371040344238e-01,1.238128319382667542e-01,5.363816162571310997e-04,-1.113245114684104919e-01,-1.400822043418884277e+00,1.136703848838806152e+00,5.000000000000000000e-01,8.850443176925182343e-03,0.000000000000000000e+00
1.168572425842285156e+00,1.443146228790283203e+01,2.376488494873046875e+02,2.376488494873046875e+02,-1.282299607992172241e-01,-1.896880626678466797e+00,2.758029401302337646e-01,6.172821521759033203e+00,-2.057740688323974609e-01,6.790116458432748914e-05,-3.142761707305908203e+00,1.905037164688110352e-01,-2.276967134093865752e-04,1.087752506136894226e-01,-3.443771362304687500e+00,7.607859969139099121e-01,5.000000000000000000e-01,5.839915946125984192e-03,0.000000000000000000e+00
1.243620872497558594e+00,1.443146228790283203e+01,2.376488494873046875e+02,2.376488494873046875e+02,-1.282299607992172241e-01,-1.896880626678466797e+00,2.758029401302337646e-01,6.172821521759033203e+00,-2.057740688323974609e-01,6.790116458432748914e-05,-3.142761707305908203e+00,1.905037164688110352e-01,-2.276967134093865752e-04,1.087752506136894226e-01,-3.443771362304687500e+00,7.607859969139099121e-01,5.000000000000000000e-01,5.839915946125984192e-03,0.000000000000000000e+00
1.243620872497558594e+00,1.443146228790283203e+01,2.376488494873046875e+02,2.376488494873046875e+02,-1.282299607992172241e-01,-1.896880626678466797e+00,2.758029401302337646e-01,6.172821521759033203e+00,-2.057740688323974609e-01,6.790116458432748914e-05,-3.142761707305908203e+00,1.905037164688110352e-01,-2.276967134093865752e-04,1.087752506136894226e-01,-3.443771362304687500e+00,7.607859969139099121e-01,5.000000000000000000e-01,5.839915946125984192e-03,0.000000000000000000e+00
1.243620872497558594e+00,1.489579677581787109e+01,2.376355438232421875e+02,2.376355438232421875e+02,-3.756603924557566643e-03,-1.729064941406250000e+00,2.692074477672576904e-01,6.195456027984619141e+00,-1.883484572172164917e-01,2.366664375585969537e-05,3.308070600032806396e-01,2.546781897544860840e-01,-6.464948528446257114e-04,1.914988085627555847e-02,-2.257035821676254272e-01,2.443751335144042969e+00,5.000000000000000000e-01,2.047219686210155487e-02,0.000000000000000000e+00
1.312042951583862305e+00,1.489579677581787109e+01,2.376355438232421875e+02,2.376355438232421875e+02,-3.756603924557566643e-03,-1.729064941406250000e+00,2.692074477672576904e-01,6.195456027984619141e+00,-1.883484572172164917e-01,2.366664375585969537e-05,3.308070600032806396e-01,2.546781897544860840e-01,-6.464948528446257114e-04,1.914988085627555847e-02,-2.257035821676254272e-01,2.443751335144042969e+00,5.000000000000000000e-01,2.047219686210155487e-02,0.000000000000000000e+00
1.312042951583862305e+00,1.489579677581787109e+01,2.376355438232421875e+02,2.376355438232421875e+02,-3.756603924557566643e-03,-1.729064941406250000e+00,2.692074477672576904e-01,6.195456027984619141e+00,-1.883484572172164917e-01,2.366664375585969537e-05,3.308070600032806396e-01,2.546781897544860840e-01,-6.464948528446257114e-04,1.914988085627555847e-02,-2.257035821676254272e-01,2.443751335144042969e+00,5.000000000000000000e-01,2.047219686210155487e-02,0.000000000000000000e+00
1.383129358291625977e+00,1.530931282043457031e+01,2.376245880126953125e+02,2.376245880126953125e+02,1.145490929484367371e-01,-1.591583490371704102e+00,2.689133882522583008e-01,5.945773601531982422e+00,-1.669734418392181396e-01,-1.503738531027920544e-05,-3.512379169464111328e+00,3.006905913352966309e-01,-5.444645066745579243e-04,-9.210299700498580933e-02,-2.413664102554321289e+00,1.926974058151245117e+00,5.000000000000000000e-01,1.578212529420852661e-02,0.000000000000000000e+00
1.383129358291625977e+00,1.530931282043457031e+01,2.376245880126953125e+02,2.376245880126953125e+02,1.145490929484367371e-01,-1.591583490371704102e+00,2.689133882522583008e-01,5.945773601531982422e+00,-1.669734418392181396e-01,-1.503738531027920544e-05,-3.512379169464111328e+00,3.006905913352966309e-01,-5.444645066745579243e-04,-9.210299700498580933e-02,-2.413664102554321289e+00,1.926974058151245117e+00,5.000000000000000000e-01,1.578212529420852661e-02,0.000000000000000000e+00
1.383129358291625977e+00,1.530931282043457031e+01,2.376245880126953125e+02,2.376245880126953125e+02,1.145490929484367371e-01,-1.591583490371704102e+00,2.689133882522583008e-01,5.945773601531982422e+00,-1.669734418392181396e-01,-1.503738531027920544e-05,-3.512379169464111328e+00,3.006905913352966309e-01,-5.444645066745579243e-04,-9.210299700498580933e-02,-2.413664102554321289e+00,1.926974058151245117e+00,5.000000000000000000e-01,1.578212529420852661e-02,0.000000000000000000e+00
1.450951814651489258e+00,1.573270130157470703e+01,2.376139984130859375e+02,2.376139984130859375e+02,1.755768358707427979e-01,-1.489502072334289551e+00,2.667587995529174805e-01,5.968926429748535156e+00,-1.565595269203186035e-01,-4.304273898014798760e-05,3.413740694522857666e-01,1.535467058420181274e-01,-4.129215376451611519e-04,7.237496227025985718e-02,4.136042296886444092e-01,1.334235668182373047e+00,5.000000000000000000e-01,1.139951962977647781e-02,0.000000000000000000e+00
1.450951814651489258e+00,1.573270130157470703e+01,2.376139984130859375e+02,2.376139984130859375e+02,1.755768358707427979e-01,-1.489502072334289551e+00,2.667587995529174805e-01,5.968926429748535156e+00,-1.565595269203186035e-01,-4.304273898014798760e-05,3.413740694522857666e-01,1.535467058420181274e-01,-4.129215376451611519e-04,7.237496227025985718e-02,4.136042296886444092e-01,1.334235668182373047e+00,5.000000000000000000e-01,1.139951962977647781e-02,0.000000000000000000e+00
1.450951814651489258e+00,1.573270130157470703e+01,2.376139984130859375e+02,2.376139984130859375e+02,1.755768358707427979e-01,-1.489502072334289551e+00,2.667587995529174805e-01,5.968926429748535156e+00,-1.565595269203186035e-01,-4.304273898014798760e-05,3.413740694522857666e-01,1.535467058420181274e-01,-4.129215376451611519e-04,7.237496227025985718e-02,4.136042296886444092e-01,1.334235668182373047e+00,5.000000000000000000e-01,1.139951962977647781e-02,0.000000000000000000e+00
1.527701377868652344e+00,1.612803459167480469e+01,2.376045074462890625e+02,2.376045074462890625e+02,2.424443811178207397e-01,-1.419738769531250000e+00,2.554043233394622803e-01,5.735266208648681641e+00,-1.436886042356491089e-01,-4.451147469808347523e-05,-3.044450283050537109e+00,1.677002757787704468e-01,-1.913673077069688588e-05,1.800142824649810791e-01,-1.806163549423217773e+00,9.790197610855102539e-01,5.000000000000000000e-01,8.086916059255599976e-03,0.000000000000000000e+00
1.527701377868652344e+00,1.612803459167480469e+01,2.376045074462890625e+02,2.376045074462890625e+02,2.424443811178207397e-01,-1.419738769531250000e+00,2.554043233394622803e-01,5.735266208648681641e+00,-1.436886042356491089e-01,-4.451147469808347523e-05,-3.044450283050537109e+00,1.677002757787704468e-01,-1.913673077069688588e-05,1.800142824649810791e-01,-1.806163549423217773e+00,9.790197610855102539e-01,5.000000000000000000e-01,8.086916059255599976e-03,0.000000000000000000e+00
1.527701377868652344e+00,1.612803459167480469e+01,2.376045074462890625e+02,2.376045074462890625e+02,2.424443811178207397e-01,-1.419738769531250000e+00,2.554043233394622803e-01,5.735266208648681641e+00,-1.436886042356491089e-01,-4.451147469808347523e-05,-3.044450283050537109e+00,1.677002757787704468e-01,-1.913673077069688588e-05,1.800142824649810791e-01,-1.806163549423217773e+00,9.790197610855102539e-01,5.000000000000000000e-01,8.086916059255599976e-03,0.000000000000000000e+00
1.600134611129760742e+00,1.656987190246582031e+01,2.375941925048828125e+02,2.375941925048828125e+02,2.532497346401214600e-01,-1.365814208984375000e+00,2.287419885396957397e-01,5.806124687194824219e+00,-1.404868066310882568e-01,-4.451068525668233633e-05,9.782592058181762695e-01,4.420343413949012756e-02,1.089888357341806113e-08,4.483307003974914551e-01,1.659541010856628418e+00,6.376126408576965332e-01,5.000000000000000000e-01,5.858838558197021484e-03,0.000000000000000000e+00
1.600134611129760742e+00,1.656987190246582031e+01,2.375941925048828125e+02,2.375941925048828125e+02,2.532497346401214600e-01,-1.365814208984375000e+00,2.287419885396957397e-01,5.806124687194824219e+00,-1.404868066310882568e-01,-4.451068525668233633e-05,9.782592058181762695e-01,4.420343413949012756e-02,1.089888357341806113e-08,4.483307003974914551e-01,1.659541010856628418e+00,6.376126408576965332e-01,5.000000000000000000e-01,5.858838558197021484e-03,0.000000000000000000e+00
1.600134611129760742e+00,1.656987190246582031e+01,2.375941925048828125e+02,2.375941925048828125e+02,2.532497346401214600e-01,-1.365814208984375000e+00,2.287419885396957397e-01,5.806124687194824219e+00,-1.404868066310882568e-01,-4.451068525668233633e-05,9.782592058181762695e-01,4.420343413949012756e-02,1.089888357341806113e-08,4.483307003974914551e-01,1.659541010856628418e+00,6.376126408576965332e-01,5.000000000000000000e-01,5.858838558197021484e-03,0.000000000000000000e+00
1.600134611129760742e+00,1.656987190246582031e+01,2.375941925048828125e+02,2.375941925048828125e+02,2.532497346401214600e-01,-1.365814208984375000e+00,2.287419885396957397e-01,5.806124687194824219e+00,-1.404868066310882568e-01,-4.451068525668233633e-05,9.782592058181762695e-01,4.420343413949012756e-02,1.089888357341806113e-08,4.483307003974914551e-01,1.659541010856628418e+00,6.376126408576965332e-01,5.000000000000000000e-01,5.858838558197021484e-03,0.000000000000000000e+00
1.600134611129760742e+00,1.656987190246582031e+01,2.375941925048828125e+02,2.375941925048828125e+02,2.532497346401214600e-01,-1.365814208984375000e+00,2.287419885396957397e-01,5.806124687194824219e+00,-1.404868066310882568e-01,-4.451068525668233633e-05,9.782592058181762695e-01,4.420343413949012756e-02,1.089888357341806113e-08,4.483307003974914551e-01,1.659541010856628418e+00,6.376126408576965332e-01,5.000000000000000000e-01,5.858838558197021484e-03,0.000000000000000000e+00
1.600134611129760742e+00,1.697789382934570312e+01,2.375863647460937500e+02,2.375863647460937500e+02,2.933087944984436035e-01,-1.207214355468750000e+00,2.149272263050079346e-01,5.523065567016601562e+00,-1.174976304173469543e-01,-2.593618228274863213e-05,-2.453301429748535156e+00,1.992494612932205200e-01,1.609870523680001497e-04,5.357773602008819580e-02,-1.839794993400573730e+00,2.464184761047363281e+00,5.000000000000000000e-01,2.140308357775211334e-02,0.000000000000000000e+00
1.715513467788696289e+00,1.697789382934570312e+01,2.375863647460937500e+02,2.375863647460937500e+02,2.933087944984436035e-01,-1.207214355468750000e+00,2.149272263050079346e-01,5.523065567016601562e+00,-1.174976304173469543e-01,-2.593618228274863213e-05,-2.453301429748535156e+00,1.992494612932205200e-01,1.609870523680001497e-04,5.357773602008819580e-02,-1.839794993400573730e+00,2.464184761047363281e+00,5.000000000000000000e-01,2.140308357775211334e-02,0.000000000000000000e+00
1.715513467788696289e+00,1.697789382934570312e+01,2.375863647460937500e+02,2.375863647460937500e+02,2.933087944984436035e-01,-1.207214355468750000e+00,2.149272263050079346e-01,5.523065567016601562e+00,-1.174976304173469543e-01,-2.593618228274863213e-05,-2.453301429748535156e+00,1.992494612932205200e-01,1.609870523680001497e-04,5.357773602008819580e-02,-1.839794993400573730e+00,2.464184761047363281e+00,5.000000000000000000e-01,2.140308357775211334e-02,0.000000000000000000e+00
1.715513467788696289e+00,1.753812408447265625e+01,2.375771942138671875e+02,2.375771942138671875e+02,2.261270582675933838e-01,-9.971312284469604492e-01,2.155284881591796875e-01,5.539984703063964844e+00,-9.832862019538879395e-02,-5.263405000732745975e-06,1.733488738536834717e-01,1.964004784822463989e-01,2.118076663464307785e-04,-1.023887917399406433e-01,-3.490418493747711182e-01,2.279065132141113281e+00,1.000000000000000000e+00,1.706380769610404968e-02,0.000000000000000000e+00
1.813115119934082031e+00,1.753812408447265625e+01,2.375771942138671875e+02,2.375771942138671875e+02,2.261270582675933838e-01,-9.971312284469604492e-01,2.155284881591796875e-01,5.539984703063964844e+00,-9.832862019538879395e-02,-5.263405000732745975e-06,1.733488738536834717e-01,1.964004784822463989e-01,2.118076663464307785e-04,-1.023887917399406433e-01,-3.490418493747711182e-01,2.279065132141113281e+00,1.000000000000000000e+00,1.706380769610404968e-02,0.000000000000000000e+00
1.813115119934082031e+00,1.753812408447265625e+01,2.375771942138671875e+02,2.375771942138671875e+02,2.261270582675933838e-01,-9.971312284469604492e-01,2.155284881591796875e-01,5.539984703063964844e+00,-9.832862019538879395e-02,-5.263405000732745975e-06,1.733488738536834717e-01,1.964004784822463989e-01,2.118076663464307785e-04,-1.023887917399406433e-01,-3.490418493747711182e-01,2.279065132141113281e+00,1.000000000000000000e+00,1.706380769610404968e-02,0.000000000000000000e+00
1.813115119934082031e+00,1.753812408447265625e+01,2.375771942138671875e+02,2.375771942138671875e+02,2.261270582675933838e-01,-9.971312284469604492e-01,2.155284881591796875e-01,5.539984703063964844e+00,-9.832862019538879395e-02,-5.263405000732745975e-06,1.733488738536834717e-01,1.964004784822463989e-01,2.118076663464307785e-04,-1.023887917399406433e-01,-3.490418493747711182e-01,2.279065132141113281e+00,1.000000000000000000e+00,1.706380769610404968e-02,0.000000000000000000e+00
1.896134853363037109e+00,1.811096954345703125e+01,2.375690612792968750e+02,2.375690612792968750e+02,-1.144398152828216553e-01,-8.479614257812500000e-01,2.217798382043838501e-01,5.952120304107666016e+00,-8.999678492546081543e-02,3.051261273867567070e-06,4.964308738708496094e+00,1.003597006201744080e-01,1.001528871711343527e-04,-2.763727121055126190e-02,1.889043211936950684e+00,1.519010066986083984e+00,1.000000000000000000e+00,1.011747494339942932e-02,0.000000000000000000e+00
1.896134853363037109e+00,1.811096954345703125e+01,2.375690612792968750e+02,2.375690612792968750e+02,-1.144398152828216553e-01,-8.479614257812500000e-01,2.217798382043838501e-01,5.952120304107666016e+00,-8.999678492546081543e-02,3.051261273867567070e-06,4.964308738708496094e+00,1.003597006201744080e-01,1.001528871711343527e-04,-2.763727121055126190e-02,1.889043211936950684e+00,1.519010066986083984e+00,1.000000000000000000e+00,1.011747494339942932e-02,0.000000000000000000e+00
1.896134853363037109e+00,1.811096954345703125e+01,2.375690612792968750e+02,2.375690612792968750e+02,-1.144398152828216553e-01,-8.479614257812500000e-01,2.217798382043838501e-01,5.952120304107666016e+00,-8.999678492546081543e-02,3.051261273867567070e-06,4.964308738708496094e+00,1.003597006201744080e-01,1.001528871711343527e-04,-2.763727121055126190e-02,1.889043211936950684e+00,1.519010066986083984e+00,1.000000000000000000e+00,1.011747494339942932e-02,0.000000000000000000e+00
1.896134853363037109e+00,1.811096954345703125e+01,2.375690612792968750e+02,2.375690612792968750e+02,-1.144398152828216553e-01,-8.479614257812500000e-01,2.217798382043838501e-01,5.952120304107666016e+00,-8.999678492546081543e-02,3.051261273867567070e-06,4.964308738708496094e+00,1.003597006201744080e-01,1.001528871711343527e-04,-2.763727121055126190e-02,1.889043211936950684e+00,1.519010066986083984e+00,1.000000000000000000e+00,1.011747494339942932e-02,0.000000000000000000e+00
1.896134853363037109e+00,1.811096954345703125e+01,2.375690612792968750e+02,2.375690612792968750e+02,-1.144398152828216553e-01,-8.479614257812500000e-01,2.217798382043838501e-01,5.952120304107666016e+00,-8.999678492546081543e-02,3.051261273867567070e-06,4.964308738708496094e+00,1.003597006201744080e-01,1.001528871711343527e-04,-2.763727121055126190e-02,1.889043211936950684e+00,1.519010066986083984e+00,1.000000000000000000e+00,1.011747494339942932e-02,0.000000000000000000e+00
1.896134853363037109e+00,1.811096954345703125e+01,2.375690612792968750e+02,2.375690612792968750e+02,-1.144398152828216553e-01,-8.479614257812500000e-01,2.217798382043838501e-01,5.952120304107666016e+00,-8.999678492546081543e-02,3.051261273867567070e-06,4.964308738708496094e+00,1.003597006201744080e-01,1.001528871711343527e-04,-2.763727121055126190e-02,1.889043211936950684e+00,1.519010066986083984e+00,1.000000000000000000e+00,1.011747494339942932e-02,0.000000000000000000e+00
1.896134853363037109e+00,1.811096954345703125e+01,2.375690612792968750e+02,2.375690612792968750e+02,-1.144398152828216553e-01,-8.479614257812500000e-01,2.217798382043838501e-01,5.952120304107666016e+00,-8.999678492546081543e-02,3.051261273867567070e-06,4.964308738708496094e+00,1.003597006201744080e-01,1.001528871711343527e-04,-2.763727121055126190e-02,1.889043211936950684e+00,1.519010066986083984e+00,1.000000000000000000e+00,1.011747494339942932e-02,0.000000000000000000e+00
1.896134853363037109e+00,1.811096954345703125e+01,2.375690612792968750e+02,2.375690612792968750e+02,-1.144398152828216553e-01,-8.479614257812500000e-01,2.217798382043838501e-01,5.952120304107666016e+00,-8.999678492546081543e-02,3.051261273867567070e-06,4.964308738708496094e+00,1.003597006201744080e-01,1.001528871711343527e-04,-2.763727121055126190e-02,1.889043211936950684e+00,1.519010066986083984e+00,1.000000000000000000e+00,1.011747494339942932e-02,0.000000000000000000e+00
2.195794820785522461e+00,1.991543006896972656e+01,2.375500793457031250e+02,2.375500793457031250e+02,-6.413888931274414062e-01,-4.969481527805328369e-01,2.163633406162261963e-01,7.039039134979248047e+00,-6.351451575756072998e-02,5.574365422944538295e-05,8.867663741111755371e-01,2.573665678501129150e-01,1.768335932865738869e-03,-5.916007980704307556e-02,-4.243741333484649658e-01,1.064961910247802734e+00,1.000000000000000000e+00,7.098950911313295364e-03,0.000000000000000000e+00
2.195794820785522461e+00,1.991543006896972656e+01,2.375500793457031250e+02,2.375500793457031250e+02,-6.413888931274414062e-01,-4.969481527805328369e-01,2.163633406162261963e-01,7.039039134979248047e+00,-6.351451575756072998e-02,5.574365422944538295e-05,8.867663741111755371e-01,2.573665678501129150e-01,1.768335932865738869e-03,-5.916007980704307556e-02,-4.243741333484649658e-01,1.064961910247802734e+00,1.000000000000000000e+00,7.098950911313295364e-03,0.000000000000000000e+00
2.195794820785522461e+00,1.991543006896972656e+01,2.375500793457031250e+02,2.375500793457031250e+02,-6.413888931274414062e-01,-4.969481527805328369e-01,2.163633406162261963e-01,7.039039134979248047e+00,-6.351451575756072998e-02,5.574365422944538295e-05,8.867663741111755371e-01,2.573665678501129150e-01,1.768335932865738869e-03,-5.916007980704307556e-02,-4.243741333484649658e-01,1.064961910247802734e+00,1.000000000000000000e+00,7.098950911313295364e-03,0.000000000000000000e+00
2.195794820785522461e+00,1.991543006896972656e+01,2.375500793457031250e+02,2.375500793457031250e+02,-6.413888931274414062e-01,-4.969481527805328369e-01,2.163633406162261963e-01,7.039039134979248047e+00,-6.351451575756072998e-02,5.574365422944538295e-05,8.867663741111755371e-01,2.573665678501129150e-01,1.768335932865738869e-03,-5.916007980704307556e-02,-4.243741333484649658e-01,1.064961910247802734e+00,1.000000000000000000e+00,7.098950911313295364e-03,0.000000000000000000e+00
2.195794820785522461e+00,1.991543006896972656e+01,2.375500793457031250e+02,2.375500793457031250e+02,-6.413888931274414062e-01,-4.969481527805328369e-01,2.163633406162261963e-01,7.039039134979248047e+00,-6.351451575756072998e-02,5.574365422944538295e-05,8.867663741111755371e-01,2.573665678501129150e-01,1.768335932865738869e-03,-5.916007980704307556e-02,-4.243741333484649658e-01,1.064961910247802734e+00,1.000000000000000000e+00,7.098950911313295364e-03,0.000000000000000000e+00
2.195794820785522461e+00,1.991543006896972656e+01,2.375500793457031250e+02,2.375500793457031250e+02,-6.413888931274414062e-01,-4.969481527805328369e-01,2.163633406162261963e-01,7.039039134979248047e+00,-6.351451575756072998e-02,5.574365422944538295e-05,8.867663741111755371e-01,2.573665678501129150e-01,1.768335932865738869e-03,-5.916007980704307556e-02,-4.243741333484649658e-01,1.064961910247802734e+00,1.000000000000000000e+00,7.098950911313295364e-03,0.000000000000000000e+00
2.195794820785522461e+00,1.991543006896972656e+01,2.375500793457031250e+02,2.375500793457031250e+02,-6.413888931274414062e-01,-4.969481527805328369e-01,2.163633406162261963e-01,7.039039134979248047e+00,-6.351451575756072998e-02,5.574365422944538295e-05,8.867663741111755371e-01,2.573665678501129150e-01,1.768335932865738869e-03,-5.916007980704307556e-02,-4.243741333484649658e-01,1.064961910247802734e+00,1.000000000000000000e+00,7.098950911313295364e-03,0.000000000000000000e+00
2.195794820785522461e+00,1.991543006896972656e+01,2.375500793457031250e+02,2.375500793457031250e+02,-6.413888931274414062e-01,-4.969481527805328369e-01,2.163633406162261963e-01,7.039039134979248047e+00,-6.351451575756072998e-02,5.574365422944538295e-05,8.867663741111755371e-01,2.573665678501129150e-01,1.768335932865738869e-03,-5.916007980704307556e-02,-4.243741333484649658e-01,1.064961910247802734e+00,1.000000000000000000e+00,7.098950911313295364e-03,0.000000000000000000e+00
2.195794820785522461e+00,1.991543006896972656e+01,2.375500793457031250e+02,2.375500793457031250e+02,-6.413888931274414062e-01,-4.969481527805328369e-01,2.163633406162261963e-01,7.039039134979248047e+00,-6.351451575756072998e-02,5.574365422944538295e-05,8.867663741111755371e-01,2.573665678501129150e-01,1.768335932865738869e-03,-5.916007980704307556e-02,-4.243741333484649658e-01,1.064961910247802734e+00,1.000000000000000000e+00,7.098950911313295364e-03,0.000000000000000000e+00
2.195794820785522461e+00,1.991543006896972656e+01,2.375500793457031250e+02,2.375500793457031250e+02,-6.413888931274414062e-01,-4.969481527805328369e-01,2.163633406162261963e-01,7.039039134979248047e+00,-6.351451575756072998e-02,5.574365422944538295e-05,8.867663741111755371e-01,2.573665678501129150e-01,1.768335932865738869e-03,-5.916007980704307556e-02,-4.243741333484649658e-01,1.064961910247802734e+00,1.000000000000000000e+00,7.098950911313295364e-03,0.000000000000000000e+00
2.374083757400512695e+00,2.028498458862304688e+01,2.375469818115234375e+02,2.375469818115234375e+02,-5.327479243278503418e-01,-4.792175590991973877e-01,2.128164917230606079e-01,6.989633083343505859e+00,-6.044958531856536865e-02,1.189455433632247150e-04,-2.771122753620147705e-01,1.719080470502376556e-02,3.544913779478520155e-04,1.232125535607337952e-01,-1.367511987686157227e+00,1.193664968013763428e-01,1.000000000000000000e+00,0.000000000000000000e+00,0.000000000000000000e+00
2.374083757400512695e+00,2.028498458862304688e+01,2.375469818115234375e+02,2.375469818115234375e+02,-5.327479243278503418e-01,-4.792175590991973877e-01,2.128164917230606079e-01,6.989633083343505859e+00,-6.044958531856536865e-02,1.189455433632247150e-04,-2.771122753620147705e-01,1.719080470502376556e-02,3.544913779478520155e-04,1.232125535607337952e-01,-1.367511987686157227e+00,1.193664968013763428e-01,1.000000000000000000e+00,0.000000000000000000e+00,0.000000000000000000e+00
2.374083757400512695e+00,2.028498458862304688e+01,2.375469818115234375e+02,2.375469818115234375e+02,-5.327479243278503418e-01,-4.792175590991973877e-01,2.128164917230606079e-01,6.989633083343505859e+00,-6.044958531856536865e-02,1.189455433632247150e-04,-2.771122753620147705e-01,1.719080470502376556e-02,3.544913779478520155e-04,1.232125535607337952e-01,-1.367511987686157227e+00,1.193664968013763428e-01,1.000000000000000000e+00,0.000000000000000000e+00,0.000000000000000000e+00
2.447860002517700195e+00,2.097849655151367188e+01,2.375412445068359375e+02,2.375412445068359375e+02,-3.414616286754608154e-01,-4.767456352710723877e-01,1.783011406660079956e-01,7.017484188079833984e+00,-5.990458652377128601e-02,1.308795181103050709e-04,3.775077760219573975e-01,7.387185469269752502e-03,1.617590460227802396e-04,4.822870492935180664e-01,3.917971253395080566e-01,-1.359339617192745209e-02,1.000000000000000000e+00,0.000000000000000000e+00,0.000000000000000000e+00
2.447860002517700195e+00,2.097849655151367188e+01,2.375412445068359375e+02,2.375412445068359375e+02,-3.414616286754608154e-01,-4.767456352710723877e-01,1.783011406660079956e-01,7.017484188079833984e+00,-5.990458652377128601e-02,1.308795181103050709e-04,3.775077760219573975e-01,7.387185469269752502e-03,1.617590460227802396e-04,4.822870492935180664e-01,3.917971253395080566e-01,-1.359339617192745209e-02,1.000000000000000000e+00,0.000000000000000000e+00,0.000000000000000000e+00
2.500878810882568359e+00,2.148572540283203125e+01,2.375383605957031250e+02,2.375383605957031250e+02,-2.065449059009552002e-01,-3.745422065258026123e-01,1.544708460569381714e-01,6.795967102050781250e+00,-4.690079763531684875e-02,6.355301593430340290e-05,-4.178084850311279297e+00,2.452674657106399536e-01,-1.269860658794641495e-03,2.035903483629226685e-01,-2.738836288452148438e+00,1.703619360923767090e+00,1.000000000000000000e+00,1.347714383155107498e-02,0.000000000000000000e+00
2.500878810882568359e+00,2.148572540283203125e+01,2.375383605957031250e+02,2.375383605957031250e+02,-2.065449059009552002e-01,-3.745422065258026123e-01,1.544708460569381714e-01,6.795967102050781250e+00,-4.690079763531684875e-02,6.355301593430340290e-05,-4.178084850311279297e+00,2.452674657106399536e-01,-1.269860658794641495e-03,2.035903483629226685e-01,-2.738836288452148438e+00,1.703619360923767090e+00,1.000000000000000000e+00,1.347714383155107498e-02,0.000000000000000000e+00
2.560195446014404297e+00,2.184976196289062500e+01,2.375368652343750000e+02,2.375368652343750000e+02,-1.514867544174194336e-01,-2.868956625461578369e-01,1.497869938611984253e-01,6.805621623992919922e+00,-3.705770894885063171e-02,2.614628283481579274e-05,1.627624630928039551e-01,1.659414470195770264e-01,-6.306279683485627174e-04,9.207247640006244183e-04,-1.835563778877258301e+00,1.611910462379455566e+00,1.000000000000000000e+00,1.170766353607177734e-02,0.000000000000000000e+00
2.560195446014404297e+00,2.184976196289062500e+01,2.375368652343750000e+02,2.375368652343750000e+02,-1.514867544174194336e-01,-2.868956625461578369e-01,1.497869938611984253e-01,6.805621623992919922e+00,-3.705770894885063171e-02,2.614628283481579274e-05,1.627624630928039551e-01,1.659414470195770264e-01,-6.306279683485627174e-04,9.207247640006244183e-04,-1.835563778877258301e+00,1.611910462379455566e+00,1.000000000000000000e+00,1.170766353607177734e-02,0.000000000000000000e+00
2.560195446014404297e+00,2.184976196289062500e+01,2.375368652343750000e+02,2.375368652343750000e+02,-1.514867544174194336e-01,-2.868956625461578369e-01,1.497869938611984253e-01,6.805621623992919922e+00,-3.705770894885063171e-02,2.614628283481579274e-05,1.627624630928039551e-01,1.659414470195770264e-01,-6.306279683485627174e-04,9.207247640006244183e-04,-1.835563778877258301e+00,1.611910462379455566e+00,1.000000000000000000e+00,1.170766353607177734e-02,0.000000000000000000e+00
2.618730545043945312e+00,2.225526618957519531e+01,2.375356903076171875e+02,2.375356903076171875e+02,-9.399022907018661499e-02,-2.031554877758026123e-01,1.551644206047058105e-01,6.754484653472900391e+00,-2.629692666232585907e-02,-4.100191290490329266e-06,-8.736121058464050293e-01,1.838347017765045166e-01,-5.167237250134348869e-04,-1.443249583244323730e-01,-2.133758783340454102e+00,1.344631671905517578e+00,1.000000000000000000e+00,9.715040214359760284e-03,0.000000000000000000e+00
2.618730545043945312e+00,2.225526618957519531e+01,2.375356903076171875e+02,2.375356903076171875e+02,-9.399022907018661499e-02,-2.031554877758026123e-01,1.551644206047058105e-01,6.754484653472900391e+00,-2.629692666232585907e-02,-4.100191290490329266e-06,-8.736121058464050293e-01,1.838347017765045166e-01,-5.167237250134348869e-04,-1.443249583244323730e-01,-2.133758783340454102e+00,1.344631671905517578e+00,1.000000000000000000e+00,9.715040214359760284e-03,0.000000000000000000e+00
2.677334070205688477e+00,2.265401077270507812e+01,2.375348968505859375e+02,2.375348968505859375e+02,-5.316618829965591431e-02,-1.403503417968750000e-01,1.638604253530502319e-01,6.726282596588134766e+00,-1.821499131619930267e-02,-2.298972322023473680e-05,-4.812348186969757080e-01,1.379086822271347046e-01,-3.223275707568973303e-04,-1.516389995813369751e-01,-1.993597269058227539e+00,9.974634647369384766e-01,1.000000000000000000e+00,7.035645190626382828e-03,0.000000000000000000e+00
2.677334070205688477e+00,2.265401077270507812e+01,2.375348968505859375e+02,2.375348968505859375e+02,-5.316618829965591431e-02,-1.403503417968750000e-01,1.638604253530502319e-01,6.726282596588134766e+00,-1.821499131619930267e-02,-2.298972322023473680e-05,-4.812348186969757080e-01,1.379086822271347046e-01,-3.223275707568973303e-04,-1.516389995813369751e-01,-1.993597269058227539e+00,9.974634647369384766e-01,1.000000000000000000e+00,7.035645190626382828e-03,0.000000000000000000e+00
2.677334070205688477e+00,2.265401077270507812e+01,2.375348968505859375e+02,2.375348968505859375e+02,-5.316618829965591431e-02,-1.403503417968750000e-01,1.638604253530502319e-01,6.726282596588134766e+00,-1.821499131619930267e-02,-2.298972322023473680e-05,-4.812348186969757080e-01,1.379086822271347046e-01,-3.223275707568973303e-04,-1.516389995813369751e-01,-1.993597269058227539e+00,9.974634647369384766e-01,1.000000000000000000e+00,7.035645190626382828e-03,0.000000000000000000e+00
2.677334070205688477e+00,2.305416870117187500e+01,2.375343627929687500e+02,2.375343627929687500e+02,-6.240743398666381836e-02,-9.515380859375000000e-02,1.697331368923187256e-01,6.850022315979003906e+00,-1.258118264377117157e-02,-3.217225457774475217e-05,1.592719554901123047e+00,7.251574099063873291e-02,-1.181932311737909913e-04,-6.918151676654815674e-02,4.065285623073577881e-01,7.327665090560913086e-01,1.000000000000000000e+00,4.987719468772411346e-03,0.000000000000000000e+00
2.755024909973144531e+00,2.305416870117187500e+01,2.375343627929687500e+02,2.375343627929687500e+02,-6.240743398666381836e-02,-9.515380859375000000e-02,1.697331368923187256e-01,6.850022315979003906e+00,-1.258118264377117157e-02,-3.217225457774475217e-05,1.592719554901123047e+00,7.251574099063873291e-02,-1.181932311737909913e-04,-6.918151676654815674e-02,4.065285623073577881e-01,7.327665090560913086e-01,1.000000000000000000e+00,4.987719468772411346e-03,0.000000000000000000e+00
2.755024909973144531e+00,2.305416870117187500e+01,2.375343627929687500e+02,2.375343627929687500e+02,-6.240743398666381836e-02,-9.515380859375000000e-02,1.697331368923187256e-01,6.850022315979003906e+00,-1.258118264377117157e-02,-3.217225457774475217e-05,1.592719554901123047e+00,7.251574099063873291e-02,-1.181932311737909913e-04,-6.918151676654815674e-02,4.065285623073577881e-01,7.327665090560913086e-01,1.000000000000000000e+00,4.987719468772411346e-03,0.000000000000000000e+00
2.755024909973144531e+00,2.305416870117187500e+01,2.375343627929687500e+02,2.375343627929687500e+02,-6.240743398666381836e-02,-9.515380859375000000e-02,1.697331368923187256e-01,6.850022315979003906e+00,-1.258118264377117157e-02,-3.217225457774475217e-05,1.592719554901123047e+00,7.251574099063873291e-02,-1.181932311737909913e-04,-6.918151676654815674e-02,4.065285623073577881e-01,7.327665090560913086e-01,1.000000000000000000e+00,4.987719468772411346e-03,0.000000000000000000e+00
2.830169916152954102e+00,2.360649108886718750e+01,2.375339965820312500e+02,2.375339965820312500e+02,-2.904332876205444336e-01,-4.934691637754440308e-02,1.683581322431564331e-01,7.306649684906005859e+00,-7.512593176215887070e-03,-5.224369306233711541e-05,6.076616287231445312e+00,6.745078414678573608e-02,-2.671027614269405603e-04,7.944969087839126587e-02,4.097711086273193359e+00,5.328760743141174316e-01,1.000000000000000000e+00,3.498928854241967201e-03,0.000000000000000000e+00
2.830169916152954102e+00,2.360649108886718750e+01,2.375339965820312500e+02,2.375339965820312500e+02,-2.904332876205444336e-01,-4.934691637754440308e-02,1.683581322431564331e-01,7.306649684906005859e+00,-7.512593176215887070e-03,-5.224369306233711541e-05,6.076616287231445312e+00,6.745078414678573608e-02,-2.671027614269405603e-04,7.944969087839126587e-02,4.097711086273193359e+00,5.328760743141174316e-01,1.000000000000000000e+00,3.498928854241967201e-03,0.000000000000000000e+00
2.830169916152954102e+00,2.360649108886718750e+01,2.375339965820312500e+02,2.375339965820312500e+02,-2.904332876205444336e-01,-4.934691637754440308e-02,1.683581322431564331e-01,7.306649684906005859e+00,-7.512593176215887070e-03,-5.224369306233711541e-05,6.076616287231445312e+00,6.745078414678573608e-02,-2.671027614269405603e-04,7.944969087839126587e-02,4.097711086273193359e+00,5.328760743141174316e-01,1.000000000000000000e+00,3.498928854241967201e-03,0.000000000000000000e+00
2.830169916152954102e+00,2.360649108886718750e+01,2.375339965820312500e+02,2.375339965820312500e+02,-2.904332876205444336e-01,-4.934691637754440308e-02,1.683581322431564331e-01,7.306649684906005859e+00,-7.512593176215887070e-03,-5.224369306233711541e-05,6.076616287231445312e+00,6.745078414678573608e-02,-2.671027614269405603e-04,7.944969087839126587e-02,4.097711086273193359e+00,5.328760743141174316e-01,1.000000000000000000e+00,3.498928854241967201e-03,0.000000000000000000e+00
2.830169916152954102e+00,2.360649108886718750e+01,2.375339965820312500e+02,2.375339965820312500e+02,-2.904332876205444336e-01,-4.934691637754440308e-02,1.683581322431564331e-01,7.306649684906005859e+00,-7.512593176215887070e-03,-5.224369306233711541e-05,6.076616287231445312e+00,6.745078414678573608e-02,-2.671027614269405603e-04,7.944969087839126587e-02,4.097711086273193359e+00,5.328760743141174316e-01,1.000000000000000000e+00,3.498928854241967201e-03,0.000000000000000000e+00
2.917726278305053711e+00,2.416629600524902344e+01,2.375338745117187500e+02,2.375338745117187500e+02,-4.960629642009735107e-01,-1.885986141860485077e-02,1.562367230653762817e-01,7.579423427581787109e+00,-4.065215121954679489e-03,-7.399400783469900489e-05,3.115407228469848633e+00,3.937324136495590210e-02,-2.484149881638586521e-04,2.123947739601135254e-01,1.992827057838439941e+00,3.487387597560882568e-01,1.000000000000000000e+00,1.916644861921668053e-03,0.000000000000000000e+00
