# Time,VehicleID,EGO,X,Y,Z,Roll,Pitch,Yaw,Vx,Vy,Vz,Ax,Ay,Az,Wx,Wy,Wz,Throttle,Steer,Brake
0.000000000000000000e+00,9.700000000000000000e+01,0.000000000000000000e+00,-1.203995323181152344e+01,-7.374617767333984375e+01,-7.374617767333984375e+01,2.176098152995109558e-02,9.038251495361328125e+01,1.274107198696583509e-04,-3.864454478025436401e-02,5.790438652038574219e+00,1.334957914878032170e-06,-1.849237456917762756e-02,2.760767936706542969e+00,-8.233671451307600364e-07,3.609191179275512695e-01,3.435005899518728256e-03,2.312246244400739670e-03,5.000000000000000000e-01,-2.861023062905587722e-07,0.000000000000000000e+00
0.000000000000000000e+00,9.700000000000000000e+01,0.000000000000000000e+00,-1.204220676422119141e+01,-7.340835571289062500e+01,-7.340835571289062500e+01,3.841981291770935059e-02,9.038261413574218750e+01,7.009783439571037889e-05,-3.902531415224075317e-02,5.847764968872070312e+00,-2.183597871407982893e-06,-4.954221192747354507e-03,7.458773255348205566e-01,-4.578021253109909594e-05,2.328246533870697021e-01,2.567307325080037117e-03,1.264896825887262821e-03,5.000000000000000000e-01,-3.337860107421875000e-06,0.000000000000000000e+00
7.685756683349609375e-02,9.700000000000000000e+01,0.000000000000000000e+00,-1.204220676422119141e+01,-7.340835571289062500e+01,-7.340835571289062500e+01,3.841981291770935059e-02,9.038261413574218750e+01,7.009783439571037889e-05,-3.902531415224075317e-02,5.847764968872070312e+00,-2.183597871407982893e-06,-4.954221192747354507e-03,7.458773255348205566e-01,-4.578021253109909594e-05,2.328246533870697021e-01,2.567307325080037117e-03,1.264896825887262821e-03,5.000000000000000000e-01,-3.337860107421875000e-06,0.000000000000000000e+00
7.685756683349609375e-02,9.700000000000000000e+01,0.000000000000000000e+00,-1.204220676422119141e+01,-7.340835571289062500e+01,-7.340835571289062500e+01,3.841981291770935059e-02,9.038261413574218750e+01,7.009783439571037889e-05,-3.902531415224075317e-02,5.847764968872070312e+00,-2.183597871407982893e-06,-4.954221192747354507e-03,7.458773255348205566e-01,-4.578021253109909594e-05,2.328246533870697021e-01,2.567307325080037117e-03,1.264896825887262821e-03,5.000000000000000000e-01,-3.337860107421875000e-06,0.000000000000000000e+00
1.165697574615478516e-01,9.700000000000000000e+01,0.000000000000000000e+00,-1.204521465301513672e+01,-7.295749664306640625e+01,-7.295749664306640625e+01,4.679362475872039795e-02,9.038262176513671875e+01,1.751570562191773206e-05,-3.917719423770904541e-02,5.870300769805908203e+00,-2.908259602918406017e-06,-3.824520390480756760e-03,5.674781799316406250e-01,-1.824784158088732511e-05,2.801629342138767242e-02,6.559055764228105545e-04,-8.689773676451295614e-05,5.000000000000000000e-01,-4.863738922722404823e-06,0.000000000000000000e+00
1.524837017059326172e-01,9.700000000000000000e+01,0.000000000000000000e+00,-1.204677009582519531e+01,-7.272450256347656250e+01,-7.272450256347656250e+01,4.553003981709480286e-02,9.038261413574218750e+01,5.951404091320000589e-06,-3.913772106170654297e-02,5.864426612854003906e+00,-5.053804557064722758e-07,1.099104410968720913e-03,-1.635620146989822388e-01,6.690657755825668573e-05,-5.914829298853874207e-02,-2.092130889650434256e-04,-4.385488573461771011e-04,5.000000000000000000e-01,-5.531311217055190355e-06,0.000000000000000000e+00
1.524837017059326172e-01,9.700000000000000000e+01,0.000000000000000000e+00,-1.204677009582519531e+01,-7.272450256347656250e+01,-7.272450256347656250e+01,4.553003981709480286e-02,9.038261413574218750e+01,5.951404091320000589e-06,-3.913772106170654297e-02,5.864426612854003906e+00,-5.053804557064722758e-07,1.099104410968720913e-03,-1.635620146989822388e-01,6.690657755825668573e-05,-5.914829298853874207e-02,-2.092130889650434256e-04,-4.385488573461771011e-04,5.000000000000000000e-01,-5.531311217055190355e-06,0.000000000000000000e+00
1.857297420501708984e-01,9.700000000000000000e+01,0.000000000000000000e+00,-1.204817485809326172e+01,-7.251419830322265625e+01,-7.251419830322265625e+01,4.196467995643615723e-02,9.038261413574218750e+01,6.550045782205415890e-06,-3.905619680881500244e-02,5.852167606353759766e+00,-6.770276854695111979e-07,2.452149288728833199e-03,-3.687358200550079346e-01,-5.162937668501399457e-06,-1.179811879992485046e-01,-8.942725253291428089e-04,-9.219408384524285793e-04,5.000000000000000000e-01,-5.245208740234375000e-06,0.000000000000000000e+00
1.857297420501708984e-01,9.700000000000000000e+01,0.000000000000000000e+00,-1.204817485809326172e+01,-7.251419830322265625e+01,-7.251419830322265625e+01,4.196467995643615723e-02,9.038261413574218750e+01,6.550045782205415890e-06,-3.905619680881500244e-02,5.852167606353759766e+00,-6.770276854695111979e-07,2.452149288728833199e-03,-3.687358200550079346e-01,-5.162937668501399457e-06,-1.179811879992485046e-01,-8.942725253291428089e-04,-9.219408384524285793e-04,5.000000000000000000e-01,-5.245208740234375000e-06,0.000000000000000000e+00
1.857297420501708984e-01,9.700000000000000000e+01,0.000000000000000000e+00,-1.204946994781494141e+01,-7.232006835937500000e+01,-7.232006835937500000e+01,3.676007688045501709e-02,9.038254547119140625e+01,1.390383931720862165e-05,-3.894824162125587463e-02,5.836341857910156250e+00,-6.483907100118813105e-07,2.969627035781741142e-03,-4.353340864181518555e-01,7.877447956161631737e-07,-1.650743782520294189e-01,-1.380341127514839172e-03,-1.357269939035177231e-03,5.000000000000000000e-01,-5.722045898437500000e-06,0.000000000000000000e+00
2.220828533172607422e-01,9.700000000000000000e+01,0.000000000000000000e+00,-1.204946994781494141e+01,-7.232006835937500000e+01,-7.232006835937500000e+01,3.676007688045501709e-02,9.038254547119140625e+01,1.390383931720862165e-05,-3.894824162125587463e-02,5.836341857910156250e+00,-6.483907100118813105e-07,2.969627035781741142e-03,-4.353340864181518555e-01,7.877447956161631737e-07,-1.650743782520294189e-01,-1.380341127514839172e-03,-1.357269939035177231e-03,5.000000000000000000e-01,-5.722045898437500000e-06,0.000000000000000000e+00
2.551264762878417969e-01,9.700000000000000000e+01,0.000000000000000000e+00,-1.205216026306152344e+01,-7.191696166992187500e+01,-7.191696166992187500e+01,2.340022660791873932e-02,9.038249206542968750e+01,4.459716728888452053e-05,-3.864960372447967529e-02,5.791457176208496094e+00,4.004770346455188701e-07,4.182754550129175186e-03,-6.312707662582397461e-01,3.700342131196521223e-05,-2.131966948509216309e-01,-1.944077666848897934e-03,-5.664851632900536060e-04,5.000000000000000000e-01,-3.719329924933845177e-06,0.000000000000000000e+00
2.912032604217529297e-01,9.700000000000000000e+01,0.000000000000000000e+00,-1.205216026306152344e+01,-7.191696166992187500e+01,-7.191696166992187500e+01,2.340022660791873932e-02,9.038249206542968750e+01,4.459716728888452053e-05,-3.864960372447967529e-02,5.791457176208496094e+00,4.004770346455188701e-07,4.182754550129175186e-03,-6.312707662582397461e-01,3.700342131196521223e-05,-2.131966948509216309e-01,-1.944077666848897934e-03,-5.664851632900536060e-04,5.000000000000000000e-01,-3.719329924933845177e-06,0.000000000000000000e+00
2.912032604217529297e-01,9.700000000000000000e+01,0.000000000000000000e+00,-1.205355072021484375e+01,-7.170870208740234375e+01,-7.170870208740234375e+01,1.604411378502845764e-02,9.038242340087890625e+01,6.472671520896255970e-05,-3.847723081707954407e-02,5.765544891357421875e+00,-6.293493015618878417e-07,4.813638050109148026e-03,-7.236193418502807617e-01,-2.875864447560161352e-05,-2.051541060209274292e-01,-1.943874871358275414e-03,-1.944290124811232090e-03,5.000000000000000000e-01,-2.956390289909904823e-06,0.000000000000000000e+00
3.270125389099121094e-01,9.700000000000000000e+01,0.000000000000000000e+00,-1.205355072021484375e+01,-7.170870208740234375e+01,-7.170870208740234375e+01,1.604411378502845764e-02,9.038242340087890625e+01,6.472671520896255970e-05,-3.847723081707954407e-02,5.765544891357421875e+00,-6.293493015618878417e-07,4.813638050109148026e-03,-7.236193418502807617e-01,-2.875864447560161352e-05,-2.051541060209274292e-01,-1.943874871358275414e-03,-1.944290124811232090e-03,5.000000000000000000e-01,-2.956390289909904823e-06,0.000000000000000000e+00
3.622767925262451172e-01,9.700000000000000000e+01,0.000000000000000000e+00,-1.205492305755615234e+01,-7.150300598144531250e+01,-7.150300598144531250e+01,8.619698695838451385e-03,9.038237762451171875e+01,8.590680226916447282e-05,-3.828076645731925964e-02,5.736060619354248047e+00,-7.342415528910350986e-07,5.571204237639904022e-03,-8.360952138900756836e-01,-2.974463995997211896e-06,-2.077181041240692139e-01,-1.980490284040570259e-03,-6.635538302361965179e-04,5.000000000000000000e-01,-1.907348632812500000e-06,0.000000000000000000e+00
3.622767925262451172e-01,9.700000000000000000e+01,0.000000000000000000e+00,-1.205492305755615234e+01,-7.150300598144531250e+01,-7.150300598144531250e+01,8.619698695838451385e-03,9.038237762451171875e+01,8.590680226916447282e-05,-3.828076645731925964e-02,5.736060619354248047e+00,-7.342415528910350986e-07,5.571204237639904022e-03,-8.360952138900756836e-01,-2.974463995997211896e-06,-2.077181041240692139e-01,-1.980490284040570259e-03,-6.635538302361965179e-04,5.000000000000000000e-01,-1.907348632812500000e-06,0.000000000000000000e+00
3.991756439208984375e-01,9.700000000000000000e+01,0.000000000000000000e+00,-1.205626773834228516e+01,-7.130145263671875000e+01,-7.130145263671875000e+01,1.502641476690769196e-03,9.038235473632812500e+01,1.076249754987657070e-04,-3.808865323662757874e-02,5.707338809967041016e+00,-3.432824087212793529e-07,5.206482484936714172e-03,-7.783930301666259766e-01,1.059542864823015407e-05,-1.986951529979705811e-01,-1.936352928169071674e-03,-1.753361197188496590e-03,5.000000000000000000e-01,-1.430511474609375000e-06,0.000000000000000000e+00
3.991756439208984375e-01,9.700000000000000000e+01,0.000000000000000000e+00,-1.205626773834228516e+01,-7.130145263671875000e+01,-7.130145263671875000e+01,1.502641476690769196e-03,9.038235473632812500e+01,1.076249754987657070e-04,-3.808865323662757874e-02,5.707338809967041016e+00,-3.432824087212793529e-07,5.206482484936714172e-03,-7.783930301666259766e-01,1.059542864823015407e-05,-1.986951529979705811e-01,-1.936352928169071674e-03,-1.753361197188496590e-03,5.000000000000000000e-01,-1.430511474609375000e-06,0.000000000000000000e+00
4.334743022918701172e-01,9.700000000000000000e+01,0.000000000000000000e+00,-1.205766773223876953e+01,-7.109172058105468750e+01,-7.109172058105468750e+01,-5.675886757671833038e-03,9.038230133056640625e+01,1.299905707128345966e-04,-3.786978125572204590e-02,5.674769878387451172e+00,1.563833507134404499e-06,6.381356623023748398e-03,-9.495686292648315430e-01,5.560322097153402865e-05,-1.904406994581222534e-01,-1.882878597825765610e-03,-5.367245757952332497e-04,5.000000000000000000e-01,-7.629394644936837722e-07,0.000000000000000000e+00
4.334743022918701172e-01,9.700000000000000000e+01,0.000000000000000000e+00,-1.205766773223876953e+01,-7.109172058105468750e+01,-7.109172058105468750e+01,-5.675886757671833038e-03,9.038230133056640625e+01,1.299905707128345966e-04,-3.786978125572204590e-02,5.674769878387451172e+00,1.563833507134404499e-06,6.381356623023748398e-03,-9.495686292648315430e-01,5.560322097153402865e-05,-1.904406994581222534e-01,-1.882878597825765610e-03,-5.367245757952332497e-04,5.000000000000000000e-01,-7.629394644936837722e-07,0.000000000000000000e+00
4.682626724243164062e-01,9.700000000000000000e+01,0.000000000000000000e+00,-1.205896186828613281e+01,-7.089780426025390625e+01,-7.089780426025390625e+01,-1.174792461097240448e-02,9.038224792480468750e+01,1.504725951235741377e-04,-3.767288848757743835e-02,5.645286560058593750e+00,1.296848722631693818e-06,5.659729707986116409e-03,-8.475050330162048340e-01,-7.674541848246008158e-06,-1.725979298353195190e-01,-1.720058731734752655e-03,-1.596186077222228050e-03,5.000000000000000000e-01,2.861023062905587722e-07,0.000000000000000000e+00
4.682626724243164062e-01,9.700000000000000000e+01,0.000000000000000000e+00,-1.205896186828613281e+01,-7.089780426025390625e+01,-7.089780426025390625e+01,-1.174792461097240448e-02,9.038224792480468750e+01,1.504725951235741377e-04,-3.767288848757743835e-02,5.645286560058593750e+00,1.296848722631693818e-06,5.659729707986116409e-03,-8.475050330162048340e-01,-7.674541848246008158e-06,-1.725979298353195190e-01,-1.720058731734752655e-03,-1.596186077222228050e-03,5.000000000000000000e-01,2.861023062905587722e-07,0.000000000000000000e+00
4.682626724243164062e-01,9.700000000000000000e+01,0.000000000000000000e+00,-1.205896186828613281e+01,-7.089780426025390625e+01,-7.089780426025390625e+01,-1.174792461097240448e-02,9.038224792480468750e+01,1.504725951235741377e-04,-3.767288848757743835e-02,5.645286560058593750e+00,1.296848722631693818e-06,5.659729707986116409e-03,-8.475050330162048340e-01,-7.674541848246008158e-06,-1.725979298353195190e-01,-1.720058731734752655e-03,-1.596186077222228050e-03,5.000000000000000000e-01,2.861023062905587722e-07,0.000000000000000000e+00
5.055172443389892578e-01,9.700000000000000000e+01,0.000000000000000000e+00,-1.206026840209960938e+01,-7.070218658447265625e+01,-7.070218658447265625e+01,-1.745113171637058258e-02,9.038223266601562500e+01,1.700426946626976132e-04,-3.746126592159271240e-02,5.613839149475097656e+00,1.134740841735037975e-06,5.680445581674575806e-03,-8.441221714019775391e-01,-4.351355073595186695e-06,-1.590438783168792725e-01,-1.621915027499198914e-03,-5.555385723710060120e-04,5.000000000000000000e-01,7.629394644936837722e-07,0.000000000000000000e+00
5.055172443389892578e-01,9.700000000000000000e+01,0.000000000000000000e+00,-1.206026840209960938e+01,-7.070218658447265625e+01,-7.070218658447265625e+01,-1.745113171637058258e-02,9.038223266601562500e+01,1.700426946626976132e-04,-3.746126592159271240e-02,5.613839149475097656e+00,1.134740841735037975e-06,5.680445581674575806e-03,-8.441221714019775391e-01,-4.351355073595186695e-06,-1.590438783168792725e-01,-1.621915027499198914e-03,-5.555385723710060120e-04,5.000000000000000000e-01,7.629394644936837722e-07,0.000000000000000000e+00
5.412750244140625000e-01,9.700000000000000000e+01,0.000000000000000000e+00,-1.206298542022705078e+01,-7.029514312744140625e+01,-7.029514312744140625e+01,-2.755981124937534332e-02,9.038215637207031250e+01,2.055101649602875113e-04,-3.702420368790626526e-02,5.548760414123535156e+00,7.247060125337156933e-07,6.252665072679519653e-03,-9.347674846649169922e-01,3.740871397894807160e-05,-1.239946335554122925e-01,-1.254058093763887882e-03,-1.437375613022595644e-04,5.000000000000000000e-01,2.002715973503654823e-06,0.000000000000000000e+00
5.412750244140625000e-01,9.700000000000000000e+01,0.000000000000000000e+00,-1.206298542022705078e+01,-7.029514312744140625e+01,-7.029514312744140625e+01,-2.755981124937534332e-02,9.038215637207031250e+01,2.055101649602875113e-04,-3.702420368790626526e-02,5.548760414123535156e+00,7.247060125337156933e-07,6.252665072679519653e-03,-9.347674846649169922e-01,3.740871397894807160e-05,-1.239946335554122925e-01,-1.254058093763887882e-03,-1.437375613022595644e-04,5.000000000000000000e-01,2.002715973503654823e-06,0.000000000000000000e+00
6.121022701263427734e-01,9.700000000000000000e+01,0.000000000000000000e+00,-1.206426525115966797e+01,-7.010346984863281250e+01,-7.010346984863281250e+01,-3.131641447544097900e-02,9.038210296630859375e+01,2.187912032241001725e-04,-3.684149309992790222e-02,5.521347045898437500e+00,7.914582056400831789e-07,5.052771419286727905e-03,-7.581032514572143555e-01,1.845999122451758012e-06,-9.806285798549652100e-02,-9.952411055564880371e-04,-1.399128115735948086e-03,1.000000000000000000e+00,2.765655608527595177e-06,0.000000000000000000e+00
6.121022701263427734e-01,9.700000000000000000e+01,0.000000000000000000e+00,-1.206426525115966797e+01,-7.010346984863281250e+01,-7.010346984863281250e+01,-3.131641447544097900e-02,9.038210296630859375e+01,2.187912032241001725e-04,-3.684149309992790222e-02,5.521347045898437500e+00,7.914582056400831789e-07,5.052771419286727905e-03,-7.581032514572143555e-01,1.845999122451758012e-06,-9.806285798549652100e-02,-9.952411055564880371e-04,-1.399128115735948086e-03,1.000000000000000000e+00,2.765655608527595177e-06,0.000000000000000000e+00
6.484196186065673828e-01,9.700000000000000000e+01,0.000000000000000000e+00,-1.206559467315673828e+01,-6.990420532226562500e+01,-6.990420532226562500e+01,-3.357037901878356934e-02,9.038210296630859375e+01,2.316778554813936353e-04,-3.675513342022895813e-02,5.508728981018066406e+00,5.626000074698822573e-07,2.377917990088462830e-03,-3.474390506744384766e-01,-6.301621851889649406e-06,-3.838357329368591309e-02,-5.634083645418286324e-04,6.203454104252159595e-04,1.000000000000000000e+00,2.765655608527595177e-06,0.000000000000000000e+00
6.484196186065673828e-01,9.700000000000000000e+01,0.000000000000000000e+00,-1.206559467315673828e+01,-6.990420532226562500e+01,-6.990420532226562500e+01,-3.357037901878356934e-02,9.038210296630859375e+01,2.316778554813936353e-04,-3.675513342022895813e-02,5.508728981018066406e+00,5.626000074698822573e-07,2.377917990088462830e-03,-3.474390506744384766e-01,-6.301621851889649406e-06,-3.838357329368591309e-02,-5.634083645418286324e-04,6.203454104252159595e-04,1.000000000000000000e+00,2.765655608527595177e-06,0.000000000000000000e+00
6.484196186065673828e-01,9.700000000000000000e+01,0.000000000000000000e+00,-1.206559467315673828e+01,-6.990420532226562500e+01,-6.990420532226562500e+01,-3.357037901878356934e-02,9.038210296630859375e+01,2.316778554813936353e-04,-3.675513342022895813e-02,5.508728981018066406e+00,5.626000074698822573e-07,2.377917990088462830e-03,-3.474390506744384766e-01,-6.301621851889649406e-06,-3.838357329368591309e-02,-5.634083645418286324e-04,6.203454104252159595e-04,1.000000000000000000e+00,2.765655608527595177e-06,0.000000000000000000e+00
6.850595474243164062e-01,9.700000000000000000e+01,0.000000000000000000e+00,-1.206693172454833984e+01,-6.970375061035156250e+01,-6.970375061035156250e+01,-3.228630125522613525e-02,9.038210296630859375e+01,2.384896943112835288e-04,-3.688225522637367249e-02,5.527957439422607422e+00,1.172877318822429515e-06,-3.469488350674510002e-03,5.247951745986938477e-01,1.665607305767480284e-05,7.732561975717544556e-02,3.747665032278746367e-04,-3.256935742683708668e-04,1.000000000000000000e+00,2.861022949218750000e-06,0.000000000000000000e+00
6.850595474243164062e-01,9.700000000000000000e+01,0.000000000000000000e+00,-1.206693172454833984e+01,-6.970375061035156250e+01,-6.970375061035156250e+01,-3.228630125522613525e-02,9.038210296630859375e+01,2.384896943112835288e-04,-3.688225522637367249e-02,5.527957439422607422e+00,1.172877318822429515e-06,-3.469488350674510002e-03,5.247951745986938477e-01,1.665607305767480284e-05,7.732561975717544556e-02,3.747665032278746367e-04,-3.256935742683708668e-04,1.000000000000000000e+00,2.861022949218750000e-06,0.000000000000000000e+00
6.850595474243164062e-01,9.700000000000000000e+01,0.000000000000000000e+00,-1.206693172454833984e+01,-6.970375061035156250e+01,-6.970375061035156250e+01,-3.228630125522613525e-02,9.038210296630859375e+01,2.384896943112835288e-04,-3.688225522637367249e-02,5.527957439422607422e+00,1.172877318822429515e-06,-3.469488350674510002e-03,5.247951745986938477e-01,1.665607305767480284e-05,7.732561975717544556e-02,3.747665032278746367e-04,-3.256935742683708668e-04,1.000000000000000000e+00,2.861022949218750000e-06,0.000000000000000000e+00
6.850595474243164062e-01,9.700000000000000000e+01,0.000000000000000000e+00,-1.206829071044921875e+01,-6.950007629394531250e+01,-6.950007629394531250e+01,-2.620743401348590851e-02,9.038215637207031250e+01,2.363952662562951446e-04,-3.719933331012725830e-02,5.575407981872558594e+00,2.479250440501346020e-07,-4.653981886804103851e-03,6.964655518531799316e-01,-1.357618566544260830e-05,2.103876769542694092e-01,1.557063893415033817e-03,2.042099833488464355e-03,1.000000000000000000e+00,3.051757857974735089e-06,0.000000000000000000e+00
7.531900405883789062e-01,9.700000000000000000e+01,0.000000000000000000e+00,-1.206829071044921875e+01,-6.950007629394531250e+01,-6.950007629394531250e+01,-2.620743401348590851e-02,9.038215637207031250e+01,2.363952662562951446e-04,-3.719933331012725830e-02,5.575407981872558594e+00,2.479250440501346020e-07,-4.653981886804103851e-03,6.964655518531799316e-01,-1.357618566544260830e-05,2.103876769542694092e-01,1.557063893415033817e-03,2.042099833488464355e-03,1.000000000000000000e+00,3.051757857974735089e-06,0.000000000000000000e+00
7.531900405883789062e-01,9.700000000000000000e+01,0.000000000000000000e+00,-1.207085800170898438e+01,-6.911519622802734375e+01,-6.911519622802734375e+01,-4.337169695645570755e-03,9.038229370117187500e+01,1.986170100281015038e-04,-3.796899318695068359e-02,5.690316677093505859e+00,1.077505089597252663e-06,-2.090280503034591675e-02,3.120747327804565430e+00,2.253014645248185843e-05,3.533608615398406982e-01,3.172731492668390274e-03,1.616541063413023949e-03,5.000000000000000000e-01,2.193450882259639911e-06,0.000000000000000000e+00
7.900109291076660156e-01,9.700000000000000000e+01,0.000000000000000000e+00,-1.207085800170898438e+01,-6.911519622802734375e+01,-6.911519622802734375e+01,-4.337169695645570755e-03,9.038229370117187500e+01,1.986170100281015038e-04,-3.796899318695068359e-02,5.690316677093505859e+00,1.077505089597252663e-06,-2.090280503034591675e-02,3.120747327804565430e+00,2.253014645248185843e-05,3.533608615398406982e-01,3.172731492668390274e-03,1.616541063413023949e-03,5.000000000000000000e-01,2.193450882259639911e-06,0.000000000000000000e+00
7.900109291076660156e-01,9.700000000000000000e+01,0.000000000000000000e+00,-1.207226276397705078e+01,-6.890455627441406250e+01,-6.890455627441406250e+01,7.642981130629777908e-03,9.038237762451171875e+01,1.665404561208561063e-04,-3.822973743081092834e-02,5.729768753051757812e+00,1.296837808695272543e-06,-6.829150486737489700e-03,1.033289074897766113e+00,5.744541795138502494e-06,3.090575039386749268e-01,2.975306473672389984e-03,2.232944825664162636e-03,5.000000000000000000e-01,-1.907348661234209430e-07,0.000000000000000000e+00
8.281919956207275391e-01,9.700000000000000000e+01,0.000000000000000000e+00,-1.207226276397705078e+01,-6.890455627441406250e+01,-6.890455627441406250e+01,7.642981130629777908e-03,9.038237762451171875e+01,1.665404561208561063e-04,-3.822973743081092834e-02,5.729768753051757812e+00,1.296837808695272543e-06,-6.829150486737489700e-03,1.033289074897766113e+00,5.744541795138502494e-06,3.090575039386749268e-01,2.975306473672389984e-03,2.232944825664162636e-03,5.000000000000000000e-01,-1.907348661234209430e-07,0.000000000000000000e+00
8.281919956207275391e-01,9.700000000000000000e+01,0.000000000000000000e+00,-1.207226276397705078e+01,-6.890455627441406250e+01,-6.890455627441406250e+01,7.642981130629777908e-03,9.038237762451171875e+01,1.665404561208561063e-04,-3.822973743081092834e-02,5.729768753051757812e+00,1.296837808695272543e-06,-6.829150486737489700e-03,1.033289074897766113e+00,5.744541795138502494e-06,3.090575039386749268e-01,2.975306473672389984e-03,2.232944825664162636e-03,5.000000000000000000e-01,-1.907348661234209430e-07,0.000000000000000000e+00
8.645265102386474609e-01,9.700000000000000000e+01,0.000000000000000000e+00,-1.207372665405273438e+01,-6.868503570556640625e+01,-6.868503570556640625e+01,1.760822720825672150e-02,9.038242340087890625e+01,1.318263239227235317e-04,-3.839513286948204041e-02,5.754808902740478516e+00,-3.337435146022471599e-07,-4.552020225673913956e-03,6.891560554504394531e-01,-4.487692785914987326e-05,2.336241304874420166e-01,2.486163284629583359e-03,6.948889349587261677e-04,5.000000000000000000e-01,-1.811981178434507456e-06,0.000000000000000000e+00
8.645265102386474609e-01,9.700000000000000000e+01,0.000000000000000000e+00,-1.207372665405273438e+01,-6.868503570556640625e+01,-6.868503570556640625e+01,1.760822720825672150e-02,9.038242340087890625e+01,1.318263239227235317e-04,-3.839513286948204041e-02,5.754808902740478516e+00,-3.337435146022471599e-07,-4.552020225673913956e-03,6.891560554504394531e-01,-4.487692785914987326e-05,2.336241304874420166e-01,2.486163284629583359e-03,6.948889349587261677e-04,5.000000000000000000e-01,-1.811981178434507456e-06,0.000000000000000000e+00
8.645265102386474609e-01,9.700000000000000000e+01,0.000000000000000000e+00,-1.207512569427490234e+01,-6.847560119628906250e+01,-6.847560119628906250e+01,2.396030165255069733e-02,9.038242340087890625e+01,1.031590363709256053e-04,-3.846725076436996460e-02,5.765568733215332031e+00,-1.067985863301146310e-06,-1.992782112210988998e-03,2.973186671733856201e-01,-2.028879134741146117e-05,1.457103341817855835e-01,1.728491857647895813e-03,1.008709077723324299e-03,5.000000000000000000e-01,-2.479553131706779823e-06,0.000000000000000000e+00
9.007160663604736328e-01,9.700000000000000000e+01,0.000000000000000000e+00,-1.207512569427490234e+01,-6.847560119628906250e+01,-6.847560119628906250e+01,2.396030165255069733e-02,9.038242340087890625e+01,1.031590363709256053e-04,-3.846725076436996460e-02,5.765568733215332031e+00,-1.067985863301146310e-06,-1.992782112210988998e-03,2.973186671733856201e-01,-2.028879134741146117e-05,1.457103341817855835e-01,1.728491857647895813e-03,1.008709077723324299e-03,5.000000000000000000e-01,-2.479553131706779823e-06,0.000000000000000000e+00
9.007160663604736328e-01,9.700000000000000000e+01,0.000000000000000000e+00,-1.207512569427490234e+01,-6.847560119628906250e+01,-6.847560119628906250e+01,2.396030165255069733e-02,9.038242340087890625e+01,1.031590363709256053e-04,-3.846725076436996460e-02,5.765568733215332031e+00,-1.067985863301146310e-06,-1.992782112210988998e-03,2.973186671733856201e-01,-2.028879134741146117e-05,1.457103341817855835e-01,1.728491857647895813e-03,1.008709077723324299e-03,5.000000000000000000e-01,-2.479553131706779823e-06,0.000000000000000000e+00
9.398105144500732422e-01,9.700000000000000000e+01,0.000000000000000000e+00,-1.207651710510253906e+01,-6.826686096191406250e+01,-6.826686096191406250e+01,2.721830271184444427e-02,9.038243103027343750e+01,8.056988735916092992e-05,-3.847707435488700867e-02,5.766697406768798828e+00,-1.401732106387498789e-06,-2.512783976271748543e-04,2.887042984366416931e-02,-8.536921086488291621e-06,6.367423385381698608e-02,9.713672334328293800e-04,-2.744311059359461069e-04,5.000000000000000000e-01,-2.288818450324470177e-06,0.000000000000000000e+00
9.398105144500732422e-01,9.700000000000000000e+01,0.000000000000000000e+00,-1.207651710510253906e+01,-6.826686096191406250e+01,-6.826686096191406250e+01,2.721830271184444427e-02,9.038243103027343750e+01,8.056988735916092992e-05,-3.847707435488700867e-02,5.766697406768798828e+00,-1.401732106387498789e-06,-2.512783976271748543e-04,2.887042984366416931e-02,-8.536921086488291621e-06,6.367423385381698608e-02,9.713672334328293800e-04,-2.744311059359461069e-04,5.000000000000000000e-01,-2.288818450324470177e-06,0.000000000000000000e+00
1.011361598968505859e+00,9.700000000000000000e+01,0.000000000000000000e+00,-1.207941532135009766e+01,-6.783258819580078125e+01,-6.783258819580078125e+01,2.575664222240447998e-02,9.038242340087890625e+01,5.841679740115068853e-05,-3.833958879113197327e-02,5.745640754699707031e+00,-1.811761535464029294e-06,2.420232165604829788e-03,-3.772713541984558105e-01,-1.652332139201462269e-05,-7.024637609720230103e-02,-3.716818173415958881e-04,-1.281805685721337795e-03,5.000000000000000000e-01,-2.288818450324470177e-06,0.000000000000000000e+00
9.761579036712646484e-01,9.700000000000000000e+01,0.000000000000000000e+00,-1.207941532135009766e+01,-6.783258819580078125e+01,-6.783258819580078125e+01,2.575664222240447998e-02,9.038242340087890625e+01,5.841679740115068853e-05,-3.833958879113197327e-02,5.745640754699707031e+00,-1.811761535464029294e-06,2.420232165604829788e-03,-3.772713541984558105e-01,-1.652332139201462269e-05,-7.024637609720230103e-02,-3.716818173415958881e-04,-1.281805685721337795e-03,5.000000000000000000e-01,-2.288818450324470177e-06,0.000000000000000000e+00
9.761579036712646484e-01,9.700000000000000000e+01,0.000000000000000000e+00,-1.208076190948486328e+01,-6.763075256347656250e+01,-6.763075256347656250e+01,2.228690683841705322e-02,9.038242340087890625e+01,5.967661491013132036e-05,-3.822235390543937683e-02,5.727887630462646484e+00,-7.342430876633443404e-07,3.218307392671704292e-03,-4.873550236225128174e-01,2.957980905193835497e-05,-1.120162159204483032e-01,-8.178116404451429844e-04,-1.234720002685207874e-05,5.000000000000000000e-01,-2.002715973503654823e-06,0.000000000000000000e+00
1.047789096832275391e+00,9.700000000000000000e+01,0.000000000000000000e+00,-1.208076190948486328e+01,-6.763075256347656250e+01,-6.763075256347656250e+01,2.228690683841705322e-02,9.038242340087890625e+01,5.967661491013132036e-05,-3.822235390543937683e-02,5.727887630462646484e+00,-7.342430876633443404e-07,3.218307392671704292e-03,-4.873550236225128174e-01,2.957980905193835497e-05,-1.120162159204483032e-01,-8.178116404451429844e-04,-1.234720002685207874e-05,5.000000000000000000e-01,-2.002715973503654823e-06,0.000000000000000000e+00
1.047789096832275391e+00,9.700000000000000000e+01,0.000000000000000000e+00,-1.208076190948486328e+01,-6.763075256347656250e+01,-6.763075256347656250e+01,2.228690683841705322e-02,9.038242340087890625e+01,5.967661491013132036e-05,-3.822235390543937683e-02,5.727887630462646484e+00,-7.342430876633443404e-07,3.218307392671704292e-03,-4.873550236225128174e-01,2.957980905193835497e-05,-1.120162159204483032e-01,-8.178116404451429844e-04,-1.234720002685207874e-05,5.000000000000000000e-01,-2.002715973503654823e-06,0.000000000000000000e+00
1.047789096832275391e+00,9.700000000000000000e+01,0.000000000000000000e+00,-1.208076190948486328e+01,-6.763075256347656250e+01,-6.763075256347656250e+01,2.228690683841705322e-02,9.038242340087890625e+01,5.967661491013132036e-05,-3.822235390543937683e-02,5.727887630462646484e+00,-7.342430876633443404e-07,3.218307392671704292e-03,-4.873550236225128174e-01,2.957980905193835497e-05,-1.120162159204483032e-01,-8.178116404451429844e-04,-1.234720002685207874e-05,5.000000000000000000e-01,-2.002715973503654823e-06,0.000000000000000000e+00
1.047789096832275391e+00,9.700000000000000000e+01,0.000000000000000000e+00,-1.208076190948486328e+01,-6.763075256347656250e+01,-6.763075256347656250e+01,2.228690683841705322e-02,9.038242340087890625e+01,5.967661491013132036e-05,-3.822235390543937683e-02,5.727887630462646484e+00,-7.342430876633443404e-07,3.218307392671704292e-03,-4.873550236225128174e-01,2.957980905193835497e-05,-1.120162159204483032e-01,-8.178116404451429844e-04,-1.234720002685207874e-05,5.000000000000000000e-01,-2.002715973503654823e-06,0.000000000000000000e+00
1.118648767471313477e+00,9.700000000000000000e+01,0.000000000000000000e+00,-1.208215045928955078e+01,-6.742266082763671875e+01,-6.742266082763671875e+01,1.744430139660835266e-02,9.038237762451171875e+01,6.696954369544982910e-05,-3.807785362005233765e-02,5.706338405609130859e+00,-6.102774250393849798e-07,2.039245795458555222e-03,-3.041112720966339111e-01,1.749453076627105474e-06,-1.414671242237091064e-01,-1.192069146782159805e-03,-1.599325216375291348e-03,5.000000000000000000e-01,-2.098083541568485089e-06,0.000000000000000000e+00
1.118648767471313477e+00,9.700000000000000000e+01,0.000000000000000000e+00,-1.208215045928955078e+01,-6.742266082763671875e+01,-6.742266082763671875e+01,1.744430139660835266e-02,9.038237762451171875e+01,6.696954369544982910e-05,-3.807785362005233765e-02,5.706338405609130859e+00,-6.102774250393849798e-07,2.039245795458555222e-03,-3.041112720966339111e-01,1.749453076627105474e-06,-1.414671242237091064e-01,-1.192069146782159805e-03,-1.599325216375291348e-03,5.000000000000000000e-01,-2.098083541568485089e-06,0.000000000000000000e+00
1.118648767471313477e+00,9.700000000000000000e+01,0.000000000000000000e+00,-1.208215045928955078e+01,-6.742266082763671875e+01,-6.742266082763671875e+01,1.744430139660835266e-02,9.038237762451171875e+01,6.696954369544982910e-05,-3.807785362005233765e-02,5.706338405609130859e+00,-6.102774250393849798e-07,2.039245795458555222e-03,-3.041112720966339111e-01,1.749453076627105474e-06,-1.414671242237091064e-01,-1.192069146782159805e-03,-1.599325216375291348e-03,5.000000000000000000e-01,-2.098083541568485089e-06,0.000000000000000000e+00
1.175949096679687500e+00,9.700000000000000000e+01,0.000000000000000000e+00,-1.208483505249023438e+01,-6.702046966552734375e+01,-6.702046966552734375e+01,5.921773612499237061e-03,9.038235473632812500e+01,9.537251753499731421e-05,-3.774344921112060547e-02,5.656308650970458984e+00,1.039357698573439848e-06,5.835994146764278412e-03,-8.731145858764648438e-01,2.878927807614672929e-05,-1.697953939437866211e-01,-1.658310648053884506e-03,2.815536921843886375e-03,5.000000000000000000e-01,-1.239776565853389911e-06,0.000000000000000000e+00
1.175949096679687500e+00,9.700000000000000000e+01,0.000000000000000000e+00,-1.208483505249023438e+01,-6.702046966552734375e+01,-6.702046966552734375e+01,5.921773612499237061e-03,9.038235473632812500e+01,9.537251753499731421e-05,-3.774344921112060547e-02,5.656308650970458984e+00,1.039357698573439848e-06,5.835994146764278412e-03,-8.731145858764648438e-01,2.878927807614672929e-05,-1.697953939437866211e-01,-1.658310648053884506e-03,2.815536921843886375e-03,5.000000000000000000e-01,-1.239776565853389911e-06,0.000000000000000000e+00
1.175949096679687500e+00,9.700000000000000000e+01,0.000000000000000000e+00,-1.208698463439941406e+01,-6.669799804687500000e+01,-6.669799804687500000e+01,-3.695132210850715637e-03,9.038237762451171875e+01,1.250071654794737697e-04,-3.743479773402214050e-02,5.610910892486572266e+00,7.151532486204814631e-07,8.856843225657939911e-03,-1.302701711654663086e+00,-9.303140359406825155e-06,-1.695808768272399902e-01,-1.720846397802233696e-03,1.162216160446405411e-02,5.000000000000000000e-01,-1.144409225162235089e-06,0.000000000000000000e+00
1.210798025131225586e+00,9.700000000000000000e+01,0.000000000000000000e+00,-1.208698463439941406e+01,-6.669799804687500000e+01,-6.669799804687500000e+01,-3.695132210850715637e-03,9.038237762451171875e+01,1.250071654794737697e-04,-3.743479773402214050e-02,5.610910892486572266e+00,7.151532486204814631e-07,8.856843225657939911e-03,-1.302701711654663086e+00,-9.303140359406825155e-06,-1.695808768272399902e-01,-1.720846397802233696e-03,1.162216160446405411e-02,5.000000000000000000e-01,-1.144409225162235089e-06,0.000000000000000000e+00
1.210798025131225586e+00,9.700000000000000000e+01,0.000000000000000000e+00,-1.208828544616699219e+01,-6.650309753417968750e+01,-6.650309753417968750e+01,-9.063660167157649994e-03,9.038224029541015625e+01,1.427632087143138051e-04,-3.726689890027046204e-02,5.585137844085693359e+00,2.288552423124201596e-07,4.673139657825231552e-03,-7.173429727554321289e-01,-1.353516472590854391e-05,-1.495976299047470093e-01,-1.490875729359686375e-03,-6.958095356822013855e-03,5.000000000000000000e-01,-2.861023062905587722e-07,0.000000000000000000e+00
1.246726512908935547e+00,9.700000000000000000e+01,0.000000000000000000e+00,-1.208828544616699219e+01,-6.650309753417968750e+01,-6.650309753417968750e+01,-9.063660167157649994e-03,9.038224029541015625e+01,1.427632087143138051e-04,-3.726689890027046204e-02,5.585137844085693359e+00,2.288552423124201596e-07,4.673139657825231552e-03,-7.173429727554321289e-01,-1.353516472590854391e-05,-1.495976299047470093e-01,-1.490875729359686375e-03,-6.958095356822013855e-03,5.000000000000000000e-01,-2.861023062905587722e-07,0.000000000000000000e+00
1.246726512908935547e+00,9.700000000000000000e+01,0.000000000000000000e+00,-1.208828544616699219e+01,-6.650309753417968750e+01,-6.650309753417968750e+01,-9.063660167157649994e-03,9.038224029541015625e+01,1.427632087143138051e-04,-3.726689890027046204e-02,5.585137844085693359e+00,2.288552423124201596e-07,4.673139657825231552e-03,-7.173429727554321289e-01,-1.353516472590854391e-05,-1.495976299047470093e-01,-1.490875729359686375e-03,-6.958095356822013855e-03,5.000000000000000000e-01,-2.861023062905587722e-07,0.000000000000000000e+00
1.246726512908935547e+00,9.700000000000000000e+01,0.000000000000000000e+00,-1.208961963653564453e+01,-6.630323028564453125e+01,-6.630323028564453125e+01,-1.440486777573823929e-02,9.038228607177734375e+01,1.584909041412174702e-04,-3.705647960305213928e-02,5.553466796875000000e+00,1.115665327233728021e-06,5.622706376016139984e-03,-8.462959527969360352e-01,2.369684261793736368e-05,-1.469168812036514282e-01,-1.447049668058753014e-03,3.464329056441783905e-03,5.000000000000000000e-01,7.629394644936837722e-07,0.000000000000000000e+00
1.284149646759033203e+00,9.700000000000000000e+01,0.000000000000000000e+00,-1.208961963653564453e+01,-6.630323028564453125e+01,-6.630323028564453125e+01,-1.440486777573823929e-02,9.038228607177734375e+01,1.584909041412174702e-04,-3.705647960305213928e-02,5.553466796875000000e+00,1.115665327233728021e-06,5.622706376016139984e-03,-8.462959527969360352e-01,2.369684261793736368e-05,-1.469168812036514282e-01,-1.447049668058753014e-03,3.464329056441783905e-03,5.000000000000000000e-01,7.629394644936837722e-07,0.000000000000000000e+00
1.284149646759033203e+00,9.700000000000000000e+01,0.000000000000000000e+00,-1.208961963653564453e+01,-6.630323028564453125e+01,-6.630323028564453125e+01,-1.440486777573823929e-02,9.038228607177734375e+01,1.584909041412174702e-04,-3.705647960305213928e-02,5.553466796875000000e+00,1.115665327233728021e-06,5.622706376016139984e-03,-8.462959527969360352e-01,2.369684261793736368e-05,-1.469168812036514282e-01,-1.447049668058753014e-03,3.464329056441783905e-03,5.000000000000000000e-01,7.629394644936837722e-07,0.000000000000000000e+00
1.347238540649414062e+00,9.700000000000000000e+01,0.000000000000000000e+00,-1.209100151062011719e+01,-6.609611511230468750e+01,-6.609611511230468750e+01,-1.928845234215259552e-02,9.038218688964843750e+01,1.749327202560380101e-04,-3.688571229577064514e-02,5.527798175811767578e+00,2.002466089834342711e-06,2.706772880628705025e-03,-4.068643450736999512e-01,1.405636885465355590e-05,-1.191101968288421631e-01,-1.215646741911768913e-03,-4.921501036733388901e-03,1.000000000000000000e+00,1.049041770784242544e-06,0.000000000000000000e+00
1.347238540649414062e+00,9.700000000000000000e+01,0.000000000000000000e+00,-1.209100151062011719e+01,-6.609611511230468750e+01,-6.609611511230468750e+01,-1.928845234215259552e-02,9.038218688964843750e+01,1.749327202560380101e-04,-3.688571229577064514e-02,5.527798175811767578e+00,2.002466089834342711e-06,2.706772880628705025e-03,-4.068643450736999512e-01,1.405636885465355590e-05,-1.191101968288421631e-01,-1.215646741911768913e-03,-4.921501036733388901e-03,1.000000000000000000e+00,1.049041770784242544e-06,0.000000000000000000e+00
1.347238540649414062e+00,9.700000000000000000e+01,0.000000000000000000e+00,-1.209100151062011719e+01,-6.609611511230468750e+01,-6.609611511230468750e+01,-1.928845234215259552e-02,9.038218688964843750e+01,1.749327202560380101e-04,-3.688571229577064514e-02,5.527798175811767578e+00,2.002466089834342711e-06,2.706772880628705025e-03,-4.068643450736999512e-01,1.405636885465355590e-05,-1.191101968288421631e-01,-1.215646741911768913e-03,-4.921501036733388901e-03,1.000000000000000000e+00,1.049041770784242544e-06,0.000000000000000000e+00
1.388067722320556641e+00,9.700000000000000000e+01,0.000000000000000000e+00,-1.209332466125488281e+01,-6.574826812744140625e+01,-6.574826812744140625e+01,-2.349584922194480896e-02,9.038222503662109375e+01,1.977686624741181731e-04,-3.680891543626785278e-02,5.515908718109130859e+00,-6.197905122462543659e-07,1.880930736660957336e-03,-2.912000119686126709e-01,-6.422505975933745503e-05,-9.771144948899745941e-03,-3.505613422021269798e-04,-4.563847556710243225e-03,1.000000000000000000e+00,1.621246383365360089e-06,0.000000000000000000e+00
1.388067722320556641e+00,9.700000000000000000e+01,0.000000000000000000e+00,-1.209332466125488281e+01,-6.574826812744140625e+01,-6.574826812744140625e+01,-2.349584922194480896e-02,9.038222503662109375e+01,1.977686624741181731e-04,-3.680891543626785278e-02,5.515908718109130859e+00,-6.197905122462543659e-07,1.880930736660957336e-03,-2.912000119686126709e-01,-6.422505975933745503e-05,-9.771144948899745941e-03,-3.505613422021269798e-04,-4.563847556710243225e-03,1.000000000000000000e+00,1.621246383365360089e-06,0.000000000000000000e+00
1.388067722320556641e+00,9.700000000000000000e+01,0.000000000000000000e+00,-1.209332466125488281e+01,-6.574826812744140625e+01,-6.574826812744140625e+01,-2.349584922194480896e-02,9.038222503662109375e+01,1.977686624741181731e-04,-3.680891543626785278e-02,5.515908718109130859e+00,-6.197905122462543659e-07,1.880930736660957336e-03,-2.912000119686126709e-01,-6.422505975933745503e-05,-9.771144948899745941e-03,-3.505613422021269798e-04,-4.563847556710243225e-03,1.000000000000000000e+00,1.621246383365360089e-06,0.000000000000000000e+00
1.419137001037597656e+00,9.700000000000000000e+01,0.000000000000000000e+00,-1.209482860565185547e+01,-6.552294158935546875e+01,-6.552294158935546875e+01,-2.221860364079475403e-02,9.038223266601562500e+01,2.043862477876245975e-04,-3.688238561153411865e-02,5.527289867401123047e+00,-8.200482852771528997e-07,-2.364720916375517845e-03,3.663151860237121582e-01,-6.445523467846214771e-06,6.831509619951248169e-02,3.403119044378399849e-04,-7.663350552320480347e-04,1.000000000000000000e+00,8.583068620282574557e-07,0.000000000000000000e+00
1.419137001037597656e+00,9.700000000000000000e+01,0.000000000000000000e+00,-1.209482860565185547e+01,-6.552294158935546875e+01,-6.552294158935546875e+01,-2.221860364079475403e-02,9.038223266601562500e+01,2.043862477876245975e-04,-3.688238561153411865e-02,5.527289867401123047e+00,-8.200482852771528997e-07,-2.364720916375517845e-03,3.663151860237121582e-01,-6.445523467846214771e-06,6.831509619951248169e-02,3.403119044378399849e-04,-7.663350552320480347e-04,1.000000000000000000e+00,8.583068620282574557e-07,0.000000000000000000e+00
1.419137001037597656e+00,9.700000000000000000e+01,0.000000000000000000e+00,-1.209598159790039062e+01,-6.535015106201171875e+01,-6.535015106201171875e+01,-1.724622584879398346e-02,9.038224029541015625e+01,2.030914038186892867e-04,-3.712754696607589722e-02,5.564527988433837891e+00,-4.481572943859646330e-07,-7.457798812538385391e-03,1.132782101631164551e+00,1.131290900957537815e-05,1.654802709817886353e-01,1.207804423756897449e-03,-2.560025313869118690e-04,1.000000000000000000e+00,1.907348661234209430e-07,0.000000000000000000e+00
1.452010154724121094e+00,9.700000000000000000e+01,0.000000000000000000e+00,-1.209598159790039062e+01,-6.535015106201171875e+01,-6.535015106201171875e+01,-1.724622584879398346e-02,9.038224029541015625e+01,2.030914038186892867e-04,-3.712754696607589722e-02,5.564527988433837891e+00,-4.481572943859646330e-07,-7.457798812538385391e-03,1.132782101631164551e+00,1.131290900957537815e-05,1.654802709817886353e-01,1.207804423756897449e-03,-2.560025313869118690e-04,1.000000000000000000e+00,1.907348661234209430e-07,0.000000000000000000e+00
1.452010154724121094e+00,9.700000000000000000e+01,0.000000000000000000e+00,-1.209855079650878906e+01,-6.496498870849609375e+01,-6.496498870849609375e+01,-3.346792655065655708e-04,9.038235473632812500e+01,1.768613292369991541e-04,-3.782115131616592407e-02,5.668658733367919922e+00,4.577093193347536726e-07,-1.343160867691040039e-02,2.015657901763916016e+00,-2.034564931818749756e-05,3.054150342941284180e-01,2.590026473626494408e-03,2.076596254482865334e-03,5.000000000000000000e-01,-3.814697322468418861e-07,0.000000000000000000e+00
1.487627744674682617e+00,9.700000000000000000e+01,0.000000000000000000e+00,-1.209855079650878906e+01,-6.496498870849609375e+01,-6.496498870849609375e+01,-3.346792655065655708e-04,9.038235473632812500e+01,1.768613292369991541e-04,-3.782115131616592407e-02,5.668658733367919922e+00,4.577093193347536726e-07,-1.343160867691040039e-02,2.015657901763916016e+00,-2.034564931818749756e-05,3.054150342941284180e-01,2.590026473626494408e-03,2.076596254482865334e-03,5.000000000000000000e-01,-3.814697322468418861e-07,0.000000000000000000e+00
1.487627744674682617e+00,9.700000000000000000e+01,0.000000000000000000e+00,-1.209855079650878906e+01,-6.496498870849609375e+01,-6.496498870849609375e+01,-3.346792655065655708e-04,9.038235473632812500e+01,1.768613292369991541e-04,-3.782115131616592407e-02,5.668658733367919922e+00,4.577093193347536726e-07,-1.343160867691040039e-02,2.015657901763916016e+00,-2.034564931818749756e-05,3.054150342941284180e-01,2.590026473626494408e-03,2.076596254482865334e-03,5.000000000000000000e-01,-3.814697322468418861e-07,0.000000000000000000e+00
1.487627744674682617e+00,9.700000000000000000e+01,0.000000000000000000e+00,-1.209983634948730469e+01,-6.477224731445312500e+01,-6.477224731445312500e+01,1.085999980568885803e-02,9.038242340087890625e+01,1.529401197331026196e-04,-3.822452574968338013e-02,5.729047775268554688e+00,5.530689008992339950e-07,-1.184670254588127136e-02,1.773565649986267090e+00,2.800615220621693879e-06,3.388675749301910400e-01,3.024548524990677834e-03,1.968132797628641129e-03,5.000000000000000000e-01,-1.239776565853389911e-06,0.000000000000000000e+00
1.555419683456420898e+00,9.700000000000000000e+01,0.000000000000000000e+00,-1.209983634948730469e+01,-6.477224731445312500e+01,-6.477224731445312500e+01,1.085999980568885803e-02,9.038242340087890625e+01,1.529401197331026196e-04,-3.822452574968338013e-02,5.729047775268554688e+00,5.530689008992339950e-07,-1.184670254588127136e-02,1.773565649986267090e+00,2.800615220621693879e-06,3.388675749301910400e-01,3.024548524990677834e-03,1.968132797628641129e-03,5.000000000000000000e-01,-1.239776565853389911e-06,0.000000000000000000e+00
1.589122533798217773e+00,9.700000000000000000e+01,0.000000000000000000e+00,-1.210114383697509766e+01,-6.457599639892578125e+01,-6.457599639892578125e+01,2.190441638231277466e-02,9.038247680664062500e+01,1.225832238560542464e-04,-3.853010013699531555e-02,5.774936199188232422e+00,5.149257162884168793e-07,-9.066722355782985687e-03,1.361559152603149414e+00,-1.131749513660906814e-06,3.110589385032653809e-01,2.971633104607462883e-03,1.753835473209619522e-03,5.000000000000000000e-01,-2.479553131706779823e-06,0.000000000000000000e+00
1.589122533798217773e+00,9.700000000000000000e+01,0.000000000000000000e+00,-1.210114383697509766e+01,-6.457599639892578125e+01,-6.457599639892578125e+01,2.190441638231277466e-02,9.038247680664062500e+01,1.225832238560542464e-04,-3.853010013699531555e-02,5.774936199188232422e+00,5.149257162884168793e-07,-9.066722355782985687e-03,1.361559152603149414e+00,-1.131749513660906814e-06,3.110589385032653809e-01,2.971633104607462883e-03,1.753835473209619522e-03,5.000000000000000000e-01,-2.479553131706779823e-06,0.000000000000000000e+00
1.621401309967041016e+00,9.700000000000000000e+01,0.000000000000000000e+00,-1.210244560241699219e+01,-6.438058471679687500e+01,-6.438058471679687500e+01,3.094075433909893036e-02,9.038250732421875000e+01,9.247937123291194439e-05,-3.873310610651969910e-02,5.805189609527587891e+00,1.144280531661934219e-06,-6.289146840572357178e-03,9.372539520263671875e-01,1.949748002516571432e-05,2.435478270053863525e-01,2.519415458664298058e-03,1.259429263882339001e-03,5.000000000000000000e-01,-3.147125198665889911e-06,0.000000000000000000e+00
1.621401309967041016e+00,9.700000000000000000e+01,0.000000000000000000e+00,-1.210244560241699219e+01,-6.438058471679687500e+01,-6.438058471679687500e+01,3.094075433909893036e-02,9.038250732421875000e+01,9.247937123291194439e-05,-3.873310610651969910e-02,5.805189609527587891e+00,1.144280531661934219e-06,-6.289146840572357178e-03,9.372539520263671875e-01,1.949748002516571432e-05,2.435478270053863525e-01,2.519415458664298058e-03,1.259429263882339001e-03,5.000000000000000000e-01,-3.147125198665889911e-06,0.000000000000000000e+00
1.621401309967041016e+00,9.700000000000000000e+01,0.000000000000000000e+00,-1.210369968414306641e+01,-6.419268798828125000e+01,-6.419268798828125000e+01,3.734747320413589478e-02,9.038254547119140625e+01,6.431317888200283051e-05,-3.885503113269805908e-02,5.823212623596191406e+00,-1.125154085457324982e-06,-3.564641810953617096e-03,5.269269943237304688e-01,-6.634996680077165365e-05,1.765594184398651123e-01,2.047225367277860641e-03,7.488453411497175694e-04,5.000000000000000000e-01,-3.719329924933845177e-06,0.000000000000000000e+00
1.655605316162109375e+00,9.700000000000000000e+01,0.000000000000000000e+00,-1.210369968414306641e+01,-6.419268798828125000e+01,-6.419268798828125000e+01,3.734747320413589478e-02,9.038254547119140625e+01,6.431317888200283051e-05,-3.885503113269805908e-02,5.823212623596191406e+00,-1.125154085457324982e-06,-3.564641810953617096e-03,5.269269943237304688e-01,-6.634996680077165365e-05,1.765594184398651123e-01,2.047225367277860641e-03,7.488453411497175694e-04,5.000000000000000000e-01,-3.719329924933845177e-06,0.000000000000000000e+00
1.655605316162109375e+00,9.700000000000000000e+01,0.000000000000000000e+00,-1.210369968414306641e+01,-6.419268798828125000e+01,-6.419268798828125000e+01,3.734747320413589478e-02,9.038254547119140625e+01,6.431317888200283051e-05,-3.885503113269805908e-02,5.823212623596191406e+00,-1.125154085457324982e-06,-3.564641810953617096e-03,5.269269943237304688e-01,-6.634996680077165365e-05,1.765594184398651123e-01,2.047225367277860641e-03,7.488453411497175694e-04,5.000000000000000000e-01,-3.719329924933845177e-06,0.000000000000000000e+00
1.655605316162109375e+00,9.700000000000000000e+01,0.000000000000000000e+00,-1.210369968414306641e+01,-6.419268798828125000e+01,-6.419268798828125000e+01,3.734747320413589478e-02,9.038254547119140625e+01,6.431317888200283051e-05,-3.885503113269805908e-02,5.823212623596191406e+00,-1.125154085457324982e-06,-3.564641810953617096e-03,5.269269943237304688e-01,-6.634996680077165365e-05,1.765594184398651123e-01,2.047225367277860641e-03,7.488453411497175694e-04,5.000000000000000000e-01,-3.719329924933845177e-06,0.000000000000000000e+00
1.719997167587280273e+00,9.700000000000000000e+01,0.000000000000000000e+00,-1.210625839233398438e+01,-6.380907440185546875e+01,-6.380907440185546875e+01,4.188954830169677734e-02,9.038254547119140625e+01,2.557819607318378985e-05,-3.891380876302719116e-02,5.831533908843994141e+00,-1.411215180269209668e-06,-1.092292077373713255e-04,5.246635526418685913e-03,3.545986328390426934e-05,9.607684798538684845e-03,4.752087988890707493e-04,-1.053796004271134734e-04,5.000000000000000000e-01,-4.005431947007309645e-06,0.000000000000000000e+00
1.719997167587280273e+00,9.700000000000000000e+01,0.000000000000000000e+00,-1.210753345489501953e+01,-6.361790466308593750e+01,-6.361790466308593750e+01,4.053717106580734253e-02,9.038254547119140625e+01,1.676865031186025590e-05,-3.887440264225006104e-02,5.825226306915283203e+00,2.288442857434347388e-07,1.176806166768074036e-03,-1.883673071861267090e-01,4.897797771263867617e-05,-5.670366063714027405e-02,-1.548210275359451771e-04,-3.697607317008078098e-04,5.000000000000000000e-01,-3.623962356869014911e-06,0.000000000000000000e+00
1.753482818603515625e+00,9.700000000000000000e+01,0.000000000000000000e+00,-1.210753345489501953e+01,-6.361790466308593750e+01,-6.361790466308593750e+01,4.053717106580734253e-02,9.038254547119140625e+01,1.676865031186025590e-05,-3.887440264225006104e-02,5.825226306915283203e+00,2.288442857434347388e-07,1.176806166768074036e-03,-1.883673071861267090e-01,4.897797771263867617e-05,-5.670366063714027405e-02,-1.548210275359451771e-04,-3.697607317008078098e-04,5.000000000000000000e-01,-3.623962356869014911e-06,0.000000000000000000e+00
1.789474248886108398e+00,9.700000000000000000e+01,0.000000000000000000e+00,-1.210883426666259766e+01,-6.342313385009765625e+01,-6.342313385009765625e+01,3.752505779266357422e-02,9.038250732421875000e+01,1.697375591902527958e-05,-3.879196569323539734e-02,5.812765598297119141e+00,-1.334994976787129417e-07,2.290460513904690742e-03,-3.462131917476654053e-01,-1.006750153464963660e-05,-1.072243526577949524e-01,-7.885370287112891674e-04,-6.896272534504532814e-04,5.000000000000000000e-01,-3.623962356869014911e-06,0.000000000000000000e+00
1.789474248886108398e+00,9.700000000000000000e+01,0.000000000000000000e+00,-1.210883426666259766e+01,-6.342313385009765625e+01,-6.342313385009765625e+01,3.752505779266357422e-02,9.038250732421875000e+01,1.697375591902527958e-05,-3.879196569323539734e-02,5.812765598297119141e+00,-1.334994976787129417e-07,2.290460513904690742e-03,-3.462131917476654053e-01,-1.006750153464963660e-05,-1.072243526577949524e-01,-7.885370287112891674e-04,-6.896272534504532814e-04,5.000000000000000000e-01,-3.623962356869014911e-06,0.000000000000000000e+00
1.824508666992187500e+00,9.700000000000000000e+01,0.000000000000000000e+00,-1.211022758483886719e+01,-6.321437454223632812e+01,-6.321437454223632812e+01,3.256633877754211426e-02,9.038249206542968750e+01,2.304522240592632443e-05,-3.867468610405921936e-02,5.795041561126708984e+00,-1.001237933451193385e-06,3.347553545609116554e-03,-5.059035420417785645e-01,-2.476817098795436323e-05,-1.505899280309677124e-01,-1.250683795660734177e-03,-8.140300051309168339e-04,5.000000000000000000e-01,-3.051757857974735089e-06,0.000000000000000000e+00
1.824508666992187500e+00,9.700000000000000000e+01,0.000000000000000000e+00,-1.211022758483886719e+01,-6.321437454223632812e+01,-6.321437454223632812e+01,3.256633877754211426e-02,9.038249206542968750e+01,2.304522240592632443e-05,-3.867468610405921936e-02,5.795041561126708984e+00,-1.001237933451193385e-06,3.347553545609116554e-03,-5.059035420417785645e-01,-2.476817098795436323e-05,-1.505899280309677124e-01,-1.250683795660734177e-03,-8.140300051309168339e-04,5.000000000000000000e-01,-3.051757857974735089e-06,0.000000000000000000e+00
1.824508666992187500e+00,9.700000000000000000e+01,0.000000000000000000e+00,-1.211158084869384766e+01,-6.301188278198242188e+01,-6.301188278198242188e+01,2.661724574863910675e-02,9.038244628906250000e+01,3.544328137650154531e-05,-3.853242099285125732e-02,5.773779392242431641e+00,-7.056365234348049853e-07,4.165379330515861511e-03,-6.225349307060241699e-01,8.654912562633398920e-06,-1.778231859207153320e-01,-1.555508235469460487e-03,-1.010891865007579327e-03,5.000000000000000000e-01,-3.051757857974735089e-06,0.000000000000000000e+00
1.858662843704223633e+00,9.700000000000000000e+01,0.000000000000000000e+00,-1.211158084869384766e+01,-6.301188278198242188e+01,-6.301188278198242188e+01,2.661724574863910675e-02,9.038244628906250000e+01,3.544328137650154531e-05,-3.853242099285125732e-02,5.773779392242431641e+00,-7.056365234348049853e-07,4.165379330515861511e-03,-6.225349307060241699e-01,8.654912562633398920e-06,-1.778231859207153320e-01,-1.555508235469460487e-03,-1.010891865007579327e-03,5.000000000000000000e-01,-3.051757857974735089e-06,0.000000000000000000e+00
1.858662843704223633e+00,9.700000000000000000e+01,0.000000000000000000e+00,-1.211158084869384766e+01,-6.301188278198242188e+01,-6.301188278198242188e+01,2.661724574863910675e-02,9.038244628906250000e+01,3.544328137650154531e-05,-3.853242099285125732e-02,5.773779392242431641e+00,-7.056365234348049853e-07,4.165379330515861511e-03,-6.225349307060241699e-01,8.654912562633398920e-06,-1.778231859207153320e-01,-1.555508235469460487e-03,-1.010891865007579327e-03,5.000000000000000000e-01,-3.051757857974735089e-06,0.000000000000000000e+00
1.858662843704223633e+00,9.700000000000000000e+01,0.000000000000000000e+00,-1.211289310455322266e+01,-6.281526184082031250e+01,-6.281526184082031250e+01,2.020369842648506165e-02,9.038242340087890625e+01,5.126644100528210402e-05,-3.837668150663375854e-02,5.750528335571289062e+00,-6.388889914887840860e-07,4.431907087564468384e-03,-6.616595387458801270e-01,1.899446715469821356e-06,-1.925561130046844482e-01,-1.744822831824421883e-03,-1.078712404705584049e-03,5.000000000000000000e-01,-2.765655608527595177e-06,0.000000000000000000e+00
1.893803358078002930e+00,9.700000000000000000e+01,0.000000000000000000e+00,-1.211289310455322266e+01,-6.281526184082031250e+01,-6.281526184082031250e+01,2.020369842648506165e-02,9.038242340087890625e+01,5.126644100528210402e-05,-3.837668150663375854e-02,5.750528335571289062e+00,-6.388889914887840860e-07,4.431907087564468384e-03,-6.616595387458801270e-01,1.899446715469821356e-06,-1.925561130046844482e-01,-1.744822831824421883e-03,-1.078712404705584049e-03,5.000000000000000000e-01,-2.765655608527595177e-06,0.000000000000000000e+00
1.893803358078002930e+00,9.700000000000000000e+01,0.000000000000000000e+00,-1.211289310455322266e+01,-6.281526184082031250e+01,-6.281526184082031250e+01,2.020369842648506165e-02,9.038242340087890625e+01,5.126644100528210402e-05,-3.837668150663375854e-02,5.750528335571289062e+00,-6.388889914887840860e-07,4.431907087564468384e-03,-6.616595387458801270e-01,1.899446715469821356e-06,-1.925561130046844482e-01,-1.744822831824421883e-03,-1.078712404705584049e-03,5.000000000000000000e-01,-2.765655608527595177e-06,0.000000000000000000e+00
1.930771350860595703e+00,9.700000000000000000e+01,0.000000000000000000e+00,-1.211423778533935547e+01,-6.261384582519531250e+01,-6.261384582519531250e+01,1.323007605969905853e-02,9.038238525390625000e+01,7.056388858472928405e-05,-3.820215910673141479e-02,5.724311828613281250e+00,-4.577100298774894327e-07,4.720905330032110214e-03,-7.091677188873291016e-01,4.900968178844777867e-06,-1.998730748891830444e-01,-1.898738322779536247e-03,-1.145966467447578907e-03,5.000000000000000000e-01,-2.098083541568485089e-06,0.000000000000000000e+00
1.930771350860595703e+00,9.700000000000000000e+01,0.000000000000000000e+00,-1.211423778533935547e+01,-6.261384582519531250e+01,-6.261384582519531250e+01,1.323007605969905853e-02,9.038238525390625000e+01,7.056388858472928405e-05,-3.820215910673141479e-02,5.724311828613281250e+00,-4.577100298774894327e-07,4.720905330032110214e-03,-7.091677188873291016e-01,4.900968178844777867e-06,-1.998730748891830444e-01,-1.898738322779536247e-03,-1.145966467447578907e-03,5.000000000000000000e-01,-2.098083541568485089e-06,0.000000000000000000e+00
1.965768575668334961e+00,9.700000000000000000e+01,0.000000000000000000e+00,-1.211697006225585938e+01,-6.220441436767578125e+01,-6.220441436767578125e+01,-9.152452694252133369e-04,9.038231658935546875e+01,1.140004023909568787e-04,-3.781155124306678772e-02,5.666181564331054688e+00,-5.530665703190607019e-07,5.193020217120647430e-03,-7.742770910263061523e-01,-5.866944775334559381e-06,-1.900883167982101440e-01,-1.895002205856144428e-03,-1.198835554532706738e-03,5.000000000000000000e-01,-1.525878928987367544e-06,0.000000000000000000e+00
2.003151178359985352e+00,9.700000000000000000e+01,0.000000000000000000e+00,-1.211697006225585938e+01,-6.220441436767578125e+01,-6.220441436767578125e+01,-9.152452694252133369e-04,9.038231658935546875e+01,1.140004023909568787e-04,-3.781155124306678772e-02,5.666181564331054688e+00,-5.530665703190607019e-07,5.193020217120647430e-03,-7.742770910263061523e-01,-5.866944775334559381e-06,-1.900883167982101440e-01,-1.895002205856144428e-03,-1.198835554532706738e-03,5.000000000000000000e-01,-1.525878928987367544e-06,0.000000000000000000e+00
2.003151178359985352e+00,9.700000000000000000e+01,0.000000000000000000e+00,-1.211837863922119141e+01,-6.199344253540039062e+01,-6.199344253540039062e+01,-7.806906010955572128e-03,9.038229370117187500e+01,1.362294133286923170e-04,-3.760026022791862488e-02,5.634537696838378906e+00,-8.200576644412649330e-07,5.515083204954862595e-03,-8.259630203247070312e-01,-6.968957677599973977e-06,-1.790588796138763428e-01,-1.790323876775801182e-03,-1.130511052906513214e-03,5.000000000000000000e-01,-7.629394644936837722e-07,0.000000000000000000e+00
2.041462659835815430e+00,9.700000000000000000e+01,0.000000000000000000e+00,-1.211837863922119141e+01,-6.199344253540039062e+01,-6.199344253540039062e+01,-7.806906010955572128e-03,9.038229370117187500e+01,1.362294133286923170e-04,-3.760026022791862488e-02,5.634537696838378906e+00,-8.200576644412649330e-07,5.515083204954862595e-03,-8.259630203247070312e-01,-6.968957677599973977e-06,-1.790588796138763428e-01,-1.790323876775801182e-03,-1.130511052906513214e-03,5.000000000000000000e-01,-7.629394644936837722e-07,0.000000000000000000e+00
