# Time,X,Y,Z,Roll,Pitch,Yaw,Vx,Vy,Vz,Ax,Ay,Az,Wx,Wy,Wz,Throttle,Steer,Brake
0.000000000000000000e+00,2.140985298156738281e+01,2.375372772216796875e+02,2.375372772216796875e+02,-2.626344263553619385e-01,-4.609374701976776123e-01,1.664033234119415283e-01,7.077788352966308594e+00,-5.897752195596694946e-02,6.665240653092041612e-05,2.084769606590270996e-01,-1.115537132136523724e-03,-8.951685595093294978e-05,5.345906019210815430e-01,-2.390788555145263672e+00,4.549982026219367981e-03,1.000000000000000000e+00,0.000000000000000000e+00,0.000000000000000000e+00
1.045818328857421875e-01,2.140985298156738281e+01,2.375372772216796875e+02,2.375372772216796875e+02,-2.626344263553619385e-01,-4.609374701976776123e-01,1.664033234119415283e-01,7.077788352966308594e+00,-5.897752195596694946e-02,6.665240653092041612e-05,2.084769606590270996e-01,-1.115537132136523724e-03,-8.951685595093294978e-05,5.345906019210815430e-01,-2.390788555145263672e+00,4.549982026219367981e-03,1.000000000000000000e+00,0.000000000000000000e+00,0.000000000000000000e+00
1.045818328857421875e-01,2.140985298156738281e+01,2.375372772216796875e+02,2.375372772216796875e+02,-2.626344263553619385e-01,-4.609374701976776123e-01,1.664033234119415283e-01,7.077788352966308594e+00,-5.897752195596694946e-02,6.665240653092041612e-05,2.084769606590270996e-01,-1.115537132136523724e-03,-8.951685595093294978e-05,5.345906019210815430e-01,-2.390788555145263672e+00,4.549982026219367981e-03,1.000000000000000000e+00,0.000000000000000000e+00,0.000000000000000000e+00
1.045818328857421875e-01,2.140985298156738281e+01,2.375372772216796875e+02,2.375372772216796875e+02,-2.626344263553619385e-01,-4.609374701976776123e-01,1.664033234119415283e-01,7.077788352966308594e+00,-5.897752195596694946e-02,6.665240653092041612e-05,2.084769606590270996e-01,-1.115537132136523724e-03,-8.951685595093294978e-05,5.345906019210815430e-01,-2.390788555145263672e+00,4.549982026219367981e-03,1.000000000000000000e+00,0.000000000000000000e+00,0.000000000000000000e+00
1.045818328857421875e-01,2.140985298156738281e+01,2.375372772216796875e+02,2.375372772216796875e+02,-2.626344263553619385e-01,-4.609374701976776123e-01,1.664033234119415283e-01,7.077788352966308594e+00,-5.897752195596694946e-02,6.665240653092041612e-05,2.084769606590270996e-01,-1.115537132136523724e-03,-8.951685595093294978e-05,5.345906019210815430e-01,-2.390788555145263672e+00,4.549982026219367981e-03,1.000000000000000000e+00,0.000000000000000000e+00,0.000000000000000000e+00
1.045818328857421875e-01,2.140985298156738281e+01,2.375372772216796875e+02,2.375372772216796875e+02,-2.626344263553619385e-01,-4.609374701976776123e-01,1.664033234119415283e-01,7.077788352966308594e+00,-5.897752195596694946e-02,6.665240653092041612e-05,2.084769606590270996e-01,-1.115537132136523724e-03,-8.951685595093294978e-05,5.345906019210815430e-01,-2.390788555145263672e+00,4.549982026219367981e-03,1.000000000000000000e+00,0.000000000000000000e+00,0.000000000000000000e+00
1.045818328857421875e-01,2.212020874023437500e+01,2.375341491699218750e+02,2.375341491699218750e+02,-1.278064996004104614e-01,-2.708739936351776123e-01,1.441910564899444580e-01,6.972096443176269531e+00,-3.759216144680976868e-02,1.556137067382223904e-05,-1.009387850761413574e+00,2.042362987995147705e-01,-4.879339830949902534e-04,-1.622625440359115601e-02,-3.127188682556152344e+00,2.130547523498535156e+00,1.000000000000000000e+00,1.570946536958217621e-02,0.000000000000000000e+00
2.092907428741455078e-01,2.212020874023437500e+01,2.375341491699218750e+02,2.375341491699218750e+02,-1.278064996004104614e-01,-2.708739936351776123e-01,1.441910564899444580e-01,6.972096443176269531e+00,-3.759216144680976868e-02,1.556137067382223904e-05,-1.009387850761413574e+00,2.042362987995147705e-01,-4.879339830949902534e-04,-1.622625440359115601e-02,-3.127188682556152344e+00,2.130547523498535156e+00,1.000000000000000000e+00,1.570946536958217621e-02,0.000000000000000000e+00
2.092907428741455078e-01,2.212020874023437500e+01,2.375341491699218750e+02,2.375341491699218750e+02,-1.278064996004104614e-01,-2.708739936351776123e-01,1.441910564899444580e-01,6.972096443176269531e+00,-3.759216144680976868e-02,1.556137067382223904e-05,-1.009387850761413574e+00,2.042362987995147705e-01,-4.879339830949902534e-04,-1.622625440359115601e-02,-3.127188682556152344e+00,2.130547523498535156e+00,1.000000000000000000e+00,1.570946536958217621e-02,0.000000000000000000e+00
2.092907428741455078e-01,2.212020874023437500e+01,2.375341491699218750e+02,2.375341491699218750e+02,-1.278064996004104614e-01,-2.708739936351776123e-01,1.441910564899444580e-01,6.972096443176269531e+00,-3.759216144680976868e-02,1.556137067382223904e-05,-1.009387850761413574e+00,2.042362987995147705e-01,-4.879339830949902534e-04,-1.622625440359115601e-02,-3.127188682556152344e+00,2.130547523498535156e+00,1.000000000000000000e+00,1.570946536958217621e-02,0.000000000000000000e+00
2.092907428741455078e-01,2.212020874023437500e+01,2.375341491699218750e+02,2.375341491699218750e+02,-1.278064996004104614e-01,-2.708739936351776123e-01,1.441910564899444580e-01,6.972096443176269531e+00,-3.759216144680976868e-02,1.556137067382223904e-05,-1.009387850761413574e+00,2.042362987995147705e-01,-4.879339830949902534e-04,-1.622625440359115601e-02,-3.127188682556152344e+00,2.130547523498535156e+00,1.000000000000000000e+00,1.570946536958217621e-02,0.000000000000000000e+00
2.092907428741455078e-01,2.282614517211914062e+01,2.375327911376953125e+02,2.375327911376953125e+02,-4.791377484798431396e-02,-1.072082668542861938e-01,1.648933142423629761e-01,6.923623085021972656e+00,-1.659906841814517975e-02,-2.309414230694528669e-05,-6.496151685714721680e-01,2.813386917114257812e-01,-5.180413718335330486e-04,-3.216229081153869629e-01,-2.808404684066772461e+00,1.513669967651367188e+00,1.000000000000000000e+00,1.057747378945350647e-02,0.000000000000000000e+00
2.839093208312988281e-01,2.282614517211914062e+01,2.375327911376953125e+02,2.375327911376953125e+02,-4.791377484798431396e-02,-1.072082668542861938e-01,1.648933142423629761e-01,6.923623085021972656e+00,-1.659906841814517975e-02,-2.309414230694528669e-05,-6.496151685714721680e-01,2.813386917114257812e-01,-5.180413718335330486e-04,-3.216229081153869629e-01,-2.808404684066772461e+00,1.513669967651367188e+00,1.000000000000000000e+00,1.057747378945350647e-02,0.000000000000000000e+00
2.839093208312988281e-01,2.282614517211914062e+01,2.375327911376953125e+02,2.375327911376953125e+02,-4.791377484798431396e-02,-1.072082668542861938e-01,1.648933142423629761e-01,6.923623085021972656e+00,-1.659906841814517975e-02,-2.309414230694528669e-05,-6.496151685714721680e-01,2.813386917114257812e-01,-5.180413718335330486e-04,-3.216229081153869629e-01,-2.808404684066772461e+00,1.513669967651367188e+00,1.000000000000000000e+00,1.057747378945350647e-02,0.000000000000000000e+00
2.839093208312988281e-01,2.282614517211914062e+01,2.375327911376953125e+02,2.375327911376953125e+02,-4.791377484798431396e-02,-1.072082668542861938e-01,1.648933142423629761e-01,6.923623085021972656e+00,-1.659906841814517975e-02,-2.309414230694528669e-05,-6.496151685714721680e-01,2.813386917114257812e-01,-5.180413718335330486e-04,-3.216229081153869629e-01,-2.808404684066772461e+00,1.513669967651367188e+00,1.000000000000000000e+00,1.057747378945350647e-02,0.000000000000000000e+00
2.839093208312988281e-01,2.282614517211914062e+01,2.375327911376953125e+02,2.375327911376953125e+02,-4.791377484798431396e-02,-1.072082668542861938e-01,1.648933142423629761e-01,6.923623085021972656e+00,-1.659906841814517975e-02,-2.309414230694528669e-05,-6.496151685714721680e-01,2.813386917114257812e-01,-5.180413718335330486e-04,-3.216229081153869629e-01,-2.808404684066772461e+00,1.513669967651367188e+00,1.000000000000000000e+00,1.057747378945350647e-02,0.000000000000000000e+00
3.569011688232421875e-01,2.335123252868652344e+01,2.375325012207031250e+02,2.375325012207031250e+02,-3.915064036846160889e-02,-3.796386346220970154e-02,1.855108439922332764e-01,7.081827640533447266e+00,-6.309477612376213074e-03,-3.629142520367167890e-05,2.167427778244018555e+00,1.409690380096435547e-01,-1.808048837119713426e-04,-2.402782440185546875e-01,1.005039453506469727e+00,7.811446785926818848e-01,1.000000000000000000e+00,5.113400984555482864e-03,0.000000000000000000e+00
3.569011688232421875e-01,2.335123252868652344e+01,2.375325012207031250e+02,2.375325012207031250e+02,-3.915064036846160889e-02,-3.796386346220970154e-02,1.855108439922332764e-01,7.081827640533447266e+00,-6.309477612376213074e-03,-3.629142520367167890e-05,2.167427778244018555e+00,1.409690380096435547e-01,-1.808048837119713426e-04,-2.402782440185546875e-01,1.005039453506469727e+00,7.811446785926818848e-01,1.000000000000000000e+00,5.113400984555482864e-03,0.000000000000000000e+00
3.569011688232421875e-01,2.335123252868652344e+01,2.375325012207031250e+02,2.375325012207031250e+02,-3.915064036846160889e-02,-3.796386346220970154e-02,1.855108439922332764e-01,7.081827640533447266e+00,-6.309477612376213074e-03,-3.629142520367167890e-05,2.167427778244018555e+00,1.409690380096435547e-01,-1.808048837119713426e-04,-2.402782440185546875e-01,1.005039453506469727e+00,7.811446785926818848e-01,1.000000000000000000e+00,5.113400984555482864e-03,0.000000000000000000e+00
3.569011688232421875e-01,2.335123252868652344e+01,2.375325012207031250e+02,2.375325012207031250e+02,-3.915064036846160889e-02,-3.796386346220970154e-02,1.855108439922332764e-01,7.081827640533447266e+00,-6.309477612376213074e-03,-3.629142520367167890e-05,2.167427778244018555e+00,1.409690380096435547e-01,-1.808048837119713426e-04,-2.402782440185546875e-01,1.005039453506469727e+00,7.811446785926818848e-01,1.000000000000000000e+00,5.113400984555482864e-03,0.000000000000000000e+00
4.765405654907226562e-01,2.387774848937988281e+01,2.375325775146484375e+02,2.375325775146484375e+02,-1.926932930946350098e-01,1.629799138754606247e-03,1.936871111392974854e-01,7.332991600036621094e+00,-6.652898155152797699e-04,-4.796281427843496203e-05,2.099341630935668945e+00,4.717666655778884888e-02,-9.755473001860082150e-05,-1.871717534959316254e-02,2.434050321578979492e+00,4.499710798263549805e-01,1.000000000000000000e+00,2.577496459707617760e-03,0.000000000000000000e+00
4.765405654907226562e-01,2.387774848937988281e+01,2.375325775146484375e+02,2.375325775146484375e+02,-1.926932930946350098e-01,1.629799138754606247e-03,1.936871111392974854e-01,7.332991600036621094e+00,-6.652898155152797699e-04,-4.796281427843496203e-05,2.099341630935668945e+00,4.717666655778884888e-02,-9.755473001860082150e-05,-1.871717534959316254e-02,2.434050321578979492e+00,4.499710798263549805e-01,1.000000000000000000e+00,2.577496459707617760e-03,0.000000000000000000e+00
4.765405654907226562e-01,2.387774848937988281e+01,2.375325775146484375e+02,2.375325775146484375e+02,-1.926932930946350098e-01,1.629799138754606247e-03,1.936871111392974854e-01,7.332991600036621094e+00,-6.652898155152797699e-04,-4.796281427843496203e-05,2.099341630935668945e+00,4.717666655778884888e-02,-9.755473001860082150e-05,-1.871717534959316254e-02,2.434050321578979492e+00,4.499710798263549805e-01,1.000000000000000000e+00,2.577496459707617760e-03,0.000000000000000000e+00
4.765405654907226562e-01,2.387774848937988281e+01,2.375325775146484375e+02,2.375325775146484375e+02,-1.926932930946350098e-01,1.629799138754606247e-03,1.936871111392974854e-01,7.332991600036621094e+00,-6.652898155152797699e-04,-4.796281427843496203e-05,2.099341630935668945e+00,4.717666655778884888e-02,-9.755473001860082150e-05,-1.871717534959316254e-02,2.434050321578979492e+00,4.499710798263549805e-01,1.000000000000000000e+00,2.577496459707617760e-03,0.000000000000000000e+00
4.765405654907226562e-01,2.387774848937988281e+01,2.375325775146484375e+02,2.375325775146484375e+02,-1.926932930946350098e-01,1.629799138754606247e-03,1.936871111392974854e-01,7.332991600036621094e+00,-6.652898155152797699e-04,-4.796281427843496203e-05,2.099341630935668945e+00,4.717666655778884888e-02,-9.755473001860082150e-05,-1.871717534959316254e-02,2.434050321578979492e+00,4.499710798263549805e-01,1.000000000000000000e+00,2.577496459707617760e-03,0.000000000000000000e+00
4.765405654907226562e-01,2.387774848937988281e+01,2.375325775146484375e+02,2.375325775146484375e+02,-1.926932930946350098e-01,1.629799138754606247e-03,1.936871111392974854e-01,7.332991600036621094e+00,-6.652898155152797699e-04,-4.796281427843496203e-05,2.099341630935668945e+00,4.717666655778884888e-02,-9.755473001860082150e-05,-1.871717534959316254e-02,2.434050321578979492e+00,4.499710798263549805e-01,1.000000000000000000e+00,2.577496459707617760e-03,0.000000000000000000e+00
4.765405654907226562e-01,2.387774848937988281e+01,2.375325775146484375e+02,2.375325775146484375e+02,-1.926932930946350098e-01,1.629799138754606247e-03,1.936871111392974854e-01,7.332991600036621094e+00,-6.652898155152797699e-04,-4.796281427843496203e-05,2.099341630935668945e+00,4.717666655778884888e-02,-9.755473001860082150e-05,-1.871717534959316254e-02,2.434050321578979492e+00,4.499710798263549805e-01,1.000000000000000000e+00,2.577496459707617760e-03,0.000000000000000000e+00
6.200885772705078125e-01,2.464005088806152344e+01,2.375329589843750000e+02,2.375329589843750000e+02,-4.938363134860992432e-01,2.458377182483673096e-02,1.753310859203338623e-01,7.784646511077880859e+00,2.068997826427221298e-03,-8.402376988669857383e-05,3.146368265151977539e+00,1.904789730906486511e-02,-2.512118080630898476e-04,3.119483292102813721e-01,1.693424463272094727e+00,1.624009907245635986e-01,1.000000000000000000e+00,8.023034315556287766e-04,0.000000000000000000e+00
6.200885772705078125e-01,2.464005088806152344e+01,2.375329589843750000e+02,2.375329589843750000e+02,-4.938363134860992432e-01,2.458377182483673096e-02,1.753310859203338623e-01,7.784646511077880859e+00,2.068997826427221298e-03,-8.402376988669857383e-05,3.146368265151977539e+00,1.904789730906486511e-02,-2.512118080630898476e-04,3.119483292102813721e-01,1.693424463272094727e+00,1.624009907245635986e-01,1.000000000000000000e+00,8.023034315556287766e-04,0.000000000000000000e+00
6.200885772705078125e-01,2.464005088806152344e+01,2.375329589843750000e+02,2.375329589843750000e+02,-4.938363134860992432e-01,2.458377182483673096e-02,1.753310859203338623e-01,7.784646511077880859e+00,2.068997826427221298e-03,-8.402376988669857383e-05,3.146368265151977539e+00,1.904789730906486511e-02,-2.512118080630898476e-04,3.119483292102813721e-01,1.693424463272094727e+00,1.624009907245635986e-01,1.000000000000000000e+00,8.023034315556287766e-04,0.000000000000000000e+00
6.200885772705078125e-01,2.464005088806152344e+01,2.375329589843750000e+02,2.375329589843750000e+02,-4.938363134860992432e-01,2.458377182483673096e-02,1.753310859203338623e-01,7.784646511077880859e+00,2.068997826427221298e-03,-8.402376988669857383e-05,3.146368265151977539e+00,1.904789730906486511e-02,-2.512118080630898476e-04,3.119483292102813721e-01,1.693424463272094727e+00,1.624009907245635986e-01,1.000000000000000000e+00,8.023034315556287766e-04,0.000000000000000000e+00
6.200885772705078125e-01,2.464005088806152344e+01,2.375329589843750000e+02,2.375329589843750000e+02,-4.938363134860992432e-01,2.458377182483673096e-02,1.753310859203338623e-01,7.784646511077880859e+00,2.068997826427221298e-03,-8.402376988669857383e-05,3.146368265151977539e+00,1.904789730906486511e-02,-2.512118080630898476e-04,3.119483292102813721e-01,1.693424463272094727e+00,1.624009907245635986e-01,1.000000000000000000e+00,8.023034315556287766e-04,0.000000000000000000e+00
6.200885772705078125e-01,2.464005088806152344e+01,2.375329589843750000e+02,2.375329589843750000e+02,-4.938363134860992432e-01,2.458377182483673096e-02,1.753310859203338623e-01,7.784646511077880859e+00,2.068997826427221298e-03,-8.402376988669857383e-05,3.146368265151977539e+00,1.904789730906486511e-02,-2.512118080630898476e-04,3.119483292102813721e-01,1.693424463272094727e+00,1.624009907245635986e-01,1.000000000000000000e+00,8.023034315556287766e-04,0.000000000000000000e+00
7.946169376373291016e-01,2.544978713989257812e+01,2.375334320068359375e+02,2.375334320068359375e+02,-6.885103583335876465e-01,2.947086654603481293e-02,1.317536234855651855e-01,8.261061668395996094e+00,2.416172064840793610e-03,-5.517039971891790628e-05,2.729729175567626953e+00,1.989213982596993446e-03,1.653219514992088079e-04,4.973790049552917480e-01,6.892995834350585938e-01,6.144729908555746078e-03,1.000000000000000000e+00,-1.503597304690629244e-04,0.000000000000000000e+00
7.946169376373291016e-01,2.544978713989257812e+01,2.375334320068359375e+02,2.375334320068359375e+02,-6.885103583335876465e-01,2.947086654603481293e-02,1.317536234855651855e-01,8.261061668395996094e+00,2.416172064840793610e-03,-5.517039971891790628e-05,2.729729175567626953e+00,1.989213982596993446e-03,1.653219514992088079e-04,4.973790049552917480e-01,6.892995834350585938e-01,6.144729908555746078e-03,1.000000000000000000e+00,-1.503597304690629244e-04,0.000000000000000000e+00
7.946169376373291016e-01,2.544978713989257812e+01,2.375334320068359375e+02,2.375334320068359375e+02,-6.885103583335876465e-01,2.947086654603481293e-02,1.317536234855651855e-01,8.261061668395996094e+00,2.416172064840793610e-03,-5.517039971891790628e-05,2.729729175567626953e+00,1.989213982596993446e-03,1.653219514992088079e-04,4.973790049552917480e-01,6.892995834350585938e-01,6.144729908555746078e-03,1.000000000000000000e+00,-1.503597304690629244e-04,0.000000000000000000e+00
8.783230781555175781e-01,2.630603027343750000e+01,2.375338745117187500e+02,2.375338745117187500e+02,-7.840237021446228027e-01,2.708854526281356812e-02,7.979580760002136230e-02,8.731863021850585938e+00,2.091828268021345139e-03,1.361619888484710827e-05,5.624454498291015625e+00,-3.874791087582707405e-03,8.217628928832709789e-04,5.139461755752563477e-01,1.573035120964050293e-01,-4.279629886150360107e-02,1.000000000000000000e+00,-3.697653592098504305e-04,0.000000000000000000e+00
8.783230781555175781e-01,2.630603027343750000e+01,2.375338745117187500e+02,2.375338745117187500e+02,-7.840237021446228027e-01,2.708854526281356812e-02,7.979580760002136230e-02,8.731863021850585938e+00,2.091828268021345139e-03,1.361619888484710827e-05,5.624454498291015625e+00,-3.874791087582707405e-03,8.217628928832709789e-04,5.139461755752563477e-01,1.573035120964050293e-01,-4.279629886150360107e-02,1.000000000000000000e+00,-3.697653592098504305e-04,0.000000000000000000e+00
8.783230781555175781e-01,2.630603027343750000e+01,2.375338745117187500e+02,2.375338745117187500e+02,-7.840237021446228027e-01,2.708854526281356812e-02,7.979580760002136230e-02,8.731863021850585938e+00,2.091828268021345139e-03,1.361619888484710827e-05,5.624454498291015625e+00,-3.874791087582707405e-03,8.217628928832709789e-04,5.139461755752563477e-01,1.573035120964050293e-01,-4.279629886150360107e-02,1.000000000000000000e+00,-3.697653592098504305e-04,0.000000000000000000e+00
9.483780860900878906e-01,2.705731201171875000e+01,2.375341491699218750e+02,2.375341491699218750e+02,-8.209545612335205078e-01,2.485914900898933411e-02,4.105171188712120056e-02,9.131543159484863281e+00,2.050267299637198448e-03,6.246648263186216354e-05,5.705233097076416016e+00,-5.932619096711277962e-04,6.973132258281111717e-04,4.236989021301269531e-01,2.639201879501342773e-01,-2.929825149476528168e-02,1.000000000000000000e+00,-1.941092341439798474e-04,0.000000000000000000e+00
9.483780860900878906e-01,2.705731201171875000e+01,2.375341491699218750e+02,2.375341491699218750e+02,-8.209545612335205078e-01,2.485914900898933411e-02,4.105171188712120056e-02,9.131543159484863281e+00,2.050267299637198448e-03,6.246648263186216354e-05,5.705233097076416016e+00,-5.932619096711277962e-04,6.973132258281111717e-04,4.236989021301269531e-01,2.639201879501342773e-01,-2.929825149476528168e-02,1.000000000000000000e+00,-1.941092341439798474e-04,0.000000000000000000e+00
9.483780860900878906e-01,2.705731201171875000e+01,2.375341491699218750e+02,2.375341491699218750e+02,-8.209545612335205078e-01,2.485914900898933411e-02,4.105171188712120056e-02,9.131543159484863281e+00,2.050267299637198448e-03,6.246648263186216354e-05,5.705233097076416016e+00,-5.932619096711277962e-04,6.973132258281111717e-04,4.236989021301269531e-01,2.639201879501342773e-01,-2.929825149476528168e-02,1.000000000000000000e+00,-1.941092341439798474e-04,0.000000000000000000e+00
9.483780860900878906e-01,2.705731201171875000e+01,2.375341491699218750e+02,2.375341491699218750e+02,-8.209545612335205078e-01,2.485914900898933411e-02,4.105171188712120056e-02,9.131543159484863281e+00,2.050267299637198448e-03,6.246648263186216354e-05,5.705233097076416016e+00,-5.932619096711277962e-04,6.973132258281111717e-04,4.236989021301269531e-01,2.639201879501342773e-01,-2.929825149476528168e-02,1.000000000000000000e+00,-1.941092341439798474e-04,0.000000000000000000e+00
9.483780860900878906e-01,2.771024894714355469e+01,2.375344543457031250e+02,2.375344543457031250e+02,-8.346217274665832520e-01,2.458722703158855438e-02,1.569505594670772552e-02,9.446427345275878906e+00,2.368127461522817612e-03,8.434067422058433294e-05,3.996042251586914062e+00,4.033809062093496323e-03,2.775947505142539740e-04,3.181686699390411377e-01,1.412063390016555786e-01,1.115892082452774048e-04,1.000000000000000000e+00,6.461136945290490985e-05,0.000000000000000000e+00
1.027177095413208008e+00,2.771024894714355469e+01,2.375344543457031250e+02,2.375344543457031250e+02,-8.346217274665832520e-01,2.458722703158855438e-02,1.569505594670772552e-02,9.446427345275878906e+00,2.368127461522817612e-03,8.434067422058433294e-05,3.996042251586914062e+00,4.033809062093496323e-03,2.775947505142539740e-04,3.181686699390411377e-01,1.412063390016555786e-01,1.115892082452774048e-04,1.000000000000000000e+00,6.461136945290490985e-05,0.000000000000000000e+00
1.027177095413208008e+00,2.771024894714355469e+01,2.375344543457031250e+02,2.375344543457031250e+02,-8.346217274665832520e-01,2.458722703158855438e-02,1.569505594670772552e-02,9.446427345275878906e+00,2.368127461522817612e-03,8.434067422058433294e-05,3.996042251586914062e+00,4.033809062093496323e-03,2.775947505142539740e-04,3.181686699390411377e-01,1.412063390016555786e-01,1.115892082452774048e-04,1.000000000000000000e+00,6.461136945290490985e-05,0.000000000000000000e+00
1.095043420791625977e+00,2.847115325927734375e+01,2.375347595214843750e+02,2.375347595214843750e+02,-8.411514163017272949e-01,2.642885409295558929e-02,-3.417968517169356346e-03,9.796525001525878906e+00,3.140142885968089104e-03,9.221530490322038531e-05,5.158635616302490234e+00,1.137552969157695770e-02,1.160314859589561820e-04,1.903979629278182983e-01,5.100891739130020142e-02,2.815545164048671722e-02,1.000000000000000000e+00,2.421085373498499393e-04,0.000000000000000000e+00
1.095043420791625977e+00,2.847115325927734375e+01,2.375347595214843750e+02,2.375347595214843750e+02,-8.411514163017272949e-01,2.642885409295558929e-02,-3.417968517169356346e-03,9.796525001525878906e+00,3.140142885968089104e-03,9.221530490322038531e-05,5.158635616302490234e+00,1.137552969157695770e-02,1.160314859589561820e-04,1.903979629278182983e-01,5.100891739130020142e-02,2.815545164048671722e-02,1.000000000000000000e+00,2.421085373498499393e-04,0.000000000000000000e+00
1.095043420791625977e+00,2.847115325927734375e+01,2.375347595214843750e+02,2.375347595214843750e+02,-8.411514163017272949e-01,2.642885409295558929e-02,-3.417968517169356346e-03,9.796525001525878906e+00,3.140142885968089104e-03,9.221530490322038531e-05,5.158635616302490234e+00,1.137552969157695770e-02,1.160314859589561820e-04,1.903979629278182983e-01,5.100891739130020142e-02,2.815545164048671722e-02,1.000000000000000000e+00,2.421085373498499393e-04,0.000000000000000000e+00
1.095043420791625977e+00,2.847115325927734375e+01,2.375347595214843750e+02,2.375347595214843750e+02,-8.411514163017272949e-01,2.642885409295558929e-02,-3.417968517169356346e-03,9.796525001525878906e+00,3.140142885968089104e-03,9.221530490322038531e-05,5.158635616302490234e+00,1.137552969157695770e-02,1.160314859589561820e-04,1.903979629278182983e-01,5.100891739130020142e-02,2.815545164048671722e-02,1.000000000000000000e+00,2.421085373498499393e-04,0.000000000000000000e+00
1.168572425842285156e+00,2.914821624755859375e+01,2.375350799560546875e+02,2.375350799560546875e+02,-8.428931236267089844e-01,2.779409103095531464e-02,-1.214599609375000000e-02,1.009626674652099609e+01,3.904346842318773270e-03,9.149263496510684490e-05,4.076509952545166016e+00,1.039323117583990097e-02,-9.828365364228375256e-06,9.187883138656616211e-02,1.336528267711400986e-02,1.220930274575948715e-02,1.000000000000000000e+00,6.011861114529892802e-05,0.000000000000000000e+00
1.168572425842285156e+00,2.914821624755859375e+01,2.375350799560546875e+02,2.375350799560546875e+02,-8.428931236267089844e-01,2.779409103095531464e-02,-1.214599609375000000e-02,1.009626674652099609e+01,3.904346842318773270e-03,9.149263496510684490e-05,4.076509952545166016e+00,1.039323117583990097e-02,-9.828365364228375256e-06,9.187883138656616211e-02,1.336528267711400986e-02,1.220930274575948715e-02,1.000000000000000000e+00,6.011861114529892802e-05,0.000000000000000000e+00
1.168572425842285156e+00,2.914821624755859375e+01,2.375350799560546875e+02,2.375350799560546875e+02,-8.428931236267089844e-01,2.779409103095531464e-02,-1.214599609375000000e-02,1.009626674652099609e+01,3.904346842318773270e-03,9.149263496510684490e-05,4.076509952545166016e+00,1.039323117583990097e-02,-9.828365364228375256e-06,9.187883138656616211e-02,1.336528267711400986e-02,1.220930274575948715e-02,1.000000000000000000e+00,6.011861114529892802e-05,0.000000000000000000e+00
1.168572425842285156e+00,2.914821624755859375e+01,2.375350799560546875e+02,2.375350799560546875e+02,-8.428931236267089844e-01,2.779409103095531464e-02,-1.214599609375000000e-02,1.009626674652099609e+01,3.904346842318773270e-03,9.149263496510684490e-05,4.076509952545166016e+00,1.039323117583990097e-02,-9.828365364228375256e-06,9.187883138656616211e-02,1.336528267711400986e-02,1.220930274575948715e-02,1.000000000000000000e+00,6.011861114529892802e-05,0.000000000000000000e+00
1.168572425842285156e+00,2.990484046936035156e+01,2.375353851318359375e+02,2.375353851318359375e+02,-8.429887294769287109e-01,2.831666916608810425e-02,-1.547240838408470154e-02,1.041914176940917969e+01,4.620575346052646637e-03,8.987058390630409122e-05,4.302221298217773438e+00,9.543548338115215302e-03,-2.161338670703116804e-05,1.788888871669769287e-02,-4.608469083905220032e-03,3.839830867946147919e-03,1.000000000000000000e+00,6.369334005285054445e-05,0.000000000000000000e+00
1.243620872497558594e+00,2.990484046936035156e+01,2.375353851318359375e+02,2.375353851318359375e+02,-8.429887294769287109e-01,2.831666916608810425e-02,-1.547240838408470154e-02,1.041914176940917969e+01,4.620575346052646637e-03,8.987058390630409122e-05,4.302221298217773438e+00,9.543548338115215302e-03,-2.161338670703116804e-05,1.788888871669769287e-02,-4.608469083905220032e-03,3.839830867946147919e-03,1.000000000000000000e+00,6.369334005285054445e-05,0.000000000000000000e+00
1.243620872497558594e+00,2.990484046936035156e+01,2.375353851318359375e+02,2.375353851318359375e+02,-8.429887294769287109e-01,2.831666916608810425e-02,-1.547240838408470154e-02,1.041914176940917969e+01,4.620575346052646637e-03,8.987058390630409122e-05,4.302221298217773438e+00,9.543548338115215302e-03,-2.161338670703116804e-05,1.788888871669769287e-02,-4.608469083905220032e-03,3.839830867946147919e-03,1.000000000000000000e+00,6.369334005285054445e-05,0.000000000000000000e+00
1.243620872497558594e+00,2.990484046936035156e+01,2.375353851318359375e+02,2.375353851318359375e+02,-8.429887294769287109e-01,2.831666916608810425e-02,-1.547240838408470154e-02,1.041914176940917969e+01,4.620575346052646637e-03,8.987058390630409122e-05,4.302221298217773438e+00,9.543548338115215302e-03,-2.161338670703116804e-05,1.788888871669769287e-02,-4.608469083905220032e-03,3.839830867946147919e-03,1.000000000000000000e+00,6.369334005285054445e-05,0.000000000000000000e+00
1.312042951583862305e+00,3.070154953002929688e+01,2.375357513427734375e+02,2.375357513427734375e+02,-8.422579169273376465e-01,2.759912423789501190e-02,-1.477050874382257462e-02,1.074675178527832031e+01,5.050778388977050781e-03,8.421587699558585882e-05,4.788074493408203125e+00,6.287488620728254318e-03,-8.264448115369305015e-05,-2.333255484700202942e-02,-1.211912743747234344e-02,-1.545055769383907318e-02,1.000000000000000000e+00,-9.058074647327885032e-05,0.000000000000000000e+00
1.312042951583862305e+00,3.070154953002929688e+01,2.375357513427734375e+02,2.375357513427734375e+02,-8.422579169273376465e-01,2.759912423789501190e-02,-1.477050874382257462e-02,1.074675178527832031e+01,5.050778388977050781e-03,8.421587699558585882e-05,4.788074493408203125e+00,6.287488620728254318e-03,-8.264448115369305015e-05,-2.333255484700202942e-02,-1.211912743747234344e-02,-1.545055769383907318e-02,1.000000000000000000e+00,-9.058074647327885032e-05,0.000000000000000000e+00
1.383129358291625977e+00,3.144906997680664062e+01,2.375361328125000000e+02,2.375361328125000000e+02,-8.413426280021667480e-01,2.636373043060302734e-02,-1.251220796257257462e-02,1.104373168945312500e+01,5.210225470364093781e-03,8.042187982937321067e-05,4.177731037139892578e+00,2.243003807961940765e-03,-5.337162656360305846e-05,-3.749543428421020508e-02,-1.417283155024051666e-02,-1.798610389232635498e-02,1.000000000000000000e+00,-7.804396591382101178e-05,0.000000000000000000e+00
1.383129358291625977e+00,3.144906997680664062e+01,2.375361328125000000e+02,2.375361328125000000e+02,-8.413426280021667480e-01,2.636373043060302734e-02,-1.251220796257257462e-02,1.104373168945312500e+01,5.210225470364093781e-03,8.042187982937321067e-05,4.177731037139892578e+00,2.243003807961940765e-03,-5.337162656360305846e-05,-3.749543428421020508e-02,-1.417283155024051666e-02,-1.798610389232635498e-02,1.000000000000000000e+00,-7.804396591382101178e-05,0.000000000000000000e+00
1.383129358291625977e+00,3.144906997680664062e+01,2.375361328125000000e+02,2.375361328125000000e+02,-8.413426280021667480e-01,2.636373043060302734e-02,-1.251220796257257462e-02,1.104373168945312500e+01,5.210225470364093781e-03,8.042187982937321067e-05,4.177731037139892578e+00,2.243003807961940765e-03,-5.337162656360305846e-05,-3.749543428421020508e-02,-1.417283155024051666e-02,-1.798610389232635498e-02,1.000000000000000000e+00,-7.804396591382101178e-05,0.000000000000000000e+00
1.450951814651489258e+00,3.224722671508789062e+01,2.375364990234375000e+02,2.375364990234375000e+02,-8.402907848358154297e-01,2.517892047762870789e-02,-9.704588912427425385e-03,1.135056781768798828e+01,5.234149750322103500e-03,7.693150109844282269e-05,4.524108409881591797e+00,3.527486405801028013e-04,-5.146346666151657701e-05,-3.887192159891128540e-02,-1.481606159359216690e-02,-1.472708769142627716e-02,1.000000000000000000e+00,-6.651791773037984967e-05,0.000000000000000000e+00
1.450951814651489258e+00,3.224722671508789062e+01,2.375364990234375000e+02,2.375364990234375000e+02,-8.402907848358154297e-01,2.517892047762870789e-02,-9.704588912427425385e-03,1.135056781768798828e+01,5.234149750322103500e-03,7.693150109844282269e-05,4.524108409881591797e+00,3.527486405801028013e-04,-5.146346666151657701e-05,-3.887192159891128540e-02,-1.481606159359216690e-02,-1.472708769142627716e-02,1.000000000000000000e+00,-6.651791773037984967e-05,0.000000000000000000e+00
1.450951814651489258e+00,3.224722671508789062e+01,2.375364990234375000e+02,2.375364990234375000e+02,-8.402907848358154297e-01,2.517892047762870789e-02,-9.704588912427425385e-03,1.135056781768798828e+01,5.234149750322103500e-03,7.693150109844282269e-05,4.524108409881591797e+00,3.527486405801028013e-04,-5.146346666151657701e-05,-3.887192159891128540e-02,-1.481606159359216690e-02,-1.472708769142627716e-02,1.000000000000000000e+00,-6.651791773037984967e-05,0.000000000000000000e+00
1.527701377868652344e+00,3.302891159057617188e+01,2.375368652343750000e+02,2.375368652343750000e+02,-8.392935991287231445e-01,2.398657985031604767e-02,-7.324218750000000000e-03,1.164166927337646484e+01,5.160386674106121063e-03,7.457674655597656965e-05,3.792874574661254883e+00,-9.610879351384937763e-04,-3.068101432290859520e-05,-3.270288556814193726e-02,-1.460826490074396133e-02,-1.809093356132507324e-02,1.000000000000000000e+00,-1.243605656782165170e-04,0.000000000000000000e+00
1.527701377868652344e+00,3.302891159057617188e+01,2.375368652343750000e+02,2.375368652343750000e+02,-8.392935991287231445e-01,2.398657985031604767e-02,-7.324218750000000000e-03,1.164166927337646484e+01,5.160386674106121063e-03,7.457674655597656965e-05,3.792874574661254883e+00,-9.610879351384937763e-04,-3.068101432290859520e-05,-3.270288556814193726e-02,-1.460826490074396133e-02,-1.809093356132507324e-02,1.000000000000000000e+00,-1.243605656782165170e-04,0.000000000000000000e+00
1.527701377868652344e+00,3.302891159057617188e+01,2.375368652343750000e+02,2.375368652343750000e+02,-8.392935991287231445e-01,2.398657985031604767e-02,-7.324218750000000000e-03,1.164166927337646484e+01,5.160386674106121063e-03,7.457674655597656965e-05,3.792874574661254883e+00,-9.610879351384937763e-04,-3.068101432290859520e-05,-3.270288556814193726e-02,-1.460826490074396133e-02,-1.809093356132507324e-02,1.000000000000000000e+00,-1.243605656782165170e-04,0.000000000000000000e+00
1.600134611129760742e+00,3.393750000000000000e+01,2.375372467041015625e+02,2.375372467041015625e+02,-8.381665945053100586e-01,2.245058305561542511e-02,-5.249022971838712692e-03,1.196915054321289062e+01,4.999316297471523285e-03,7.318326970562338829e-05,4.521146774291992188e+00,-2.223708201199769974e-03,-1.923808667925186455e-05,-2.221113070845603943e-02,-1.446054875850677490e-02,-2.020194195210933685e-02,1.000000000000000000e+00,-1.369834499200806022e-04,0.000000000000000000e+00
1.600134611129760742e+00,3.393750000000000000e+01,2.375372467041015625e+02,2.375372467041015625e+02,-8.381665945053100586e-01,2.245058305561542511e-02,-5.249022971838712692e-03,1.196915054321289062e+01,4.999316297471523285e-03,7.318326970562338829e-05,4.521146774291992188e+00,-2.223708201199769974e-03,-1.923808667925186455e-05,-2.221113070845603943e-02,-1.446054875850677490e-02,-2.020194195210933685e-02,1.000000000000000000e+00,-1.369834499200806022e-04,0.000000000000000000e+00
1.600134611129760742e+00,3.393750000000000000e+01,2.375372467041015625e+02,2.375372467041015625e+02,-8.381665945053100586e-01,2.245058305561542511e-02,-5.249022971838712692e-03,1.196915054321289062e+01,4.999316297471523285e-03,7.318326970562338829e-05,4.521146774291992188e+00,-2.223708201199769974e-03,-1.923808667925186455e-05,-2.221113070845603943e-02,-1.446054875850677490e-02,-2.020194195210933685e-02,1.000000000000000000e+00,-1.369834499200806022e-04,0.000000000000000000e+00
1.600134611129760742e+00,3.393750000000000000e+01,2.375372467041015625e+02,2.375372467041015625e+02,-8.381665945053100586e-01,2.245058305561542511e-02,-5.249022971838712692e-03,1.196915054321289062e+01,4.999316297471523285e-03,7.318326970562338829e-05,4.521146774291992188e+00,-2.223708201199769974e-03,-1.923808667925186455e-05,-2.221113070845603943e-02,-1.446054875850677490e-02,-2.020194195210933685e-02,1.000000000000000000e+00,-1.369834499200806022e-04,0.000000000000000000e+00
1.600134611129760742e+00,3.393750000000000000e+01,2.375372467041015625e+02,2.375372467041015625e+02,-8.381665945053100586e-01,2.245058305561542511e-02,-5.249022971838712692e-03,1.196915054321289062e+01,4.999316297471523285e-03,7.318326970562338829e-05,4.521146774291992188e+00,-2.223708201199769974e-03,-1.923808667925186455e-05,-2.221113070845603943e-02,-1.446054875850677490e-02,-2.020194195210933685e-02,1.000000000000000000e+00,-1.369834499200806022e-04,0.000000000000000000e+00
1.600134611129760742e+00,3.481783294677734375e+01,2.375376129150390625e+02,2.375376129150390625e+02,-8.371557593345642090e-01,2.110323496162891388e-02,-4.089355003088712692e-03,1.227628612518310547e+01,4.811600781977176666e-03,7.097169873304665089e-05,2.661974430084228516e+00,-1.626948942430317402e-03,-1.916790461109485477e-05,-1.206779293715953827e-02,-1.388576254248619080e-02,-1.730591431260108948e-02,1.000000000000000000e+00,-1.127683863160200417e-04,0.000000000000000000e+00
1.715513467788696289e+00,3.481783294677734375e+01,2.375376129150390625e+02,2.375376129150390625e+02,-8.371557593345642090e-01,2.110323496162891388e-02,-4.089355003088712692e-03,1.227628612518310547e+01,4.811600781977176666e-03,7.097169873304665089e-05,2.661974430084228516e+00,-1.626948942430317402e-03,-1.916790461109485477e-05,-1.206779293715953827e-02,-1.388576254248619080e-02,-1.730591431260108948e-02,1.000000000000000000e+00,-1.127683863160200417e-04,0.000000000000000000e+00
1.715513467788696289e+00,3.481783294677734375e+01,2.375376129150390625e+02,2.375376129150390625e+02,-8.371557593345642090e-01,2.110323496162891388e-02,-4.089355003088712692e-03,1.227628612518310547e+01,4.811600781977176666e-03,7.097169873304665089e-05,2.661974430084228516e+00,-1.626948942430317402e-03,-1.916790461109485477e-05,-1.206779293715953827e-02,-1.388576254248619080e-02,-1.730591431260108948e-02,1.000000000000000000e+00,-1.127683863160200417e-04,0.000000000000000000e+00
1.715513467788696289e+00,3.607007598876953125e+01,2.375380859375000000e+02,2.375380859375000000e+02,-8.357760310173034668e-01,1.945685595273971558e-02,-3.509521950036287308e-03,1.269724178314208984e+01,4.548361059278249741e-03,7.240995910251513124e-05,4.312997341156005859e+00,-2.697082702070474625e-03,1.473602515034144744e-05,-2.243971452116966248e-03,-1.357702910900115967e-02,-1.603222824633121490e-02,1.000000000000000000e+00,-1.156175494543276727e-04,0.000000000000000000e+00
1.813115119934082031e+00,3.607007598876953125e+01,2.375380859375000000e+02,2.375380859375000000e+02,-8.357760310173034668e-01,1.945685595273971558e-02,-3.509521950036287308e-03,1.269724178314208984e+01,4.548361059278249741e-03,7.240995910251513124e-05,4.312997341156005859e+00,-2.697082702070474625e-03,1.473602515034144744e-05,-2.243971452116966248e-03,-1.357702910900115967e-02,-1.603222824633121490e-02,1.000000000000000000e+00,-1.156175494543276727e-04,0.000000000000000000e+00
1.813115119934082031e+00,3.607007598876953125e+01,2.375380859375000000e+02,2.375380859375000000e+02,-8.357760310173034668e-01,1.945685595273971558e-02,-3.509521950036287308e-03,1.269724178314208984e+01,4.548361059278249741e-03,7.240995910251513124e-05,4.312997341156005859e+00,-2.697082702070474625e-03,1.473602515034144744e-05,-2.243971452116966248e-03,-1.357702910900115967e-02,-1.603222824633121490e-02,1.000000000000000000e+00,-1.156175494543276727e-04,0.000000000000000000e+00
1.813115119934082031e+00,3.607007598876953125e+01,2.375380859375000000e+02,2.375380859375000000e+02,-8.357760310173034668e-01,1.945685595273971558e-02,-3.509521950036287308e-03,1.269724178314208984e+01,4.548361059278249741e-03,7.240995910251513124e-05,4.312997341156005859e+00,-2.697082702070474625e-03,1.473602515034144744e-05,-2.243971452116966248e-03,-1.357702910900115967e-02,-1.603222824633121490e-02,1.000000000000000000e+00,-1.156175494543276727e-04,0.000000000000000000e+00
1.813115119934082031e+00,3.733257293701171875e+01,2.375385284423828125e+02,2.375385284423828125e+02,-8.344646692276000977e-01,1.828488148748874664e-02,-3.540038829669356346e-03,1.310459041595458984e+01,4.352470394223928452e-03,7.267723412951454520e-05,4.906648159027099609e+00,-2.359567442908883095e-03,3.219415702915284783e-06,1.292921369895339012e-03,-1.312270574271678925e-02,-1.023012865334749222e-02,1.000000000000000000e+00,-7.356404967140406370e-05,0.000000000000000000e+00
1.896134853363037109e+00,3.733257293701171875e+01,2.375385284423828125e+02,2.375385284423828125e+02,-8.344646692276000977e-01,1.828488148748874664e-02,-3.540038829669356346e-03,1.310459041595458984e+01,4.352470394223928452e-03,7.267723412951454520e-05,4.906648159027099609e+00,-2.359567442908883095e-03,3.219415702915284783e-06,1.292921369895339012e-03,-1.312270574271678925e-02,-1.023012865334749222e-02,1.000000000000000000e+00,-7.356404967140406370e-05,0.000000000000000000e+00
1.896134853363037109e+00,3.733257293701171875e+01,2.375385284423828125e+02,2.375385284423828125e+02,-8.344646692276000977e-01,1.828488148748874664e-02,-3.540038829669356346e-03,1.310459041595458984e+01,4.352470394223928452e-03,7.267723412951454520e-05,4.906648159027099609e+00,-2.359567442908883095e-03,3.219415702915284783e-06,1.292921369895339012e-03,-1.312270574271678925e-02,-1.023012865334749222e-02,1.000000000000000000e+00,-7.356404967140406370e-05,0.000000000000000000e+00
1.896134853363037109e+00,3.733257293701171875e+01,2.375385284423828125e+02,2.375385284423828125e+02,-8.344646692276000977e-01,1.828488148748874664e-02,-3.540038829669356346e-03,1.310459041595458984e+01,4.352470394223928452e-03,7.267723412951454520e-05,4.906648159027099609e+00,-2.359567442908883095e-03,3.219415702915284783e-06,1.292921369895339012e-03,-1.312270574271678925e-02,-1.023012865334749222e-02,1.000000000000000000e+00,-7.356404967140406370e-05,0.000000000000000000e+00
1.896134853363037109e+00,3.733257293701171875e+01,2.375385284423828125e+02,2.375385284423828125e+02,-8.344646692276000977e-01,1.828488148748874664e-02,-3.540038829669356346e-03,1.310459041595458984e+01,4.352470394223928452e-03,7.267723412951454520e-05,4.906648159027099609e+00,-2.359567442908883095e-03,3.219415702915284783e-06,1.292921369895339012e-03,-1.312270574271678925e-02,-1.023012865334749222e-02,1.000000000000000000e+00,-7.356404967140406370e-05,0.000000000000000000e+00
1.896134853363037109e+00,3.733257293701171875e+01,2.375385284423828125e+02,2.375385284423828125e+02,-8.344646692276000977e-01,1.828488148748874664e-02,-3.540038829669356346e-03,1.310459041595458984e+01,4.352470394223928452e-03,7.267723412951454520e-05,4.906648159027099609e+00,-2.359567442908883095e-03,3.219415702915284783e-06,1.292921369895339012e-03,-1.312270574271678925e-02,-1.023012865334749222e-02,1.000000000000000000e+00,-7.356404967140406370e-05,0.000000000000000000e+00
1.896134853363037109e+00,3.733257293701171875e+01,2.375385284423828125e+02,2.375385284423828125e+02,-8.344646692276000977e-01,1.828488148748874664e-02,-3.540038829669356346e-03,1.310459041595458984e+01,4.352470394223928452e-03,7.267723412951454520e-05,4.906648159027099609e+00,-2.359567442908883095e-03,3.219415702915284783e-06,1.292921369895339012e-03,-1.312270574271678925e-02,-1.023012865334749222e-02,1.000000000000000000e+00,-7.356404967140406370e-05,0.000000000000000000e+00
1.896134853363037109e+00,3.733257293701171875e+01,2.375385284423828125e+02,2.375385284423828125e+02,-8.344646692276000977e-01,1.828488148748874664e-02,-3.540038829669356346e-03,1.310459041595458984e+01,4.352470394223928452e-03,7.267723412951454520e-05,4.906648159027099609e+00,-2.359567442908883095e-03,3.219415702915284783e-06,1.292921369895339012e-03,-1.312270574271678925e-02,-1.023012865334749222e-02,1.000000000000000000e+00,-7.356404967140406370e-05,0.000000000000000000e+00
2.195794820785522461e+00,4.103944778442382812e+01,2.375397186279296875e+02,2.375397186279296875e+02,-8.310495615005493164e-01,1.648620888590812683e-02,-3.234863281250000000e-03,1.421580791473388672e+01,4.187519662082195282e-03,7.541508239228278399e-05,6.723517417907714844e+00,-3.375432570464909077e-04,3.722096153069287539e-05,-4.242375493049621582e-03,-1.222171448171138763e-02,-9.981906972825527191e-03,1.000000000000000000e+00,-5.700647307094186544e-05,0.000000000000000000e+00
2.195794820785522461e+00,4.103944778442382812e+01,2.375397186279296875e+02,2.375397186279296875e+02,-8.310495615005493164e-01,1.648620888590812683e-02,-3.234863281250000000e-03,1.421580791473388672e+01,4.187519662082195282e-03,7.541508239228278399e-05,6.723517417907714844e+00,-3.375432570464909077e-04,3.722096153069287539e-05,-4.242375493049621582e-03,-1.222171448171138763e-02,-9.981906972825527191e-03,1.000000000000000000e+00,-5.700647307094186544e-05,0.000000000000000000e+00
2.195794820785522461e+00,4.103944778442382812e+01,2.375397186279296875e+02,2.375397186279296875e+02,-8.310495615005493164e-01,1.648620888590812683e-02,-3.234863281250000000e-03,1.421580791473388672e+01,4.187519662082195282e-03,7.541508239228278399e-05,6.723517417907714844e+00,-3.375432570464909077e-04,3.722096153069287539e-05,-4.242375493049621582e-03,-1.222171448171138763e-02,-9.981906972825527191e-03,1.000000000000000000e+00,-5.700647307094186544e-05,0.000000000000000000e+00
2.195794820785522461e+00,4.103944778442382812e+01,2.375397186279296875e+02,2.375397186279296875e+02,-8.310495615005493164e-01,1.648620888590812683e-02,-3.234863281250000000e-03,1.421580791473388672e+01,4.187519662082195282e-03,7.541508239228278399e-05,6.723517417907714844e+00,-3.375432570464909077e-04,3.722096153069287539e-05,-4.242375493049621582e-03,-1.222171448171138763e-02,-9.981906972825527191e-03,1.000000000000000000e+00,-5.700647307094186544e-05,0.000000000000000000e+00
2.195794820785522461e+00,4.103944778442382812e+01,2.375397186279296875e+02,2.375397186279296875e+02,-8.310495615005493164e-01,1.648620888590812683e-02,-3.234863281250000000e-03,1.421580791473388672e+01,4.187519662082195282e-03,7.541508239228278399e-05,6.723517417907714844e+00,-3.375432570464909077e-04,3.722096153069287539e-05,-4.242375493049621582e-03,-1.222171448171138763e-02,-9.981906972825527191e-03,1.000000000000000000e+00,-5.700647307094186544e-05,0.000000000000000000e+00
2.195794820785522461e+00,4.103944778442382812e+01,2.375397186279296875e+02,2.375397186279296875e+02,-8.310495615005493164e-01,1.648620888590812683e-02,-3.234863281250000000e-03,1.421580791473388672e+01,4.187519662082195282e-03,7.541508239228278399e-05,6.723517417907714844e+00,-3.375432570464909077e-04,3.722096153069287539e-05,-4.242375493049621582e-03,-1.222171448171138763e-02,-9.981906972825527191e-03,1.000000000000000000e+00,-5.700647307094186544e-05,0.000000000000000000e+00
2.195794820785522461e+00,4.103944778442382812e+01,2.375397186279296875e+02,2.375397186279296875e+02,-8.310495615005493164e-01,1.648620888590812683e-02,-3.234863281250000000e-03,1.421580791473388672e+01,4.187519662082195282e-03,7.541508239228278399e-05,6.723517417907714844e+00,-3.375432570464909077e-04,3.722096153069287539e-05,-4.242375493049621582e-03,-1.222171448171138763e-02,-9.981906972825527191e-03,1.000000000000000000e+00,-5.700647307094186544e-05,0.000000000000000000e+00
2.195794820785522461e+00,4.103944778442382812e+01,2.375397186279296875e+02,2.375397186279296875e+02,-8.310495615005493164e-01,1.648620888590812683e-02,-3.234863281250000000e-03,1.421580791473388672e+01,4.187519662082195282e-03,7.541508239228278399e-05,6.723517417907714844e+00,-3.375432570464909077e-04,3.722096153069287539e-05,-4.242375493049621582e-03,-1.222171448171138763e-02,-9.981906972825527191e-03,1.000000000000000000e+00,-5.700647307094186544e-05,0.000000000000000000e+00
2.195794820785522461e+00,4.103944778442382812e+01,2.375397186279296875e+02,2.375397186279296875e+02,-8.310495615005493164e-01,1.648620888590812683e-02,-3.234863281250000000e-03,1.421580791473388672e+01,4.187519662082195282e-03,7.541508239228278399e-05,6.723517417907714844e+00,-3.375432570464909077e-04,3.722096153069287539e-05,-4.242375493049621582e-03,-1.222171448171138763e-02,-9.981906972825527191e-03,1.000000000000000000e+00,-5.700647307094186544e-05,0.000000000000000000e+00
2.195794820785522461e+00,4.103944778442382812e+01,2.375397186279296875e+02,2.375397186279296875e+02,-8.310495615005493164e-01,1.648620888590812683e-02,-3.234863281250000000e-03,1.421580791473388672e+01,4.187519662082195282e-03,7.541508239228278399e-05,6.723517417907714844e+00,-3.375432570464909077e-04,3.722096153069287539e-05,-4.242375493049621582e-03,-1.222171448171138763e-02,-9.981906972825527191e-03,1.000000000000000000e+00,-5.700647307094186544e-05,0.000000000000000000e+00
2.374083757400512695e+00,4.179831314086914062e+01,2.375399627685546875e+02,2.375399627685546875e+02,-8.006620407104492188e-01,1.709009893238544464e-02,-2.899169921875000000e-03,1.430140590667724609e+01,4.222905728965997696e-03,8.440804231213405728e-05,4.801082611083984375e-01,1.984759583137929440e-04,5.044036879553459585e-05,-7.199977990239858627e-03,-1.311637401580810547e+00,2.200952544808387756e-02,5.000000000000000000e-01,6.470729567809030414e-05,0.000000000000000000e+00
2.374083757400512695e+00,4.179831314086914062e+01,2.375399627685546875e+02,2.375399627685546875e+02,-8.006620407104492188e-01,1.709009893238544464e-02,-2.899169921875000000e-03,1.430140590667724609e+01,4.222905728965997696e-03,8.440804231213405728e-05,4.801082611083984375e-01,1.984759583137929440e-04,5.044036879553459585e-05,-7.199977990239858627e-03,-1.311637401580810547e+00,2.200952544808387756e-02,5.000000000000000000e-01,6.470729567809030414e-05,0.000000000000000000e+00
2.374083757400512695e+00,4.179831314086914062e+01,2.375399627685546875e+02,2.375399627685546875e+02,-8.006620407104492188e-01,1.709009893238544464e-02,-2.899169921875000000e-03,1.430140590667724609e+01,4.222905728965997696e-03,8.440804231213405728e-05,4.801082611083984375e-01,1.984759583137929440e-04,5.044036879553459585e-05,-7.199977990239858627e-03,-1.311637401580810547e+00,2.200952544808387756e-02,5.000000000000000000e-01,6.470729567809030414e-05,0.000000000000000000e+00
2.447860002517700195e+00,4.322305679321289062e+01,2.375404510498046875e+02,2.375404510498046875e+02,-5.519953966140747070e-01,1.863612420856952667e-02,-1.556396251544356346e-03,1.419001293182373047e+01,4.448501858860254288e-03,1.634134678170084953e-04,-1.509875893592834473e+00,3.057842375710606575e-03,1.070878934115171432e-03,-1.664466224610805511e-02,-2.664859294891357422e+00,1.401556376367807388e-02,5.000000000000000000e-01,4.078112397110089660e-05,0.000000000000000000e+00
2.447860002517700195e+00,4.322305679321289062e+01,2.375404510498046875e+02,2.375404510498046875e+02,-5.519953966140747070e-01,1.863612420856952667e-02,-1.556396251544356346e-03,1.419001293182373047e+01,4.448501858860254288e-03,1.634134678170084953e-04,-1.509875893592834473e+00,3.057842375710606575e-03,1.070878934115171432e-03,-1.664466224610805511e-02,-2.664859294891357422e+00,1.401556376367807388e-02,5.000000000000000000e-01,4.078112397110089660e-05,0.000000000000000000e+00
2.500878810882568359e+00,4.426718521118164062e+01,2.375407409667968750e+02,2.375407409667968750e+02,-3.770742416381835938e-01,1.898151449859142303e-02,-2.136230177711695433e-04,1.411006927490234375e+01,4.600080195814371109e-03,4.244178126100450754e-05,-1.507835745811462402e+00,2.858954016119241714e-03,-2.281674882397055626e-03,-1.769950799643993378e-02,-2.198257446289062500e+00,1.424196059815585613e-03,5.000000000000000000e-01,-1.355043332296190783e-05,0.000000000000000000e+00
2.500878810882568359e+00,4.426718521118164062e+01,2.375407409667968750e+02,2.375407409667968750e+02,-3.770742416381835938e-01,1.898151449859142303e-02,-2.136230177711695433e-04,1.411006927490234375e+01,4.600080195814371109e-03,4.244178126100450754e-05,-1.507835745811462402e+00,2.858954016119241714e-03,-2.281674882397055626e-03,-1.769950799643993378e-02,-2.198257446289062500e+00,1.424196059815585613e-03,5.000000000000000000e-01,-1.355043332296190783e-05,0.000000000000000000e+00
2.500878810882568359e+00,4.501385498046875000e+01,2.375409545898437500e+02,2.375409545898437500e+02,-2.750243842601776123e-01,1.901342533528804779e-02,6.877645500935614109e-04,1.405308055877685547e+01,4.657770507037639618e-03,-6.400213169399648905e-05,-9.607543349266052246e-01,9.725823183543980122e-04,-1.794503536075353622e-03,-1.498180720955133438e-02,-1.799012660980224609e+00,2.759069320745766163e-04,5.000000000000000000e-01,-5.812756626255577430e-06,0.000000000000000000e+00
2.560195446014404297e+00,4.501385498046875000e+01,2.375409545898437500e+02,2.375409545898437500e+02,-2.750243842601776123e-01,1.901342533528804779e-02,6.877645500935614109e-04,1.405308055877685547e+01,4.657770507037639618e-03,-6.400213169399648905e-05,-9.607543349266052246e-01,9.725823183543980122e-04,-1.794503536075353622e-03,-1.498180720955133438e-02,-1.799012660980224609e+00,2.759069320745766163e-04,5.000000000000000000e-01,-5.812756626255577430e-06,0.000000000000000000e+00
2.560195446014404297e+00,4.501385498046875000e+01,2.375409545898437500e+02,2.375409545898437500e+02,-2.750243842601776123e-01,1.901342533528804779e-02,6.877645500935614109e-04,1.405308055877685547e+01,4.657770507037639618e-03,-6.400213169399648905e-05,-9.607543349266052246e-01,9.725823183543980122e-04,-1.794503536075353622e-03,-1.498180720955133438e-02,-1.799012660980224609e+00,2.759069320745766163e-04,5.000000000000000000e-01,-5.812756626255577430e-06,0.000000000000000000e+00
2.618730545043945312e+00,4.584551239013671875e+01,2.375412597656250000e+02,2.375412597656250000e+02,-1.803238093852996826e-01,1.908399350941181183e-02,1.451367978006601334e-03,1.398962116241455078e+01,4.681902006268501282e-03,-1.513065944891422987e-04,-1.084125518798828125e+00,4.122569225728511810e-04,-1.491489121690392494e-03,-1.053816638886928558e-02,-1.444202780723571777e+00,1.484316308051347733e-03,5.000000000000000000e-01,4.947309662384213880e-06,0.000000000000000000e+00
2.618730545043945312e+00,4.584551239013671875e+01,2.375412597656250000e+02,2.375412597656250000e+02,-1.803238093852996826e-01,1.908399350941181183e-02,1.451367978006601334e-03,1.398962116241455078e+01,4.681902006268501282e-03,-1.513065944891422987e-04,-1.084125518798828125e+00,4.122569225728511810e-04,-1.491489121690392494e-03,-1.053816638886928558e-02,-1.444202780723571777e+00,1.484316308051347733e-03,5.000000000000000000e-01,4.947309662384213880e-06,0.000000000000000000e+00
2.677334070205688477e+00,4.666554641723632812e+01,2.375415802001953125e+02,2.375415802001953125e+02,-1.555507183074951172e-01,1.912165805697441101e-02,1.905912184156477451e-03,1.407702159881591797e+01,4.723807796835899353e-03,-2.082043065456673503e-04,1.491385340690612793e+00,7.150728488340973854e-04,-9.708923171274363995e-04,-6.173413246870040894e-03,8.935749530792236328e-01,1.601819822099059820e-04,5.000000000000000000e-01,2.047667919669038383e-07,0.000000000000000000e+00
2.677334070205688477e+00,4.666554641723632812e+01,2.375415802001953125e+02,2.375415802001953125e+02,-1.555507183074951172e-01,1.912165805697441101e-02,1.905912184156477451e-03,1.407702159881591797e+01,4.723807796835899353e-03,-2.082043065456673503e-04,1.491385340690612793e+00,7.150728488340973854e-04,-9.708923171274363995e-04,-6.173413246870040894e-03,8.935749530792236328e-01,1.601819822099059820e-04,5.000000000000000000e-01,2.047667919669038383e-07,0.000000000000000000e+00
2.677334070205688477e+00,4.666554641723632812e+01,2.375415802001953125e+02,2.375415802001953125e+02,-1.555507183074951172e-01,1.912165805697441101e-02,1.905912184156477451e-03,1.407702159881591797e+01,4.723807796835899353e-03,-2.082043065456673503e-04,1.491385340690612793e+00,7.150728488340973854e-04,-9.708923171274363995e-04,-6.173413246870040894e-03,8.935749530792236328e-01,1.601819822099059820e-04,5.000000000000000000e-01,2.047667919669038383e-07,0.000000000000000000e+00
2.677334070205688477e+00,4.666554641723632812e+01,2.375415802001953125e+02,2.375415802001953125e+02,-1.555507183074951172e-01,1.912165805697441101e-02,1.905912184156477451e-03,1.407702159881591797e+01,4.723807796835899353e-03,-2.082043065456673503e-04,1.491385340690612793e+00,7.150728488340973854e-04,-9.708923171274363995e-04,-6.173413246870040894e-03,8.935749530792236328e-01,1.601819822099059820e-04,5.000000000000000000e-01,2.047667919669038383e-07,0.000000000000000000e+00
2.755024909973144531e+00,4.749858474731445312e+01,2.375418853759765625e+02,2.375418853759765625e+02,-2.796347737312316895e-01,1.904690638184547424e-02,2.064809668809175491e-03,1.431353092193603516e+01,4.790635779500007629e-03,-2.389080909779295325e-04,3.044236898422241211e+00,8.601784356869757175e-04,-3.952046972699463367e-04,-1.774666365236043930e-03,2.546559810638427734e+00,-1.898395246826112270e-03,5.000000000000000000e-01,-1.383846029057167470e-05,0.000000000000000000e+00
2.755024909973144531e+00,4.749858474731445312e+01,2.375418853759765625e+02,2.375418853759765625e+02,-2.796347737312316895e-01,1.904690638184547424e-02,2.064809668809175491e-03,1.431353092193603516e+01,4.790635779500007629e-03,-2.389080909779295325e-04,3.044236898422241211e+00,8.601784356869757175e-04,-3.952046972699463367e-04,-1.774666365236043930e-03,2.546559810638427734e+00,-1.898395246826112270e-03,5.000000000000000000e-01,-1.383846029057167470e-05,0.000000000000000000e+00
2.755024909973144531e+00,4.749858474731445312e+01,2.375418853759765625e+02,2.375418853759765625e+02,-2.796347737312316895e-01,1.904690638184547424e-02,2.064809668809175491e-03,1.431353092193603516e+01,4.790635779500007629e-03,-2.389080909779295325e-04,3.044236898422241211e+00,8.601784356869757175e-04,-3.952046972699463367e-04,-1.774666365236043930e-03,2.546559810638427734e+00,-1.898395246826112270e-03,5.000000000000000000e-01,-1.383846029057167470e-05,0.000000000000000000e+00
2.830169916152954102e+00,4.862459945678710938e+01,2.375422821044921875e+02,2.375422821044921875e+02,-4.829421639442443848e-01,1.863182708621025085e-02,1.843541744165122509e-03,1.463364982604980469e+01,4.824279807507991791e-03,-1.998209336306899786e-04,4.260015487670898438e+00,4.477213951759040356e-04,5.201564054004848003e-04,4.411092959344387054e-03,2.445929765701293945e+00,-6.998974829912185669e-03,5.000000000000000000e-01,-4.437671304913237691e-05,0.000000000000000000e+00
2.830169916152954102e+00,4.862459945678710938e+01,2.375422821044921875e+02,2.375422821044921875e+02,-4.829421639442443848e-01,1.863182708621025085e-02,1.843541744165122509e-03,1.463364982604980469e+01,4.824279807507991791e-03,-1.998209336306899786e-04,4.260015487670898438e+00,4.477213951759040356e-04,5.201564054004848003e-04,4.411092959344387054e-03,2.445929765701293945e+00,-6.998974829912185669e-03,5.000000000000000000e-01,-4.437671304913237691e-05,0.000000000000000000e+00
2.830169916152954102e+00,4.862459945678710938e+01,2.375422821044921875e+02,2.375422821044921875e+02,-4.829421639442443848e-01,1.863182708621025085e-02,1.843541744165122509e-03,1.463364982604980469e+01,4.824279807507991791e-03,-1.998209336306899786e-04,4.260015487670898438e+00,4.477213951759040356e-04,5.201564054004848003e-04,4.411092959344387054e-03,2.445929765701293945e+00,-6.998974829912185669e-03,5.000000000000000000e-01,-4.437671304913237691e-05,0.000000000000000000e+00
2.830169916152954102e+00,4.862459945678710938e+01,2.375422821044921875e+02,2.375422821044921875e+02,-4.829421639442443848e-01,1.863182708621025085e-02,1.843541744165122509e-03,1.463364982604980469e+01,4.824279807507991791e-03,-1.998209336306899786e-04,4.260015487670898438e+00,4.477213951759040356e-04,5.201564054004848003e-04,4.411092959344387054e-03,2.445929765701293945e+00,-6.998974829912185669e-03,5.000000000000000000e-01,-4.437671304913237691e-05,0.000000000000000000e+00
2.830169916152954102e+00,4.862459945678710938e+01,2.375422821044921875e+02,2.375422821044921875e+02,-4.829421639442443848e-01,1.863182708621025085e-02,1.843541744165122509e-03,1.463364982604980469e+01,4.824279807507991791e-03,-1.998209336306899786e-04,4.260015487670898438e+00,4.477213951759040356e-04,5.201564054004848003e-04,4.411092959344387054e-03,2.445929765701293945e+00,-6.998974829912185669e-03,5.000000000000000000e-01,-4.437671304913237691e-05,0.000000000000000000e+00
2.917726278305053711e+00,4.973748779296875000e+01,2.375426635742187500e+02,2.375426635742187500e+02,-6.316490173339843750e-01,1.829997263848781586e-02,1.272134599275887012e-03,1.494176483154296875e+01,4.835376515984535217e-03,-8.467355655739083886e-05,3.519047498703002930e+00,1.267378829652443528e-04,1.315122819505631924e-03,8.351573720574378967e-03,1.669339418411254883e+00,-3.108454635366797447e-03,5.000000000000000000e-01,-8.973851436167024076e-06,0.000000000000000000e+00
