# Time,X,Y,Z,Roll,Pitch,Yaw,Vx,Vy,Vz,Ax,Ay,Az,Wx,Wy,Wz,Throttle,Steer,Brake
0.000000000000000000e+00,-3.643209457397460938e+01,5.241401672363281250e+01,5.241401672363281250e+01,4.032406806945800781e-01,-2.307128719985485077e-02,-3.051757630601059645e-05,4.461905479431152344e+00,-1.794809708371758461e-03,6.811513449065387249e-04,2.976085662841796875e+00,-1.175428042188286781e-03,4.220464825630187988e-02,4.873005091212689877e-04,1.820146322250366211e+00,2.927518507931381464e-04,1.000000000000000000e+00,3.184253955623717047e-06,0.000000000000000000e+00
1.045818328857421875e-01,-3.643209457397460938e+01,5.241401672363281250e+01,5.241401672363281250e+01,4.032406806945800781e-01,-2.307128719985485077e-02,-3.051757630601059645e-05,4.461905479431152344e+00,-1.794809708371758461e-03,6.811513449065387249e-04,2.976085662841796875e+00,-1.175428042188286781e-03,4.220464825630187988e-02,4.873005091212689877e-04,1.820146322250366211e+00,2.927518507931381464e-04,1.000000000000000000e+00,3.184253955623717047e-06,0.000000000000000000e+00
1.045818328857421875e-01,-3.643209457397460938e+01,5.241401672363281250e+01,5.241401672363281250e+01,4.032406806945800781e-01,-2.307128719985485077e-02,-3.051757630601059645e-05,4.461905479431152344e+00,-1.794809708371758461e-03,6.811513449065387249e-04,2.976085662841796875e+00,-1.175428042188286781e-03,4.220464825630187988e-02,4.873005091212689877e-04,1.820146322250366211e+00,2.927518507931381464e-04,1.000000000000000000e+00,3.184253955623717047e-06,0.000000000000000000e+00
1.045818328857421875e-01,-3.643209457397460938e+01,5.241401672363281250e+01,5.241401672363281250e+01,4.032406806945800781e-01,-2.307128719985485077e-02,-3.051757630601059645e-05,4.461905479431152344e+00,-1.794809708371758461e-03,6.811513449065387249e-04,2.976085662841796875e+00,-1.175428042188286781e-03,4.220464825630187988e-02,4.873005091212689877e-04,1.820146322250366211e+00,2.927518507931381464e-04,1.000000000000000000e+00,3.184253955623717047e-06,0.000000000000000000e+00
1.045818328857421875e-01,-3.643209457397460938e+01,5.241401672363281250e+01,5.241401672363281250e+01,4.032406806945800781e-01,-2.307128719985485077e-02,-3.051757630601059645e-05,4.461905479431152344e+00,-1.794809708371758461e-03,6.811513449065387249e-04,2.976085662841796875e+00,-1.175428042188286781e-03,4.220464825630187988e-02,4.873005091212689877e-04,1.820146322250366211e+00,2.927518507931381464e-04,1.000000000000000000e+00,3.184253955623717047e-06,0.000000000000000000e+00
1.045818328857421875e-01,-3.643209457397460938e+01,5.241401672363281250e+01,5.241401672363281250e+01,4.032406806945800781e-01,-2.307128719985485077e-02,-3.051757630601059645e-05,4.461905479431152344e+00,-1.794809708371758461e-03,6.811513449065387249e-04,2.976085662841796875e+00,-1.175428042188286781e-03,4.220464825630187988e-02,4.873005091212689877e-04,1.820146322250366211e+00,2.927518507931381464e-04,1.000000000000000000e+00,3.184253955623717047e-06,0.000000000000000000e+00
1.045818328857421875e-01,-3.601760482788085938e+01,5.241385269165039062e+01,5.241385269165039062e+01,4.999698102474212646e-01,-2.301025018095970154e-02,5.595800757873803377e-06,3.606576204299926758e+00,-1.447885646484792233e-03,-7.245762972161173820e-04,-8.168638229370117188e+00,3.313223831355571747e-03,-1.342509966343641281e-02,-2.331506460905075073e-03,-5.205080032348632812e+00,5.383709794841706753e-04,0.000000000000000000e+00,4.493631422519683838e-06,1.000000000000000000e+00
2.092907428741455078e-01,-3.601760482788085938e+01,5.241385269165039062e+01,5.241385269165039062e+01,4.999698102474212646e-01,-2.301025018095970154e-02,5.595800757873803377e-06,3.606576204299926758e+00,-1.447885646484792233e-03,-7.245762972161173820e-04,-8.168638229370117188e+00,3.313223831355571747e-03,-1.342509966343641281e-02,-2.331506460905075073e-03,-5.205080032348632812e+00,5.383709794841706753e-04,0.000000000000000000e+00,4.493631422519683838e-06,1.000000000000000000e+00
2.092907428741455078e-01,-3.601760482788085938e+01,5.241385269165039062e+01,5.241385269165039062e+01,4.999698102474212646e-01,-2.301025018095970154e-02,5.595800757873803377e-06,3.606576204299926758e+00,-1.447885646484792233e-03,-7.245762972161173820e-04,-8.168638229370117188e+00,3.313223831355571747e-03,-1.342509966343641281e-02,-2.331506460905075073e-03,-5.205080032348632812e+00,5.383709794841706753e-04,0.000000000000000000e+00,4.493631422519683838e-06,1.000000000000000000e+00
2.092907428741455078e-01,-3.601760482788085938e+01,5.241385269165039062e+01,5.241385269165039062e+01,4.999698102474212646e-01,-2.301025018095970154e-02,5.595800757873803377e-06,3.606576204299926758e+00,-1.447885646484792233e-03,-7.245762972161173820e-04,-8.168638229370117188e+00,3.313223831355571747e-03,-1.342509966343641281e-02,-2.331506460905075073e-03,-5.205080032348632812e+00,5.383709794841706753e-04,0.000000000000000000e+00,4.493631422519683838e-06,1.000000000000000000e+00
2.092907428741455078e-01,-3.601760482788085938e+01,5.241385269165039062e+01,5.241385269165039062e+01,4.999698102474212646e-01,-2.301025018095970154e-02,5.595800757873803377e-06,3.606576204299926758e+00,-1.447885646484792233e-03,-7.245762972161173820e-04,-8.168638229370117188e+00,3.313223831355571747e-03,-1.342509966343641281e-02,-2.331506460905075073e-03,-5.205080032348632812e+00,5.383709794841706753e-04,0.000000000000000000e+00,4.493631422519683838e-06,1.000000000000000000e+00
2.092907428741455078e-01,-3.570515441894531250e+01,5.241373062133789062e+01,5.241373062133789062e+01,1.003668904304504395e+00,-2.297973074018955231e-02,2.769721504591871053e-05,3.148258686065673828e+00,-1.261565252207219601e-03,6.546836812049150467e-05,-6.142137050628662109e+00,2.496970584616065025e-03,1.058777421712875366e-02,-6.004497408866882324e-04,-1.011008024215698242e+00,2.672804112080484629e-04,1.000000000000000000e+00,1.611436459825199563e-06,0.000000000000000000e+00
2.839093208312988281e-01,-3.570515441894531250e+01,5.241373062133789062e+01,5.241373062133789062e+01,1.003668904304504395e+00,-2.297973074018955231e-02,2.769721504591871053e-05,3.148258686065673828e+00,-1.261565252207219601e-03,6.546836812049150467e-05,-6.142137050628662109e+00,2.496970584616065025e-03,1.058777421712875366e-02,-6.004497408866882324e-04,-1.011008024215698242e+00,2.672804112080484629e-04,1.000000000000000000e+00,1.611436459825199563e-06,0.000000000000000000e+00
2.839093208312988281e-01,-3.570515441894531250e+01,5.241373062133789062e+01,5.241373062133789062e+01,1.003668904304504395e+00,-2.297973074018955231e-02,2.769721504591871053e-05,3.148258686065673828e+00,-1.261565252207219601e-03,6.546836812049150467e-05,-6.142137050628662109e+00,2.496970584616065025e-03,1.058777421712875366e-02,-6.004497408866882324e-04,-1.011008024215698242e+00,2.672804112080484629e-04,1.000000000000000000e+00,1.611436459825199563e-06,0.000000000000000000e+00
2.839093208312988281e-01,-3.570515441894531250e+01,5.241373062133789062e+01,5.241373062133789062e+01,1.003668904304504395e+00,-2.297973074018955231e-02,2.769721504591871053e-05,3.148258686065673828e+00,-1.261565252207219601e-03,6.546836812049150467e-05,-6.142137050628662109e+00,2.496970584616065025e-03,1.058777421712875366e-02,-6.004497408866882324e-04,-1.011008024215698242e+00,2.672804112080484629e-04,1.000000000000000000e+00,1.611436459825199563e-06,0.000000000000000000e+00
2.839093208312988281e-01,-3.570515441894531250e+01,5.241373062133789062e+01,5.241373062133789062e+01,1.003668904304504395e+00,-2.297973074018955231e-02,2.769721504591871053e-05,3.148258686065673828e+00,-1.261565252207219601e-03,6.546836812049150467e-05,-6.142137050628662109e+00,2.496970584616065025e-03,1.058777421712875366e-02,-6.004497408866882324e-04,-1.011008024215698242e+00,2.672804112080484629e-04,1.000000000000000000e+00,1.611436459825199563e-06,0.000000000000000000e+00
3.569011688232421875e-01,-3.545862960815429688e+01,5.241363143920898438e+01,5.241363143920898438e+01,8.251550793647766113e-01,-2.297973446547985077e-02,3.251193265896290541e-05,3.430198907852172852e+00,-1.377246808260679245e-03,1.703389571048319340e-03,3.862626075744628906e+00,-1.584855839610099792e-03,2.243978343904018402e-02,1.675786101259291172e-03,4.161477565765380859e+00,-2.718054456636309624e-04,1.000000000000000000e+00,-6.527764071506680921e-06,0.000000000000000000e+00
3.569011688232421875e-01,-3.545862960815429688e+01,5.241363143920898438e+01,5.241363143920898438e+01,8.251550793647766113e-01,-2.297973446547985077e-02,3.251193265896290541e-05,3.430198907852172852e+00,-1.377246808260679245e-03,1.703389571048319340e-03,3.862626075744628906e+00,-1.584855839610099792e-03,2.243978343904018402e-02,1.675786101259291172e-03,4.161477565765380859e+00,-2.718054456636309624e-04,1.000000000000000000e+00,-6.527764071506680921e-06,0.000000000000000000e+00
3.569011688232421875e-01,-3.545862960815429688e+01,5.241363143920898438e+01,5.241363143920898438e+01,8.251550793647766113e-01,-2.297973446547985077e-02,3.251193265896290541e-05,3.430198907852172852e+00,-1.377246808260679245e-03,1.703389571048319340e-03,3.862626075744628906e+00,-1.584855839610099792e-03,2.243978343904018402e-02,1.675786101259291172e-03,4.161477565765380859e+00,-2.718054456636309624e-04,1.000000000000000000e+00,-6.527764071506680921e-06,0.000000000000000000e+00
3.569011688232421875e-01,-3.545862960815429688e+01,5.241363143920898438e+01,5.241363143920898438e+01,8.251550793647766113e-01,-2.297973446547985077e-02,3.251193265896290541e-05,3.430198907852172852e+00,-1.377246808260679245e-03,1.703389571048319340e-03,3.862626075744628906e+00,-1.584855839610099792e-03,2.243978343904018402e-02,1.675786101259291172e-03,4.161477565765380859e+00,-2.718054456636309624e-04,1.000000000000000000e+00,-6.527764071506680921e-06,0.000000000000000000e+00
4.765405654907226562e-01,-3.521997070312500000e+01,5.241353225708007812e+01,5.241353225708007812e+01,6.308293938636779785e-01,-2.301025018095970154e-02,2.585001311672385782e-05,3.015964031219482422e+00,-1.213657436892390251e-03,1.093237544409930706e-03,-3.462361812591552734e+00,1.367353717796504498e-03,-5.099925678223371506e-03,2.214770211139693856e-04,1.524280458688735962e-01,-4.892772412858903408e-04,0.000000000000000000e+00,-8.145471838361117989e-06,1.000000000000000000e+00
4.765405654907226562e-01,-3.521997070312500000e+01,5.241353225708007812e+01,5.241353225708007812e+01,6.308293938636779785e-01,-2.301025018095970154e-02,2.585001311672385782e-05,3.015964031219482422e+00,-1.213657436892390251e-03,1.093237544409930706e-03,-3.462361812591552734e+00,1.367353717796504498e-03,-5.099925678223371506e-03,2.214770211139693856e-04,1.524280458688735962e-01,-4.892772412858903408e-04,0.000000000000000000e+00,-8.145471838361117989e-06,1.000000000000000000e+00
4.765405654907226562e-01,-3.521997070312500000e+01,5.241353225708007812e+01,5.241353225708007812e+01,6.308293938636779785e-01,-2.301025018095970154e-02,2.585001311672385782e-05,3.015964031219482422e+00,-1.213657436892390251e-03,1.093237544409930706e-03,-3.462361812591552734e+00,1.367353717796504498e-03,-5.099925678223371506e-03,2.214770211139693856e-04,1.524280458688735962e-01,-4.892772412858903408e-04,0.000000000000000000e+00,-8.145471838361117989e-06,1.000000000000000000e+00
4.765405654907226562e-01,-3.521997070312500000e+01,5.241353225708007812e+01,5.241353225708007812e+01,6.308293938636779785e-01,-2.301025018095970154e-02,2.585001311672385782e-05,3.015964031219482422e+00,-1.213657436892390251e-03,1.093237544409930706e-03,-3.462361812591552734e+00,1.367353717796504498e-03,-5.099925678223371506e-03,2.214770211139693856e-04,1.524280458688735962e-01,-4.892772412858903408e-04,0.000000000000000000e+00,-8.145471838361117989e-06,1.000000000000000000e+00
4.765405654907226562e-01,-3.521997070312500000e+01,5.241353225708007812e+01,5.241353225708007812e+01,6.308293938636779785e-01,-2.301025018095970154e-02,2.585001311672385782e-05,3.015964031219482422e+00,-1.213657436892390251e-03,1.093237544409930706e-03,-3.462361812591552734e+00,1.367353717796504498e-03,-5.099925678223371506e-03,2.214770211139693856e-04,1.524280458688735962e-01,-4.892772412858903408e-04,0.000000000000000000e+00,-8.145471838361117989e-06,1.000000000000000000e+00
4.765405654907226562e-01,-3.521997070312500000e+01,5.241353225708007812e+01,5.241353225708007812e+01,6.308293938636779785e-01,-2.301025018095970154e-02,2.585001311672385782e-05,3.015964031219482422e+00,-1.213657436892390251e-03,1.093237544409930706e-03,-3.462361812591552734e+00,1.367353717796504498e-03,-5.099925678223371506e-03,2.214770211139693856e-04,1.524280458688735962e-01,-4.892772412858903408e-04,0.000000000000000000e+00,-8.145471838361117989e-06,1.000000000000000000e+00
4.765405654907226562e-01,-3.521997070312500000e+01,5.241353225708007812e+01,5.241353225708007812e+01,6.308293938636779785e-01,-2.301025018095970154e-02,2.585001311672385782e-05,3.015964031219482422e+00,-1.213657436892390251e-03,1.093237544409930706e-03,-3.462361812591552734e+00,1.367353717796504498e-03,-5.099925678223371506e-03,2.214770211139693856e-04,1.524280458688735962e-01,-4.892772412858903408e-04,0.000000000000000000e+00,-8.145471838361117989e-06,1.000000000000000000e+00
6.200885772705078125e-01,-3.501824569702148438e+01,5.241344451904296875e+01,5.241344451904296875e+01,1.264104008674621582e+00,-2.307128719985485077e-02,9.488502655585762113e-06,1.196661710739135742e+00,-4.830324032809585333e-04,-1.090802485123276711e-03,-1.267382526397705078e+01,5.089760757982730865e-03,-1.521470025181770325e-02,-3.753290046006441116e-03,-9.774378776550292969e+00,-3.512591938488185406e-04,0.000000000000000000e+00,-5.718568900192622095e-06,1.000000000000000000e+00
6.200885772705078125e-01,-3.501824569702148438e+01,5.241344451904296875e+01,5.241344451904296875e+01,1.264104008674621582e+00,-2.307128719985485077e-02,9.488502655585762113e-06,1.196661710739135742e+00,-4.830324032809585333e-04,-1.090802485123276711e-03,-1.267382526397705078e+01,5.089760757982730865e-03,-1.521470025181770325e-02,-3.753290046006441116e-03,-9.774378776550292969e+00,-3.512591938488185406e-04,0.000000000000000000e+00,-5.718568900192622095e-06,1.000000000000000000e+00
6.200885772705078125e-01,-3.501824569702148438e+01,5.241344451904296875e+01,5.241344451904296875e+01,1.264104008674621582e+00,-2.307128719985485077e-02,9.488502655585762113e-06,1.196661710739135742e+00,-4.830324032809585333e-04,-1.090802485123276711e-03,-1.267382526397705078e+01,5.089760757982730865e-03,-1.521470025181770325e-02,-3.753290046006441116e-03,-9.774378776550292969e+00,-3.512591938488185406e-04,0.000000000000000000e+00,-5.718568900192622095e-06,1.000000000000000000e+00
6.200885772705078125e-01,-3.501824569702148438e+01,5.241344451904296875e+01,5.241344451904296875e+01,1.264104008674621582e+00,-2.307128719985485077e-02,9.488502655585762113e-06,1.196661710739135742e+00,-4.830324032809585333e-04,-1.090802485123276711e-03,-1.267382526397705078e+01,5.089760757982730865e-03,-1.521470025181770325e-02,-3.753290046006441116e-03,-9.774378776550292969e+00,-3.512591938488185406e-04,0.000000000000000000e+00,-5.718568900192622095e-06,1.000000000000000000e+00
6.200885772705078125e-01,-3.501824569702148438e+01,5.241344451904296875e+01,5.241344451904296875e+01,1.264104008674621582e+00,-2.307128719985485077e-02,9.488502655585762113e-06,1.196661710739135742e+00,-4.830324032809585333e-04,-1.090802485123276711e-03,-1.267382526397705078e+01,5.089760757982730865e-03,-1.521470025181770325e-02,-3.753290046006441116e-03,-9.774378776550292969e+00,-3.512591938488185406e-04,0.000000000000000000e+00,-5.718568900192622095e-06,1.000000000000000000e+00
6.200885772705078125e-01,-3.501824569702148438e+01,5.241344451904296875e+01,5.241344451904296875e+01,1.264104008674621582e+00,-2.307128719985485077e-02,9.488502655585762113e-06,1.196661710739135742e+00,-4.830324032809585333e-04,-1.090802485123276711e-03,-1.267382526397705078e+01,5.089760757982730865e-03,-1.521470025181770325e-02,-3.753290046006441116e-03,-9.774378776550292969e+00,-3.512591938488185406e-04,0.000000000000000000e+00,-5.718568900192622095e-06,1.000000000000000000e+00
7.946169376373291016e-01,-3.498431777954101562e+01,5.241345214843750000e+01,5.241345214843750000e+01,2.169186115264892578e+00,-2.160643972456455231e-02,-6.103515625000000000e-05,6.026513502001762390e-02,6.918541475897654891e-05,-1.100509311072528362e-03,-6.511242866516113281e+00,3.164057852700352669e-03,-5.561747093452140689e-05,-2.505070995539426804e-03,-4.369916915893554688e+00,2.431609854102134705e-02,1.000000000000000000e+00,-1.894496335808071308e-06,0.000000000000000000e+00
7.946169376373291016e-01,-3.498431777954101562e+01,5.241345214843750000e+01,5.241345214843750000e+01,2.169186115264892578e+00,-2.160643972456455231e-02,-6.103515625000000000e-05,6.026513502001762390e-02,6.918541475897654891e-05,-1.100509311072528362e-03,-6.511242866516113281e+00,3.164057852700352669e-03,-5.561747093452140689e-05,-2.505070995539426804e-03,-4.369916915893554688e+00,2.431609854102134705e-02,1.000000000000000000e+00,-1.894496335808071308e-06,0.000000000000000000e+00
7.946169376373291016e-01,-3.498431777954101562e+01,5.241345214843750000e+01,5.241345214843750000e+01,2.169186115264892578e+00,-2.160643972456455231e-02,-6.103515625000000000e-05,6.026513502001762390e-02,6.918541475897654891e-05,-1.100509311072528362e-03,-6.511242866516113281e+00,3.164057852700352669e-03,-5.561747093452140689e-05,-2.505070995539426804e-03,-4.369916915893554688e+00,2.431609854102134705e-02,1.000000000000000000e+00,-1.894496335808071308e-06,0.000000000000000000e+00
8.783230781555175781e-01,-3.495933914184570312e+01,5.241345596313476562e+01,5.241345596313476562e+01,1.846056580543518066e+00,-2.081298828125000000e-02,-2.746582031250000000e-04,4.233396351337432861e-01,-1.597537484485656023e-04,3.373727959115058184e-04,4.337489604949951172e+00,-2.735034329816699028e-03,1.717773824930191040e-02,5.226282402873039246e-03,7.207676887512207031e+00,1.688795979134738445e-03,1.000000000000000000e+00,-6.619592750212177634e-05,0.000000000000000000e+00
8.783230781555175781e-01,-3.495933914184570312e+01,5.241345596313476562e+01,5.241345596313476562e+01,1.846056580543518066e+00,-2.081298828125000000e-02,-2.746582031250000000e-04,4.233396351337432861e-01,-1.597537484485656023e-04,3.373727959115058184e-04,4.337489604949951172e+00,-2.735034329816699028e-03,1.717773824930191040e-02,5.226282402873039246e-03,7.207676887512207031e+00,1.688795979134738445e-03,1.000000000000000000e+00,-6.619592750212177634e-05,0.000000000000000000e+00
8.783230781555175781e-01,-3.495933914184570312e+01,5.241345596313476562e+01,5.241345596313476562e+01,1.846056580543518066e+00,-2.081298828125000000e-02,-2.746582031250000000e-04,4.233396351337432861e-01,-1.597537484485656023e-04,3.373727959115058184e-04,4.337489604949951172e+00,-2.735034329816699028e-03,1.717773824930191040e-02,5.226282402873039246e-03,7.207676887512207031e+00,1.688795979134738445e-03,1.000000000000000000e+00,-6.619592750212177634e-05,0.000000000000000000e+00
9.483780860900878906e-01,-3.491011047363281250e+01,5.241342544555664062e+01,5.241342544555664062e+01,1.069163560867309570e+00,-2.096557617187500000e-02,-4.577637009788304567e-04,7.832103371620178223e-01,-3.072858380619436502e-04,2.645933767780661583e-03,5.136973381042480469e+00,-2.105946419760584831e-03,3.295354545116424561e-02,5.558425094932317734e-03,1.011640930175781250e+01,-3.232446266338229179e-03,1.000000000000000000e+00,-1.169426977867260575e-04,0.000000000000000000e+00
9.483780860900878906e-01,-3.491011047363281250e+01,5.241342544555664062e+01,5.241342544555664062e+01,1.069163560867309570e+00,-2.096557617187500000e-02,-4.577637009788304567e-04,7.832103371620178223e-01,-3.072858380619436502e-04,2.645933767780661583e-03,5.136973381042480469e+00,-2.105946419760584831e-03,3.295354545116424561e-02,5.558425094932317734e-03,1.011640930175781250e+01,-3.232446266338229179e-03,1.000000000000000000e+00,-1.169426977867260575e-04,0.000000000000000000e+00
9.483780860900878906e-01,-3.491011047363281250e+01,5.241342544555664062e+01,5.241342544555664062e+01,1.069163560867309570e+00,-2.096557617187500000e-02,-4.577637009788304567e-04,7.832103371620178223e-01,-3.072858380619436502e-04,2.645933767780661583e-03,5.136973381042480469e+00,-2.105946419760584831e-03,3.295354545116424561e-02,5.558425094932317734e-03,1.011640930175781250e+01,-3.232446266338229179e-03,1.000000000000000000e+00,-1.169426977867260575e-04,0.000000000000000000e+00
9.483780860900878906e-01,-3.491011047363281250e+01,5.241342544555664062e+01,5.241342544555664062e+01,1.069163560867309570e+00,-2.096557617187500000e-02,-4.577637009788304567e-04,7.832103371620178223e-01,-3.072858380619436502e-04,2.645933767780661583e-03,5.136973381042480469e+00,-2.105946419760584831e-03,3.295354545116424561e-02,5.558425094932317734e-03,1.011640930175781250e+01,-3.232446266338229179e-03,1.000000000000000000e+00,-1.169426977867260575e-04,0.000000000000000000e+00
9.483780860900878906e-01,-3.484526062011718750e+01,5.241340255737304688e+01,5.241340255737304688e+01,3.707358241081237793e-01,-2.124022878706455231e-02,-5.187987699173390865e-04,1.101177215576171875e+00,-4.283204907551407814e-04,1.285782898776233196e-03,4.035163402557373047e+00,-1.535992021672427654e-03,-1.726101525127887726e-02,4.329890944063663483e-03,9.607281684875488281e+00,-4.363329149782657623e-03,1.000000000000000000e+00,-1.032588406815193594e-04,0.000000000000000000e+00
1.027177095413208008e+00,-3.484526062011718750e+01,5.241340255737304688e+01,5.241340255737304688e+01,3.707358241081237793e-01,-2.124022878706455231e-02,-5.187987699173390865e-04,1.101177215576171875e+00,-4.283204907551407814e-04,1.285782898776233196e-03,4.035163402557373047e+00,-1.535992021672427654e-03,-1.726101525127887726e-02,4.329890944063663483e-03,9.607281684875488281e+00,-4.363329149782657623e-03,1.000000000000000000e+00,-1.032588406815193594e-04,0.000000000000000000e+00
1.027177095413208008e+00,-3.484526062011718750e+01,5.241340255737304688e+01,5.241340255737304688e+01,3.707358241081237793e-01,-2.124022878706455231e-02,-5.187987699173390865e-04,1.101177215576171875e+00,-4.283204907551407814e-04,1.285782898776233196e-03,4.035163402557373047e+00,-1.535992021672427654e-03,-1.726101525127887726e-02,4.329890944063663483e-03,9.607281684875488281e+00,-4.363329149782657623e-03,1.000000000000000000e+00,-1.032588406815193594e-04,0.000000000000000000e+00
1.095043420791625977e+00,-3.474465560913085938e+01,5.241335296630859375e+01,5.241335296630859375e+01,-2.915261089801788330e-01,-2.160644158720970154e-02,-5.493164644576609135e-04,1.462833046913146973e+00,-5.696792504750192165e-04,-7.955727633088827133e-04,5.328943729400634766e+00,-2.082899911329150200e-03,-3.066845797002315521e-02,2.674141200259327888e-03,7.443595409393310547e+00,-4.930218216031789780e-03,1.000000000000000000e+00,-9.261493687517940998e-05,0.000000000000000000e+00
1.095043420791625977e+00,-3.474465560913085938e+01,5.241335296630859375e+01,5.241335296630859375e+01,-2.915261089801788330e-01,-2.160644158720970154e-02,-5.493164644576609135e-04,1.462833046913146973e+00,-5.696792504750192165e-04,-7.955727633088827133e-04,5.328943729400634766e+00,-2.082899911329150200e-03,-3.066845797002315521e-02,2.674141200259327888e-03,7.443595409393310547e+00,-4.930218216031789780e-03,1.000000000000000000e+00,-9.261493687517940998e-05,0.000000000000000000e+00
1.095043420791625977e+00,-3.474465560913085938e+01,5.241335296630859375e+01,5.241335296630859375e+01,-2.915261089801788330e-01,-2.160644158720970154e-02,-5.493164644576609135e-04,1.462833046913146973e+00,-5.696792504750192165e-04,-7.955727633088827133e-04,5.328943729400634766e+00,-2.082899911329150200e-03,-3.066845797002315521e-02,2.674141200259327888e-03,7.443595409393310547e+00,-4.930218216031789780e-03,1.000000000000000000e+00,-9.261493687517940998e-05,0.000000000000000000e+00
1.095043420791625977e+00,-3.474465560913085938e+01,5.241335296630859375e+01,5.241335296630859375e+01,-2.915261089801788330e-01,-2.160644158720970154e-02,-5.493164644576609135e-04,1.462833046913146973e+00,-5.696792504750192165e-04,-7.955727633088827133e-04,5.328943729400634766e+00,-2.082899911329150200e-03,-3.066845797002315521e-02,2.674141200259327888e-03,7.443595409393310547e+00,-4.930218216031789780e-03,1.000000000000000000e+00,-9.261493687517940998e-05,0.000000000000000000e+00
1.168572425842285156e+00,-3.463475418090820312e+01,5.241330337524414062e+01,5.241330337524414062e+01,-7.014125585556030273e-01,-2.194213867187500000e-02,-5.187987699173390865e-04,1.772237658500671387e+00,-6.924343761056661606e-04,9.980372851714491844e-04,4.207925796508789062e+00,-1.669478835538029671e-03,2.439323067665100098e-02,1.311774482019245625e-03,5.125238418579101562e+00,-4.684518557041883469e-03,1.000000000000000000e+00,-7.141219975892454386e-05,0.000000000000000000e+00
1.168572425842285156e+00,-3.463475418090820312e+01,5.241330337524414062e+01,5.241330337524414062e+01,-7.014125585556030273e-01,-2.194213867187500000e-02,-5.187987699173390865e-04,1.772237658500671387e+00,-6.924343761056661606e-04,9.980372851714491844e-04,4.207925796508789062e+00,-1.669478835538029671e-03,2.439323067665100098e-02,1.311774482019245625e-03,5.125238418579101562e+00,-4.684518557041883469e-03,1.000000000000000000e+00,-7.141219975892454386e-05,0.000000000000000000e+00
1.168572425842285156e+00,-3.463475418090820312e+01,5.241330337524414062e+01,5.241330337524414062e+01,-7.014125585556030273e-01,-2.194213867187500000e-02,-5.187987699173390865e-04,1.772237658500671387e+00,-6.924343761056661606e-04,9.980372851714491844e-04,4.207925796508789062e+00,-1.669478835538029671e-03,2.439323067665100098e-02,1.311774482019245625e-03,5.125238418579101562e+00,-4.684518557041883469e-03,1.000000000000000000e+00,-7.141219975892454386e-05,0.000000000000000000e+00
1.168572425842285156e+00,-3.463475418090820312e+01,5.241330337524414062e+01,5.241330337524414062e+01,-7.014125585556030273e-01,-2.194213867187500000e-02,-5.187987699173390865e-04,1.772237658500671387e+00,-6.924343761056661606e-04,9.980372851714491844e-04,4.207925796508789062e+00,-1.669478835538029671e-03,2.439323067665100098e-02,1.311774482019245625e-03,5.125238418579101562e+00,-4.684518557041883469e-03,1.000000000000000000e+00,-7.141219975892454386e-05,0.000000000000000000e+00
1.168572425842285156e+00,-3.451621627807617188e+01,5.241324996948242188e+01,5.241324996948242188e+01,-7.348873615264892578e-01,-2.224731445312500000e-02,-4.577636718750000000e-04,1.327198505401611328e+00,-5.245092906989157200e-04,-5.343985976651310921e-04,-5.930024623870849609e+00,2.237555803731083870e-03,-2.041928842663764954e-02,-2.522572875022888184e-03,-3.885587692260742188e+00,-3.985194955021142960e-03,0.000000000000000000e+00,-5.486483496497385204e-05,1.000000000000000000e+00
1.243620872497558594e+00,-3.451621627807617188e+01,5.241324996948242188e+01,5.241324996948242188e+01,-7.348873615264892578e-01,-2.224731445312500000e-02,-4.577636718750000000e-04,1.327198505401611328e+00,-5.245092906989157200e-04,-5.343985976651310921e-04,-5.930024623870849609e+00,2.237555803731083870e-03,-2.041928842663764954e-02,-2.522572875022888184e-03,-3.885587692260742188e+00,-3.985194955021142960e-03,0.000000000000000000e+00,-5.486483496497385204e-05,1.000000000000000000e+00
1.243620872497558594e+00,-3.451621627807617188e+01,5.241324996948242188e+01,5.241324996948242188e+01,-7.348873615264892578e-01,-2.224731445312500000e-02,-4.577636718750000000e-04,1.327198505401611328e+00,-5.245092906989157200e-04,-5.343985976651310921e-04,-5.930024623870849609e+00,2.237555803731083870e-03,-2.041928842663764954e-02,-2.522572875022888184e-03,-3.885587692260742188e+00,-3.985194955021142960e-03,0.000000000000000000e+00,-5.486483496497385204e-05,1.000000000000000000e+00
1.243620872497558594e+00,-3.451621627807617188e+01,5.241324996948242188e+01,5.241324996948242188e+01,-7.348873615264892578e-01,-2.224731445312500000e-02,-4.577636718750000000e-04,1.327198505401611328e+00,-5.245092906989157200e-04,-5.343985976651310921e-04,-5.930024623870849609e+00,2.237555803731083870e-03,-2.041928842663764954e-02,-2.522572875022888184e-03,-3.885587692260742188e+00,-3.985194955021142960e-03,0.000000000000000000e+00,-5.486483496497385204e-05,1.000000000000000000e+00
1.312042951583862305e+00,-3.447130203247070312e+01,5.241323089599609375e+01,5.241323089599609375e+01,3.988830372691154480e-02,-2.246093563735485077e-02,-3.662109375000000000e-04,6.426241993904113770e-02,-2.808032513712532818e-05,-3.269467852078378201e-04,-1.845802116394042969e+01,7.255391683429479599e-03,3.031942527741193771e-03,-6.406696047633886337e-03,-1.281885719299316406e+01,-2.417435869574546814e-03,0.000000000000000000e+00,-3.883279714500531554e-05,1.000000000000000000e+00
1.312042951583862305e+00,-3.447130203247070312e+01,5.241323089599609375e+01,5.241323089599609375e+01,3.988830372691154480e-02,-2.246093563735485077e-02,-3.662109375000000000e-04,6.426241993904113770e-02,-2.808032513712532818e-05,-3.269467852078378201e-04,-1.845802116394042969e+01,7.255391683429479599e-03,3.031942527741193771e-03,-6.406696047633886337e-03,-1.281885719299316406e+01,-2.417435869574546814e-03,0.000000000000000000e+00,-3.883279714500531554e-05,1.000000000000000000e+00
1.312042951583862305e+00,-3.446733474731445312e+01,5.241324615478515625e+01,5.241324615478515625e+01,6.388344168663024902e-01,-2.072143368422985077e-02,-1.525879051769152284e-04,1.124771125614643097e-02,4.840417022933252156e-05,5.750727141276001930e-04,-7.457784414291381836e-01,1.075936947017908096e-03,1.268905680626630783e-02,-5.126628559082746506e-03,-6.114449024200439453e+00,1.474487315863370895e-02,0.000000000000000000e+00,-2.755373679974582046e-05,1.000000000000000000e+00
1.383129358291625977e+00,-3.446733474731445312e+01,5.241324615478515625e+01,5.241324615478515625e+01,6.388344168663024902e-01,-2.072143368422985077e-02,-1.525879051769152284e-04,1.124771125614643097e-02,4.840417022933252156e-05,5.750727141276001930e-04,-7.457784414291381836e-01,1.075936947017908096e-03,1.268905680626630783e-02,-5.126628559082746506e-03,-6.114449024200439453e+00,1.474487315863370895e-02,0.000000000000000000e+00,-2.755373679974582046e-05,1.000000000000000000e+00
1.383129358291625977e+00,-3.446733474731445312e+01,5.241324615478515625e+01,5.241324615478515625e+01,6.388344168663024902e-01,-2.072143368422985077e-02,-1.525879051769152284e-04,1.124771125614643097e-02,4.840417022933252156e-05,5.750727141276001930e-04,-7.457784414291381836e-01,1.075936947017908096e-03,1.268905680626630783e-02,-5.126628559082746506e-03,-6.114449024200439453e+00,1.474487315863370895e-02,0.000000000000000000e+00,-2.755373679974582046e-05,1.000000000000000000e+00
1.450951814651489258e+00,-3.446584320068359375e+01,5.241326522827148438e+01,5.241326522827148438e+01,8.533022999763488770e-01,-1.885986328125000000e-02,-3.051758176297880709e-05,4.122796002775430679e-03,4.490996070671826601e-05,-3.506066568661481142e-04,-1.050524488091468811e-01,-5.151994992047548294e-05,-1.364856678992509842e-02,-1.674674917012453079e-03,-1.260179281234741211e+00,1.683640666306018829e-02,0.000000000000000000e+00,-1.161202162620611489e-04,1.000000000000000000e+00
1.450951814651489258e+00,-3.446584320068359375e+01,5.241326522827148438e+01,5.241326522827148438e+01,8.533022999763488770e-01,-1.885986328125000000e-02,-3.051758176297880709e-05,4.122796002775430679e-03,4.490996070671826601e-05,-3.506066568661481142e-04,-1.050524488091468811e-01,-5.151994992047548294e-05,-1.364856678992509842e-02,-1.674674917012453079e-03,-1.260179281234741211e+00,1.683640666306018829e-02,0.000000000000000000e+00,-1.161202162620611489e-04,1.000000000000000000e+00
1.450951814651489258e+00,-3.446584320068359375e+01,5.241326522827148438e+01,5.241326522827148438e+01,8.533022999763488770e-01,-1.885986328125000000e-02,-3.051758176297880709e-05,4.122796002775430679e-03,4.490996070671826601e-05,-3.506066568661481142e-04,-1.050524488091468811e-01,-5.151994992047548294e-05,-1.364856678992509842e-02,-1.674674917012453079e-03,-1.260179281234741211e+00,1.683640666306018829e-02,0.000000000000000000e+00,-1.161202162620611489e-04,1.000000000000000000e+00
1.527701377868652344e+00,-3.446588897705078125e+01,5.241328048706054688e+01,5.241328048706054688e+01,8.211252689361572266e-01,-1.712035946547985077e-02,-6.103515261202119291e-05,3.023958124686032534e-04,3.317174559924751520e-05,2.040681574726477265e-04,-4.977748543024063110e-02,-1.529417932033538818e-04,7.227074820548295975e-03,9.612528956495225430e-04,1.401885747909545898e+00,1.588765904307365417e-02,0.000000000000000000e+00,-2.085575251840054989e-04,1.000000000000000000e+00
1.527701377868652344e+00,-3.446588897705078125e+01,5.241328048706054688e+01,5.241328048706054688e+01,8.211252689361572266e-01,-1.712035946547985077e-02,-6.103515261202119291e-05,3.023958124686032534e-04,3.317174559924751520e-05,2.040681574726477265e-04,-4.977748543024063110e-02,-1.529417932033538818e-04,7.227074820548295975e-03,9.612528956495225430e-04,1.401885747909545898e+00,1.588765904307365417e-02,0.000000000000000000e+00,-2.085575251840054989e-04,1.000000000000000000e+00
1.527701377868652344e+00,-3.446588897705078125e+01,5.241328048706054688e+01,5.241328048706054688e+01,8.211252689361572266e-01,-1.712035946547985077e-02,-6.103515261202119291e-05,3.023958124686032534e-04,3.317174559924751520e-05,2.040681574726477265e-04,-4.977748543024063110e-02,-1.529417932033538818e-04,7.227074820548295975e-03,9.612528956495225430e-04,1.401885747909545898e+00,1.588765904307365417e-02,0.000000000000000000e+00,-2.085575251840054989e-04,1.000000000000000000e+00
1.600134611129760742e+00,-3.446680450439453125e+01,5.241330337524414062e+01,5.241330337524414062e+01,6.458421349525451660e-01,-1.461791992187500000e-02,-1.831054833019152284e-04,-1.544089289382100105e-03,3.398253102204762399e-05,-1.045867567881941795e-03,-2.549223601818084717e-02,1.119355601986171678e-05,-1.725638471543788910e-02,2.459872281178832054e-03,2.670755863189697266e+00,2.062385529279708862e-02,0.000000000000000000e+00,-3.006920742336660624e-04,1.000000000000000000e+00
1.600134611129760742e+00,-3.446680450439453125e+01,5.241330337524414062e+01,5.241330337524414062e+01,6.458421349525451660e-01,-1.461791992187500000e-02,-1.831054833019152284e-04,-1.544089289382100105e-03,3.398253102204762399e-05,-1.045867567881941795e-03,-2.549223601818084717e-02,1.119355601986171678e-05,-1.725638471543788910e-02,2.459872281178832054e-03,2.670755863189697266e+00,2.062385529279708862e-02,0.000000000000000000e+00,-3.006920742336660624e-04,1.000000000000000000e+00
1.600134611129760742e+00,-3.446680450439453125e+01,5.241330337524414062e+01,5.241330337524414062e+01,6.458421349525451660e-01,-1.461791992187500000e-02,-1.831054833019152284e-04,-1.544089289382100105e-03,3.398253102204762399e-05,-1.045867567881941795e-03,-2.549223601818084717e-02,1.119355601986171678e-05,-1.725638471543788910e-02,2.459872281178832054e-03,2.670755863189697266e+00,2.062385529279708862e-02,0.000000000000000000e+00,-3.006920742336660624e-04,1.000000000000000000e+00
1.600134611129760742e+00,-3.446680450439453125e+01,5.241330337524414062e+01,5.241330337524414062e+01,6.458421349525451660e-01,-1.461791992187500000e-02,-1.831054833019152284e-04,-1.544089289382100105e-03,3.398253102204762399e-05,-1.045867567881941795e-03,-2.549223601818084717e-02,1.119355601986171678e-05,-1.725638471543788910e-02,2.459872281178832054e-03,2.670755863189697266e+00,2.062385529279708862e-02,0.000000000000000000e+00,-3.006920742336660624e-04,1.000000000000000000e+00
1.600134611129760742e+00,-3.446680450439453125e+01,5.241330337524414062e+01,5.241330337524414062e+01,6.458421349525451660e-01,-1.461791992187500000e-02,-1.831054833019152284e-04,-1.544089289382100105e-03,3.398253102204762399e-05,-1.045867567881941795e-03,-2.549223601818084717e-02,1.119355601986171678e-05,-1.725638471543788910e-02,2.459872281178832054e-03,2.670755863189697266e+00,2.062385529279708862e-02,0.000000000000000000e+00,-3.006920742336660624e-04,1.000000000000000000e+00
1.600134611129760742e+00,-3.446790695190429688e+01,5.241333007812500000e+01,5.241333007812500000e+01,4.434431791305541992e-01,-1.245117094367742538e-02,-3.662108792923390865e-04,-1.707735005766153336e-03,2.274440157634671777e-05,3.030051884707063437e-04,-1.418333617039024830e-03,-9.740197856444865465e-05,1.169081404805183411e-02,3.058556932955980301e-03,2.774894952774047852e+00,1.840476691722869873e-02,0.000000000000000000e+00,-4.220403207000344992e-04,1.000000000000000000e+00
1.715513467788696289e+00,-3.446790695190429688e+01,5.241333007812500000e+01,5.241333007812500000e+01,4.434431791305541992e-01,-1.245117094367742538e-02,-3.662108792923390865e-04,-1.707735005766153336e-03,2.274440157634671777e-05,3.030051884707063437e-04,-1.418333617039024830e-03,-9.740197856444865465e-05,1.169081404805183411e-02,3.058556932955980301e-03,2.774894952774047852e+00,1.840476691722869873e-02,0.000000000000000000e+00,-4.220403207000344992e-04,1.000000000000000000e+00
1.715513467788696289e+00,-3.446790695190429688e+01,5.241333007812500000e+01,5.241333007812500000e+01,4.434431791305541992e-01,-1.245117094367742538e-02,-3.662108792923390865e-04,-1.707735005766153336e-03,2.274440157634671777e-05,3.030051884707063437e-04,-1.418333617039024830e-03,-9.740197856444865465e-05,1.169081404805183411e-02,3.058556932955980301e-03,2.774894952774047852e+00,1.840476691722869873e-02,0.000000000000000000e+00,-4.220403207000344992e-04,1.000000000000000000e+00
1.715513467788696289e+00,-3.446920394897460938e+01,5.241336822509765625e+01,5.241336822509765625e+01,2.015930265188217163e-01,-8.575438521802425385e-03,-6.103515042923390865e-04,-7.306146435439586639e-04,2.803829374897759408e-05,-8.648765506222844124e-04,1.001130975782871246e-02,5.423978291219100356e-05,-1.196579914540052414e-02,2.062504412606358528e-03,2.085516929626464844e+00,2.376747690141201019e-02,0.000000000000000000e+00,-5.359869683161377907e-04,1.000000000000000000e+00
1.813115119934082031e+00,-3.446920394897460938e+01,5.241336822509765625e+01,5.241336822509765625e+01,2.015930265188217163e-01,-8.575438521802425385e-03,-6.103515042923390865e-04,-7.306146435439586639e-04,2.803829374897759408e-05,-8.648765506222844124e-04,1.001130975782871246e-02,5.423978291219100356e-05,-1.196579914540052414e-02,2.062504412606358528e-03,2.085516929626464844e+00,2.376747690141201019e-02,0.000000000000000000e+00,-5.359869683161377907e-04,1.000000000000000000e+00
1.813115119934082031e+00,-3.446920394897460938e+01,5.241336822509765625e+01,5.241336822509765625e+01,2.015930265188217163e-01,-8.575438521802425385e-03,-6.103515042923390865e-04,-7.306146435439586639e-04,2.803829374897759408e-05,-8.648765506222844124e-04,1.001130975782871246e-02,5.423978291219100356e-05,-1.196579914540052414e-02,2.062504412606358528e-03,2.085516929626464844e+00,2.376747690141201019e-02,0.000000000000000000e+00,-5.359869683161377907e-04,1.000000000000000000e+00
1.813115119934082031e+00,-3.446920394897460938e+01,5.241336822509765625e+01,5.241336822509765625e+01,2.015930265188217163e-01,-8.575438521802425385e-03,-6.103515042923390865e-04,-7.306146435439586639e-04,2.803829374897759408e-05,-8.648765506222844124e-04,1.001130975782871246e-02,5.423978291219100356e-05,-1.196579914540052414e-02,2.062504412606358528e-03,2.085516929626464844e+00,2.376747690141201019e-02,0.000000000000000000e+00,-5.359869683161377907e-04,1.000000000000000000e+00
1.813115119934082031e+00,-3.446995162963867188e+01,5.241340255737304688e+01,5.241340255737304688e+01,4.906124621629714966e-02,-5.035399459302425385e-03,-7.629393367096781731e-04,5.864095292054116726e-04,1.083861570805311203e-05,2.478100941516458988e-04,1.586399041116237640e-02,-2.071757771773263812e-04,1.340267714112997055e-02,1.170701347291469574e-03,1.197950601577758789e+00,2.137748338282108307e-02,0.000000000000000000e+00,-7.334558758884668350e-04,1.000000000000000000e+00
1.896134853363037109e+00,-3.446995162963867188e+01,5.241340255737304688e+01,5.241340255737304688e+01,4.906124621629714966e-02,-5.035399459302425385e-03,-7.629393367096781731e-04,5.864095292054116726e-04,1.083861570805311203e-05,2.478100941516458988e-04,1.586399041116237640e-02,-2.071757771773263812e-04,1.340267714112997055e-02,1.170701347291469574e-03,1.197950601577758789e+00,2.137748338282108307e-02,0.000000000000000000e+00,-7.334558758884668350e-04,1.000000000000000000e+00
1.896134853363037109e+00,-3.446995162963867188e+01,5.241340255737304688e+01,5.241340255737304688e+01,4.906124621629714966e-02,-5.035399459302425385e-03,-7.629393367096781731e-04,5.864095292054116726e-04,1.083861570805311203e-05,2.478100941516458988e-04,1.586399041116237640e-02,-2.071757771773263812e-04,1.340267714112997055e-02,1.170701347291469574e-03,1.197950601577758789e+00,2.137748338282108307e-02,0.000000000000000000e+00,-7.334558758884668350e-04,1.000000000000000000e+00
1.896134853363037109e+00,-3.446995162963867188e+01,5.241340255737304688e+01,5.241340255737304688e+01,4.906124621629714966e-02,-5.035399459302425385e-03,-7.629393367096781731e-04,5.864095292054116726e-04,1.083861570805311203e-05,2.478100941516458988e-04,1.586399041116237640e-02,-2.071757771773263812e-04,1.340267714112997055e-02,1.170701347291469574e-03,1.197950601577758789e+00,2.137748338282108307e-02,0.000000000000000000e+00,-7.334558758884668350e-04,1.000000000000000000e+00
1.896134853363037109e+00,-3.446995162963867188e+01,5.241340255737304688e+01,5.241340255737304688e+01,4.906124621629714966e-02,-5.035399459302425385e-03,-7.629393367096781731e-04,5.864095292054116726e-04,1.083861570805311203e-05,2.478100941516458988e-04,1.586399041116237640e-02,-2.071757771773263812e-04,1.340267714112997055e-02,1.170701347291469574e-03,1.197950601577758789e+00,2.137748338282108307e-02,0.000000000000000000e+00,-7.334558758884668350e-04,1.000000000000000000e+00
1.896134853363037109e+00,-3.446995162963867188e+01,5.241340255737304688e+01,5.241340255737304688e+01,4.906124621629714966e-02,-5.035399459302425385e-03,-7.629393367096781731e-04,5.864095292054116726e-04,1.083861570805311203e-05,2.478100941516458988e-04,1.586399041116237640e-02,-2.071757771773263812e-04,1.340267714112997055e-02,1.170701347291469574e-03,1.197950601577758789e+00,2.137748338282108307e-02,0.000000000000000000e+00,-7.334558758884668350e-04,1.000000000000000000e+00
1.896134853363037109e+00,-3.446995162963867188e+01,5.241340255737304688e+01,5.241340255737304688e+01,4.906124621629714966e-02,-5.035399459302425385e-03,-7.629393367096781731e-04,5.864095292054116726e-04,1.083861570805311203e-05,2.478100941516458988e-04,1.586399041116237640e-02,-2.071757771773263812e-04,1.340267714112997055e-02,1.170701347291469574e-03,1.197950601577758789e+00,2.137748338282108307e-02,0.000000000000000000e+00,-7.334558758884668350e-04,1.000000000000000000e+00
1.896134853363037109e+00,-3.446995162963867188e+01,5.241340255737304688e+01,5.241340255737304688e+01,4.906124621629714966e-02,-5.035399459302425385e-03,-7.629393367096781731e-04,5.864095292054116726e-04,1.083861570805311203e-05,2.478100941516458988e-04,1.586399041116237640e-02,-2.071757771773263812e-04,1.340267714112997055e-02,1.170701347291469574e-03,1.197950601577758789e+00,2.137748338282108307e-02,0.000000000000000000e+00,-7.334558758884668350e-04,1.000000000000000000e+00
2.195794820785522461e+00,-3.447055435180664062e+01,5.241340637207031250e+01,5.241340637207031250e+01,-5.270173773169517517e-02,-4.241942893713712692e-03,-5.187987699173390865e-04,6.238021160243079066e-05,9.252978088625241071e-06,1.350968261249363422e-03,5.554748699069023132e-03,3.657412889879196882e-05,2.221997827291488647e-02,-2.211938844993710518e-03,-4.145396128296852112e-02,-1.271528744837269187e-04,0.000000000000000000e+00,-9.662081720307469368e-04,1.000000000000000000e+00
2.195794820785522461e+00,-3.447055435180664062e+01,5.241340637207031250e+01,5.241340637207031250e+01,-5.270173773169517517e-02,-4.241942893713712692e-03,-5.187987699173390865e-04,6.238021160243079066e-05,9.252978088625241071e-06,1.350968261249363422e-03,5.554748699069023132e-03,3.657412889879196882e-05,2.221997827291488647e-02,-2.211938844993710518e-03,-4.145396128296852112e-02,-1.271528744837269187e-04,0.000000000000000000e+00,-9.662081720307469368e-04,1.000000000000000000e+00
2.195794820785522461e+00,-3.447055435180664062e+01,5.241340637207031250e+01,5.241340637207031250e+01,-5.270173773169517517e-02,-4.241942893713712692e-03,-5.187987699173390865e-04,6.238021160243079066e-05,9.252978088625241071e-06,1.350968261249363422e-03,5.554748699069023132e-03,3.657412889879196882e-05,2.221997827291488647e-02,-2.211938844993710518e-03,-4.145396128296852112e-02,-1.271528744837269187e-04,0.000000000000000000e+00,-9.662081720307469368e-04,1.000000000000000000e+00
2.195794820785522461e+00,-3.447055435180664062e+01,5.241340637207031250e+01,5.241340637207031250e+01,-5.270173773169517517e-02,-4.241942893713712692e-03,-5.187987699173390865e-04,6.238021160243079066e-05,9.252978088625241071e-06,1.350968261249363422e-03,5.554748699069023132e-03,3.657412889879196882e-05,2.221997827291488647e-02,-2.211938844993710518e-03,-4.145396128296852112e-02,-1.271528744837269187e-04,0.000000000000000000e+00,-9.662081720307469368e-04,1.000000000000000000e+00
2.195794820785522461e+00,-3.447055435180664062e+01,5.241340637207031250e+01,5.241340637207031250e+01,-5.270173773169517517e-02,-4.241942893713712692e-03,-5.187987699173390865e-04,6.238021160243079066e-05,9.252978088625241071e-06,1.350968261249363422e-03,5.554748699069023132e-03,3.657412889879196882e-05,2.221997827291488647e-02,-2.211938844993710518e-03,-4.145396128296852112e-02,-1.271528744837269187e-04,0.000000000000000000e+00,-9.662081720307469368e-04,1.000000000000000000e+00
2.195794820785522461e+00,-3.447055435180664062e+01,5.241340637207031250e+01,5.241340637207031250e+01,-5.270173773169517517e-02,-4.241942893713712692e-03,-5.187987699173390865e-04,6.238021160243079066e-05,9.252978088625241071e-06,1.350968261249363422e-03,5.554748699069023132e-03,3.657412889879196882e-05,2.221997827291488647e-02,-2.211938844993710518e-03,-4.145396128296852112e-02,-1.271528744837269187e-04,0.000000000000000000e+00,-9.662081720307469368e-04,1.000000000000000000e+00
2.195794820785522461e+00,-3.447055435180664062e+01,5.241340637207031250e+01,5.241340637207031250e+01,-5.270173773169517517e-02,-4.241942893713712692e-03,-5.187987699173390865e-04,6.238021160243079066e-05,9.252978088625241071e-06,1.350968261249363422e-03,5.554748699069023132e-03,3.657412889879196882e-05,2.221997827291488647e-02,-2.211938844993710518e-03,-4.145396128296852112e-02,-1.271528744837269187e-04,0.000000000000000000e+00,-9.662081720307469368e-04,1.000000000000000000e+00
2.195794820785522461e+00,-3.447055435180664062e+01,5.241340637207031250e+01,5.241340637207031250e+01,-5.270173773169517517e-02,-4.241942893713712692e-03,-5.187987699173390865e-04,6.238021160243079066e-05,9.252978088625241071e-06,1.350968261249363422e-03,5.554748699069023132e-03,3.657412889879196882e-05,2.221997827291488647e-02,-2.211938844993710518e-03,-4.145396128296852112e-02,-1.271528744837269187e-04,0.000000000000000000e+00,-9.662081720307469368e-04,1.000000000000000000e+00
2.195794820785522461e+00,-3.447055435180664062e+01,5.241340637207031250e+01,5.241340637207031250e+01,-5.270173773169517517e-02,-4.241942893713712692e-03,-5.187987699173390865e-04,6.238021160243079066e-05,9.252978088625241071e-06,1.350968261249363422e-03,5.554748699069023132e-03,3.657412889879196882e-05,2.221997827291488647e-02,-2.211938844993710518e-03,-4.145396128296852112e-02,-1.271528744837269187e-04,0.000000000000000000e+00,-9.662081720307469368e-04,1.000000000000000000e+00
2.195794820785522461e+00,-3.447055435180664062e+01,5.241340637207031250e+01,5.241340637207031250e+01,-5.270173773169517517e-02,-4.241942893713712692e-03,-5.187987699173390865e-04,6.238021160243079066e-05,9.252978088625241071e-06,1.350968261249363422e-03,5.554748699069023132e-03,3.657412889879196882e-05,2.221997827291488647e-02,-2.211938844993710518e-03,-4.145396128296852112e-02,-1.271528744837269187e-04,0.000000000000000000e+00,-9.662081720307469368e-04,1.000000000000000000e+00
2.374083757400512695e+00,-3.447054290771484375e+01,5.241340637207031250e+01,5.241340637207031250e+01,-5.090539529919624329e-02,-4.241943359375000000e-03,-4.882812500000000000e-04,9.516210411675274372e-05,-8.017927370929101016e-07,3.171404241584241390e-04,1.838694734033197165e-04,-5.639592927764169872e-05,-5.798609461635351181e-03,-4.204723518341779709e-04,-6.289675831794738770e-02,-3.417804919081390835e-06,0.000000000000000000e+00,-9.651898290030658245e-04,1.000000000000000000e+00
2.374083757400512695e+00,-3.447054290771484375e+01,5.241340637207031250e+01,5.241340637207031250e+01,-5.090539529919624329e-02,-4.241943359375000000e-03,-4.882812500000000000e-04,9.516210411675274372e-05,-8.017927370929101016e-07,3.171404241584241390e-04,1.838694734033197165e-04,-5.639592927764169872e-05,-5.798609461635351181e-03,-4.204723518341779709e-04,-6.289675831794738770e-02,-3.417804919081390835e-06,0.000000000000000000e+00,-9.651898290030658245e-04,1.000000000000000000e+00
2.374083757400512695e+00,-3.447054290771484375e+01,5.241340637207031250e+01,5.241340637207031250e+01,-5.090539529919624329e-02,-4.241943359375000000e-03,-4.882812500000000000e-04,9.516210411675274372e-05,-8.017927370929101016e-07,3.171404241584241390e-04,1.838694734033197165e-04,-5.639592927764169872e-05,-5.798609461635351181e-03,-4.204723518341779709e-04,-6.289675831794738770e-02,-3.417804919081390835e-06,0.000000000000000000e+00,-9.651898290030658245e-04,1.000000000000000000e+00
2.447860002517700195e+00,-3.447047424316406250e+01,5.241340637207031250e+01,5.241340637207031250e+01,-4.010003805160522461e-02,-4.241942893713712692e-03,-3.967284865211695433e-04,1.930149010149762034e-04,-2.209992544521810487e-06,-1.355269574560225010e-03,1.326345605775713921e-03,-1.908744161482900381e-05,-2.266867831349372864e-02,-1.073734369128942490e-03,-1.262760162353515625e-01,-6.026813935022801161e-06,0.000000000000000000e+00,-9.651886648498475552e-04,1.000000000000000000e+00
2.447860002517700195e+00,-3.447047424316406250e+01,5.241340637207031250e+01,5.241340637207031250e+01,-4.010003805160522461e-02,-4.241942893713712692e-03,-3.967284865211695433e-04,1.930149010149762034e-04,-2.209992544521810487e-06,-1.355269574560225010e-03,1.326345605775713921e-03,-1.908744161482900381e-05,-2.266867831349372864e-02,-1.073734369128942490e-03,-1.262760162353515625e-01,-6.026813935022801161e-06,0.000000000000000000e+00,-9.651886648498475552e-04,1.000000000000000000e+00
2.500878810882568359e+00,-3.447041320800781250e+01,5.241340637207031250e+01,5.241340637207031250e+01,-3.061290644109249115e-02,-4.241942893713712692e-03,-3.051756939385086298e-04,1.952716847881674767e-04,-2.669407422217773274e-06,1.199869439005851746e-03,4.256571992300450802e-05,-8.665129826113115996e-06,4.819306358695030212e-02,-1.277292147278785706e-03,-1.275628656148910522e-01,-5.891760338272433728e-06,0.000000000000000000e+00,-9.651886648498475552e-04,1.000000000000000000e+00
2.500878810882568359e+00,-3.447041320800781250e+01,5.241340637207031250e+01,5.241340637207031250e+01,-3.061290644109249115e-02,-4.241942893713712692e-03,-3.051756939385086298e-04,1.952716847881674767e-04,-2.669407422217773274e-06,1.199869439005851746e-03,4.256571992300450802e-05,-8.665129826113115996e-06,4.819306358695030212e-02,-1.277292147278785706e-03,-1.275628656148910522e-01,-5.891760338272433728e-06,0.000000000000000000e+00,-9.651886648498475552e-04,1.000000000000000000e+00
2.500878810882568359e+00,-3.447037124633789062e+01,5.241340637207031250e+01,5.241340637207031250e+01,-2.419935911893844604e-02,-4.241943825036287308e-03,-2.441406250000000000e-04,1.790825190255418420e-04,-2.754494744294788688e-06,1.992171397432684898e-03,-2.729279221966862679e-04,-1.434459704796609003e-06,1.335716247558593750e-02,-1.321594580076634884e-03,-1.169290691614151001e-01,-4.802188868779921904e-06,0.000000000000000000e+00,-9.651886648498475552e-04,1.000000000000000000e+00
2.560195446014404297e+00,-3.447037124633789062e+01,5.241340637207031250e+01,5.241340637207031250e+01,-2.419935911893844604e-02,-4.241943825036287308e-03,-2.441406250000000000e-04,1.790825190255418420e-04,-2.754494744294788688e-06,1.992171397432684898e-03,-2.729279221966862679e-04,-1.434459704796609003e-06,1.335716247558593750e-02,-1.321594580076634884e-03,-1.169290691614151001e-01,-4.802188868779921904e-06,0.000000000000000000e+00,-9.651886648498475552e-04,1.000000000000000000e+00
2.560195446014404297e+00,-3.447037124633789062e+01,5.241340637207031250e+01,5.241340637207031250e+01,-2.419935911893844604e-02,-4.241943825036287308e-03,-2.441406250000000000e-04,1.790825190255418420e-04,-2.754494744294788688e-06,1.992171397432684898e-03,-2.729279221966862679e-04,-1.434459704796609003e-06,1.335716247558593750e-02,-1.321594580076634884e-03,-1.169290691614151001e-01,-4.802188868779921904e-06,0.000000000000000000e+00,-9.651886648498475552e-04,1.000000000000000000e+00
2.618730545043945312e+00,-3.447033309936523438e+01,5.241340637207031250e+01,5.241340637207031250e+01,-1.782679185271263123e-02,-4.241943359375000000e-03,-1.831054833019152284e-04,1.541059027658775449e-04,-2.679506678759935312e-06,-2.348932903259992599e-04,-4.266946925781667233e-04,1.281078652937139850e-06,-3.804665431380271912e-02,-1.263836864382028580e-03,-1.005241200327873230e-01,-3.019684299943037331e-06,0.000000000000000000e+00,-9.651875589042901993e-04,1.000000000000000000e+00
2.618730545043945312e+00,-3.447033309936523438e+01,5.241340637207031250e+01,5.241340637207031250e+01,-1.782679185271263123e-02,-4.241943359375000000e-03,-1.831054833019152284e-04,1.541059027658775449e-04,-2.679506678759935312e-06,-2.348932903259992599e-04,-4.266946925781667233e-04,1.281078652937139850e-06,-3.804665431380271912e-02,-1.263836864382028580e-03,-1.005241200327873230e-01,-3.019684299943037331e-06,0.000000000000000000e+00,-9.651875589042901993e-04,1.000000000000000000e+00
2.677334070205688477e+00,-3.447029876708984375e+01,5.241340637207031250e+01,5.241340637207031250e+01,-1.263584941625595093e-02,-4.241943359375000000e-03,-9.155273437500000000e-05,1.255717797903344035e-04,-2.414357140878564678e-06,8.534135849913582206e-05,-4.869011463597416878e-04,4.524463747657136992e-06,5.464426707476377487e-03,-1.134231919422745705e-03,-8.186978846788406372e-02,-1.919079295475967228e-06,0.000000000000000000e+00,-9.651875589042901993e-04,1.000000000000000000e+00
2.677334070205688477e+00,-3.447029876708984375e+01,5.241340637207031250e+01,5.241340637207031250e+01,-1.263584941625595093e-02,-4.241943359375000000e-03,-9.155273437500000000e-05,1.255717797903344035e-04,-2.414357140878564678e-06,8.534135849913582206e-05,-4.869011463597416878e-04,4.524463747657136992e-06,5.464426707476377487e-03,-1.134231919422745705e-03,-8.186978846788406372e-02,-1.919079295475967228e-06,0.000000000000000000e+00,-9.651875589042901993e-04,1.000000000000000000e+00
2.677334070205688477e+00,-3.447029876708984375e+01,5.241340637207031250e+01,5.241340637207031250e+01,-1.263584941625595093e-02,-4.241943359375000000e-03,-9.155273437500000000e-05,1.255717797903344035e-04,-2.414357140878564678e-06,8.534135849913582206e-05,-4.869011463597416878e-04,4.524463747657136992e-06,5.464426707476377487e-03,-1.134231919422745705e-03,-8.186978846788406372e-02,-1.919079295475967228e-06,0.000000000000000000e+00,-9.651875589042901993e-04,1.000000000000000000e+00
2.677334070205688477e+00,-3.447029876708984375e+01,5.241340637207031250e+01,5.241340637207031250e+01,-1.263584941625595093e-02,-4.241943359375000000e-03,-9.155273437500000000e-05,1.255717797903344035e-04,-2.414357140878564678e-06,8.534135849913582206e-05,-4.869011463597416878e-04,4.524463747657136992e-06,5.464426707476377487e-03,-1.134231919422745705e-03,-8.186978846788406372e-02,-1.919079295475967228e-06,0.000000000000000000e+00,-9.651875589042901993e-04,1.000000000000000000e+00
2.755024909973144531e+00,-3.447028350830078125e+01,5.241340637207031250e+01,5.241340637207031250e+01,-1.028626412153244019e-02,-4.241943359375000000e-03,-6.103515261202119291e-05,1.618263377167750150e-05,-1.162302041279872356e-07,1.667732067289762199e-05,-1.408005715347826481e-03,2.958041113743092865e-05,-8.838113280944526196e-04,-7.706820906605571508e-05,-1.099140290170907974e-02,1.774410293364780955e-06,0.000000000000000000e+00,-9.651886648498475552e-04,1.000000000000000000e+00
2.755024909973144531e+00,-3.447028350830078125e+01,5.241340637207031250e+01,5.241340637207031250e+01,-1.028626412153244019e-02,-4.241943359375000000e-03,-6.103515261202119291e-05,1.618263377167750150e-05,-1.162302041279872356e-07,1.667732067289762199e-05,-1.408005715347826481e-03,2.958041113743092865e-05,-8.838113280944526196e-04,-7.706820906605571508e-05,-1.099140290170907974e-02,1.774410293364780955e-06,0.000000000000000000e+00,-9.651886648498475552e-04,1.000000000000000000e+00
2.755024909973144531e+00,-3.447028350830078125e+01,5.241340637207031250e+01,5.241340637207031250e+01,-1.028626412153244019e-02,-4.241943359375000000e-03,-6.103515261202119291e-05,1.618263377167750150e-05,-1.162302041279872356e-07,1.667732067289762199e-05,-1.408005715347826481e-03,2.958041113743092865e-05,-8.838113280944526196e-04,-7.706820906605571508e-05,-1.099140290170907974e-02,1.774410293364780955e-06,0.000000000000000000e+00,-9.651886648498475552e-04,1.000000000000000000e+00
2.830169916152954102e+00,-3.447027587890625000e+01,5.241340637207031250e+01,5.241340637207031250e+01,-8.763132616877555847e-03,-4.241943359375000000e-03,-6.103515261202119291e-05,3.574314905563369393e-05,-3.600371769607590977e-07,-5.234476993791759014e-04,2.603035827632993460e-04,-3.244486606490681879e-06,-7.187769748270511627e-03,-1.772781251929700375e-04,-2.340956404805183411e-02,1.941787957093765726e-07,0.000000000000000000e+00,-9.651898290030658245e-04,1.000000000000000000e+00
2.830169916152954102e+00,-3.447027587890625000e+01,5.241340637207031250e+01,5.241340637207031250e+01,-8.763132616877555847e-03,-4.241943359375000000e-03,-6.103515261202119291e-05,3.574314905563369393e-05,-3.600371769607590977e-07,-5.234476993791759014e-04,2.603035827632993460e-04,-3.244486606490681879e-06,-7.187769748270511627e-03,-1.772781251929700375e-04,-2.340956404805183411e-02,1.941787957093765726e-07,0.000000000000000000e+00,-9.651898290030658245e-04,1.000000000000000000e+00
2.830169916152954102e+00,-3.447027587890625000e+01,5.241340637207031250e+01,5.241340637207031250e+01,-8.763132616877555847e-03,-4.241943359375000000e-03,-6.103515261202119291e-05,3.574314905563369393e-05,-3.600371769607590977e-07,-5.234476993791759014e-04,2.603035827632993460e-04,-3.244486606490681879e-06,-7.187769748270511627e-03,-1.772781251929700375e-04,-2.340956404805183411e-02,1.941787957093765726e-07,0.000000000000000000e+00,-9.651898290030658245e-04,1.000000000000000000e+00
2.830169916152954102e+00,-3.447027587890625000e+01,5.241340637207031250e+01,5.241340637207031250e+01,-8.763132616877555847e-03,-4.241943359375000000e-03,-6.103515261202119291e-05,3.574314905563369393e-05,-3.600371769607590977e-07,-5.234476993791759014e-04,2.603035827632993460e-04,-3.244486606490681879e-06,-7.187769748270511627e-03,-1.772781251929700375e-04,-2.340956404805183411e-02,1.941787957093765726e-07,0.000000000000000000e+00,-9.651898290030658245e-04,1.000000000000000000e+00
2.830169916152954102e+00,-3.447027587890625000e+01,5.241340637207031250e+01,5.241340637207031250e+01,-8.763132616877555847e-03,-4.241943359375000000e-03,-6.103515261202119291e-05,3.574314905563369393e-05,-3.600371769607590977e-07,-5.234476993791759014e-04,2.603035827632993460e-04,-3.244486606490681879e-06,-7.187769748270511627e-03,-1.772781251929700375e-04,-2.340956404805183411e-02,1.941787957093765726e-07,0.000000000000000000e+00,-9.651898290030658245e-04,1.000000000000000000e+00
2.917726278305053711e+00,-3.447026443481445312e+01,5.241340637207031250e+01,5.241340637207031250e+01,-6.837018765509128571e-03,-4.241943359375000000e-03,-6.103515261202119291e-05,3.983539136243052781e-05,-3.688439562665735139e-07,2.517131215427070856e-04,4.673837611335329711e-05,-1.005841099299686903e-07,8.853278122842311859e-03,-1.782822801033034921e-04,-2.602809853851795197e-02,-3.877004317587307014e-08,0.000000000000000000e+00,-9.651898290030658245e-04,1.000000000000000000e+00
