# Time,X,Y,Z,Roll,Pitch,Yaw,Vx,Vy,Vz,Ax,Ay,Az,Wx,Wy,Wz,Throttle,Steer,Brake
0.000000000000000000e+00,2.123685359954833984e+00,6.892758941650390625e+01,6.892758941650390625e+01,3.296590745449066162e-01,-9.049768066406250000e+01,6.683557330688927323e-06,4.301720091248739664e-10,8.714763133355063474e-09,1.405679271556437016e-03,3.317078522968586185e-08,1.295640430498679052e-07,1.448963582515716553e-02,-1.214351777889532968e-05,1.483548089709074702e-06,-5.184191964602291591e-11,0.000000000000000000e+00,5.772908480139449239e-05,1.000000000000000000e+00
1.045818328857421875e-01,2.123685359954833984e+00,6.892758941650390625e+01,6.892758941650390625e+01,3.296590745449066162e-01,-9.049768066406250000e+01,6.683557330688927323e-06,4.301720091248739664e-10,8.714763133355063474e-09,1.405679271556437016e-03,3.317078522968586185e-08,1.295640430498679052e-07,1.448963582515716553e-02,-1.214351777889532968e-05,1.483548089709074702e-06,-5.184191964602291591e-11,0.000000000000000000e+00,5.772908480139449239e-05,1.000000000000000000e+00
1.045818328857421875e-01,2.123685359954833984e+00,6.892758941650390625e+01,6.892758941650390625e+01,3.296590745449066162e-01,-9.049768066406250000e+01,6.683557330688927323e-06,4.301720091248739664e-10,8.714763133355063474e-09,1.405679271556437016e-03,3.317078522968586185e-08,1.295640430498679052e-07,1.448963582515716553e-02,-1.214351777889532968e-05,1.483548089709074702e-06,-5.184191964602291591e-11,0.000000000000000000e+00,5.772908480139449239e-05,1.000000000000000000e+00
1.045818328857421875e-01,2.123685359954833984e+00,6.892758941650390625e+01,6.892758941650390625e+01,3.296590745449066162e-01,-9.049768066406250000e+01,6.683557330688927323e-06,4.301720091248739664e-10,8.714763133355063474e-09,1.405679271556437016e-03,3.317078522968586185e-08,1.295640430498679052e-07,1.448963582515716553e-02,-1.214351777889532968e-05,1.483548089709074702e-06,-5.184191964602291591e-11,0.000000000000000000e+00,5.772908480139449239e-05,1.000000000000000000e+00
1.045818328857421875e-01,2.123685359954833984e+00,6.892758941650390625e+01,6.892758941650390625e+01,3.296590745449066162e-01,-9.049768066406250000e+01,6.683557330688927323e-06,4.301720091248739664e-10,8.714763133355063474e-09,1.405679271556437016e-03,3.317078522968586185e-08,1.295640430498679052e-07,1.448963582515716553e-02,-1.214351777889532968e-05,1.483548089709074702e-06,-5.184191964602291591e-11,0.000000000000000000e+00,5.772908480139449239e-05,1.000000000000000000e+00
1.045818328857421875e-01,2.123685359954833984e+00,6.892758941650390625e+01,6.892758941650390625e+01,3.296590745449066162e-01,-9.049768066406250000e+01,6.683557330688927323e-06,4.301720091248739664e-10,8.714763133355063474e-09,1.405679271556437016e-03,3.317078522968586185e-08,1.295640430498679052e-07,1.448963582515716553e-02,-1.214351777889532968e-05,1.483548089709074702e-06,-5.184191964602291591e-11,0.000000000000000000e+00,5.772908480139449239e-05,1.000000000000000000e+00
1.045818328857421875e-01,2.123685359954833984e+00,6.892758941650390625e+01,6.892758941650390625e+01,3.296590745449066162e-01,-9.049768066406250000e+01,6.683557330688927323e-06,4.099346972985529192e-10,-3.479409427242785569e-09,-1.089639146812260151e-03,-1.932721066522091746e-10,-1.164578264933879836e-07,-2.383100241422653198e-02,5.370986400521360338e-06,1.217165390698937699e-06,-3.826821082242304328e-10,0.000000000000000000e+00,5.772908480139449239e-05,1.000000000000000000e+00
2.092907428741455078e-01,2.123685359954833984e+00,6.892758941650390625e+01,6.892758941650390625e+01,3.296590745449066162e-01,-9.049768066406250000e+01,6.683557330688927323e-06,4.099346972985529192e-10,-3.479409427242785569e-09,-1.089639146812260151e-03,-1.932721066522091746e-10,-1.164578264933879836e-07,-2.383100241422653198e-02,5.370986400521360338e-06,1.217165390698937699e-06,-3.826821082242304328e-10,0.000000000000000000e+00,5.772908480139449239e-05,1.000000000000000000e+00
2.092907428741455078e-01,2.123685359954833984e+00,6.892758941650390625e+01,6.892758941650390625e+01,3.296590745449066162e-01,-9.049768066406250000e+01,6.683557330688927323e-06,4.099346972985529192e-10,-3.479409427242785569e-09,-1.089639146812260151e-03,-1.932721066522091746e-10,-1.164578264933879836e-07,-2.383100241422653198e-02,5.370986400521360338e-06,1.217165390698937699e-06,-3.826821082242304328e-10,0.000000000000000000e+00,5.772908480139449239e-05,1.000000000000000000e+00
2.092907428741455078e-01,2.123685359954833984e+00,6.892758941650390625e+01,6.892758941650390625e+01,3.296590745449066162e-01,-9.049768066406250000e+01,6.683557330688927323e-06,4.099346972985529192e-10,-3.479409427242785569e-09,-1.089639146812260151e-03,-1.932721066522091746e-10,-1.164578264933879836e-07,-2.383100241422653198e-02,5.370986400521360338e-06,1.217165390698937699e-06,-3.826821082242304328e-10,0.000000000000000000e+00,5.772908480139449239e-05,1.000000000000000000e+00
2.092907428741455078e-01,2.123685359954833984e+00,6.892758941650390625e+01,6.892758941650390625e+01,3.296590745449066162e-01,-9.049768066406250000e+01,6.683557330688927323e-06,4.099346972985529192e-10,-3.479409427242785569e-09,-1.089639146812260151e-03,-1.932721066522091746e-10,-1.164578264933879836e-07,-2.383100241422653198e-02,5.370986400521360338e-06,1.217165390698937699e-06,-3.826821082242304328e-10,0.000000000000000000e+00,5.772908480139449239e-05,1.000000000000000000e+00
2.092907428741455078e-01,2.123685359954833984e+00,6.892758941650390625e+01,6.892758941650390625e+01,3.296590745449066162e-01,-9.049768066406250000e+01,6.683557330688927323e-06,-3.984575336346551921e-09,2.536742149672477353e-09,-2.874848723877221346e-04,-5.889297582939434506e-08,8.062538370268157450e-08,1.075006183236837387e-02,-3.381632950549828820e-06,-5.140297616890165955e-06,1.426820550598506543e-09,0.000000000000000000e+00,5.772908480139449239e-05,1.000000000000000000e+00
2.839093208312988281e-01,2.123685359954833984e+00,6.892758941650390625e+01,6.892758941650390625e+01,3.296590745449066162e-01,-9.049768066406250000e+01,6.683557330688927323e-06,-3.984575336346551921e-09,2.536742149672477353e-09,-2.874848723877221346e-04,-5.889297582939434506e-08,8.062538370268157450e-08,1.075006183236837387e-02,-3.381632950549828820e-06,-5.140297616890165955e-06,1.426820550598506543e-09,0.000000000000000000e+00,5.772908480139449239e-05,1.000000000000000000e+00
2.839093208312988281e-01,2.123685359954833984e+00,6.892758941650390625e+01,6.892758941650390625e+01,3.296590745449066162e-01,-9.049768066406250000e+01,6.683557330688927323e-06,-3.984575336346551921e-09,2.536742149672477353e-09,-2.874848723877221346e-04,-5.889297582939434506e-08,8.062538370268157450e-08,1.075006183236837387e-02,-3.381632950549828820e-06,-5.140297616890165955e-06,1.426820550598506543e-09,0.000000000000000000e+00,5.772908480139449239e-05,1.000000000000000000e+00
2.839093208312988281e-01,2.123685359954833984e+00,6.892758941650390625e+01,6.892758941650390625e+01,3.296590745449066162e-01,-9.049768066406250000e+01,6.683557330688927323e-06,-3.984575336346551921e-09,2.536742149672477353e-09,-2.874848723877221346e-04,-5.889297582939434506e-08,8.062538370268157450e-08,1.075006183236837387e-02,-3.381632950549828820e-06,-5.140297616890165955e-06,1.426820550598506543e-09,0.000000000000000000e+00,5.772908480139449239e-05,1.000000000000000000e+00
2.839093208312988281e-01,2.123685359954833984e+00,6.892758941650390625e+01,6.892758941650390625e+01,3.296590745449066162e-01,-9.049768066406250000e+01,6.683557330688927323e-06,-3.984575336346551921e-09,2.536742149672477353e-09,-2.874848723877221346e-04,-5.889297582939434506e-08,8.062538370268157450e-08,1.075006183236837387e-02,-3.381632950549828820e-06,-5.140297616890165955e-06,1.426820550598506543e-09,0.000000000000000000e+00,5.772908480139449239e-05,1.000000000000000000e+00
3.569011688232421875e-01,2.123685359954833984e+00,6.892758941650390625e+01,6.892758941650390625e+01,3.296590745449066162e-01,-9.049768066406250000e+01,6.683557330688927323e-06,7.143724722880051559e-09,1.733932109004854283e-09,2.066589804599061608e-04,1.524594921420430182e-07,-1.099862600995038520e-08,6.769849918782711029e-03,-2.243134758828091435e-06,9.374133696837816387e-06,-3.182122565448253226e-09,0.000000000000000000e+00,5.772908480139449239e-05,1.000000000000000000e+00
3.569011688232421875e-01,2.123685359954833984e+00,6.892758941650390625e+01,6.892758941650390625e+01,3.296590745449066162e-01,-9.049768066406250000e+01,6.683557330688927323e-06,7.143724722880051559e-09,1.733932109004854283e-09,2.066589804599061608e-04,1.524594921420430182e-07,-1.099862600995038520e-08,6.769849918782711029e-03,-2.243134758828091435e-06,9.374133696837816387e-06,-3.182122565448253226e-09,0.000000000000000000e+00,5.772908480139449239e-05,1.000000000000000000e+00
3.569011688232421875e-01,2.123685359954833984e+00,6.892758941650390625e+01,6.892758941650390625e+01,3.296590745449066162e-01,-9.049768066406250000e+01,6.683557330688927323e-06,7.143724722880051559e-09,1.733932109004854283e-09,2.066589804599061608e-04,1.524594921420430182e-07,-1.099862600995038520e-08,6.769849918782711029e-03,-2.243134758828091435e-06,9.374133696837816387e-06,-3.182122565448253226e-09,0.000000000000000000e+00,5.772908480139449239e-05,1.000000000000000000e+00
3.569011688232421875e-01,2.123685359954833984e+00,6.892758941650390625e+01,6.892758941650390625e+01,3.296590745449066162e-01,-9.049768066406250000e+01,6.683557330688927323e-06,7.143724722880051559e-09,1.733932109004854283e-09,2.066589804599061608e-04,1.524594921420430182e-07,-1.099862600995038520e-08,6.769849918782711029e-03,-2.243134758828091435e-06,9.374133696837816387e-06,-3.182122565448253226e-09,0.000000000000000000e+00,5.772908480139449239e-05,1.000000000000000000e+00
4.765405654907226562e-01,2.123685359954833984e+00,6.892758941650390625e+01,6.892758941650390625e+01,3.296590745449066162e-01,-9.049768066406250000e+01,6.683557330688927323e-06,8.385331540239349124e-09,1.701417340349564711e-10,3.231339796911925077e-04,1.037790919866665718e-08,-1.307086527901901718e-08,9.735505445860326290e-04,-4.207940378364583012e-07,1.632217572478111833e-05,-3.075830035115245664e-09,0.000000000000000000e+00,5.772908480139449239e-05,1.000000000000000000e+00
4.765405654907226562e-01,2.123685359954833984e+00,6.892758941650390625e+01,6.892758941650390625e+01,3.296590745449066162e-01,-9.049768066406250000e+01,6.683557330688927323e-06,8.385331540239349124e-09,1.701417340349564711e-10,3.231339796911925077e-04,1.037790919866665718e-08,-1.307086527901901718e-08,9.735505445860326290e-04,-4.207940378364583012e-07,1.632217572478111833e-05,-3.075830035115245664e-09,0.000000000000000000e+00,5.772908480139449239e-05,1.000000000000000000e+00
4.765405654907226562e-01,2.123685359954833984e+00,6.892758941650390625e+01,6.892758941650390625e+01,3.296590745449066162e-01,-9.049768066406250000e+01,6.683557330688927323e-06,8.385331540239349124e-09,1.701417340349564711e-10,3.231339796911925077e-04,1.037790919866665718e-08,-1.307086527901901718e-08,9.735505445860326290e-04,-4.207940378364583012e-07,1.632217572478111833e-05,-3.075830035115245664e-09,0.000000000000000000e+00,5.772908480139449239e-05,1.000000000000000000e+00
4.765405654907226562e-01,2.123685359954833984e+00,6.892758941650390625e+01,6.892758941650390625e+01,3.296590745449066162e-01,-9.049768066406250000e+01,6.683557330688927323e-06,8.385331540239349124e-09,1.701417340349564711e-10,3.231339796911925077e-04,1.037790919866665718e-08,-1.307086527901901718e-08,9.735505445860326290e-04,-4.207940378364583012e-07,1.632217572478111833e-05,-3.075830035115245664e-09,0.000000000000000000e+00,5.772908480139449239e-05,1.000000000000000000e+00
4.765405654907226562e-01,2.123685359954833984e+00,6.892758941650390625e+01,6.892758941650390625e+01,3.296590745449066162e-01,-9.049768066406250000e+01,6.683557330688927323e-06,8.385331540239349124e-09,1.701417340349564711e-10,3.231339796911925077e-04,1.037790919866665718e-08,-1.307086527901901718e-08,9.735505445860326290e-04,-4.207940378364583012e-07,1.632217572478111833e-05,-3.075830035115245664e-09,0.000000000000000000e+00,5.772908480139449239e-05,1.000000000000000000e+00
4.765405654907226562e-01,2.123685359954833984e+00,6.892758941650390625e+01,6.892758941650390625e+01,3.296590745449066162e-01,-9.049768066406250000e+01,6.683557330688927323e-06,8.385331540239349124e-09,1.701417340349564711e-10,3.231339796911925077e-04,1.037790919866665718e-08,-1.307086527901901718e-08,9.735505445860326290e-04,-4.207940378364583012e-07,1.632217572478111833e-05,-3.075830035115245664e-09,0.000000000000000000e+00,5.772908480139449239e-05,1.000000000000000000e+00
4.765405654907226562e-01,2.123685359954833984e+00,6.892758941650390625e+01,6.892758941650390625e+01,3.296590745449066162e-01,-9.049768066406250000e+01,6.683557330688927323e-06,8.385331540239349124e-09,1.701417340349564711e-10,3.231339796911925077e-04,1.037790919866665718e-08,-1.307086527901901718e-08,9.735505445860326290e-04,-4.207940378364583012e-07,1.632217572478111833e-05,-3.075830035115245664e-09,0.000000000000000000e+00,5.772908480139449239e-05,1.000000000000000000e+00
6.200885772705078125e-01,2.123685359954833984e+00,6.892758941650390625e+01,6.892758941650390625e+01,3.296590745449066162e-01,-9.049768066406250000e+01,6.683557330688927323e-06,6.396829732580044947e-10,-2.144748156851505883e-09,-9.004427120089530945e-04,-5.395859403733993531e-08,-1.612624167535159359e-08,-8.523815311491489410e-03,2.928226194853777997e-06,-2.209576308587202220e-07,-4.338343850829318171e-10,0.000000000000000000e+00,5.772908480139449239e-05,1.000000000000000000e+00
6.200885772705078125e-01,2.123685359954833984e+00,6.892758941650390625e+01,6.892758941650390625e+01,3.296590745449066162e-01,-9.049768066406250000e+01,6.683557330688927323e-06,6.396829732580044947e-10,-2.144748156851505883e-09,-9.004427120089530945e-04,-5.395859403733993531e-08,-1.612624167535159359e-08,-8.523815311491489410e-03,2.928226194853777997e-06,-2.209576308587202220e-07,-4.338343850829318171e-10,0.000000000000000000e+00,5.772908480139449239e-05,1.000000000000000000e+00
6.200885772705078125e-01,2.123685359954833984e+00,6.892758941650390625e+01,6.892758941650390625e+01,3.296590745449066162e-01,-9.049768066406250000e+01,6.683557330688927323e-06,6.396829732580044947e-10,-2.144748156851505883e-09,-9.004427120089530945e-04,-5.395859403733993531e-08,-1.612624167535159359e-08,-8.523815311491489410e-03,2.928226194853777997e-06,-2.209576308587202220e-07,-4.338343850829318171e-10,0.000000000000000000e+00,5.772908480139449239e-05,1.000000000000000000e+00
6.200885772705078125e-01,2.123685359954833984e+00,6.892758941650390625e+01,6.892758941650390625e+01,3.296590745449066162e-01,-9.049768066406250000e+01,6.683557330688927323e-06,6.396829732580044947e-10,-2.144748156851505883e-09,-9.004427120089530945e-04,-5.395859403733993531e-08,-1.612624167535159359e-08,-8.523815311491489410e-03,2.928226194853777997e-06,-2.209576308587202220e-07,-4.338343850829318171e-10,0.000000000000000000e+00,5.772908480139449239e-05,1.000000000000000000e+00
6.200885772705078125e-01,2.123685359954833984e+00,6.892758941650390625e+01,6.892758941650390625e+01,3.296590745449066162e-01,-9.049768066406250000e+01,6.683557330688927323e-06,6.396829732580044947e-10,-2.144748156851505883e-09,-9.004427120089530945e-04,-5.395859403733993531e-08,-1.612624167535159359e-08,-8.523815311491489410e-03,2.928226194853777997e-06,-2.209576308587202220e-07,-4.338343850829318171e-10,0.000000000000000000e+00,5.772908480139449239e-05,1.000000000000000000e+00
6.200885772705078125e-01,2.123685359954833984e+00,6.892758941650390625e+01,6.892758941650390625e+01,3.296590745449066162e-01,-9.049768066406250000e+01,6.683557330688927323e-06,6.396829732580044947e-10,-2.144748156851505883e-09,-9.004427120089530945e-04,-5.395859403733993531e-08,-1.612624167535159359e-08,-8.523815311491489410e-03,2.928226194853777997e-06,-2.209576308587202220e-07,-4.338343850829318171e-10,0.000000000000000000e+00,5.772908480139449239e-05,1.000000000000000000e+00
7.946169376373291016e-01,2.123685359954833984e+00,6.892758941650390625e+01,6.892758941650390625e+01,3.296590745449066162e-01,-9.049768066406250000e+01,6.683557330688927323e-06,3.305518969654031025e-09,7.227955567401522785e-09,-1.413109839631943032e-05,1.527451409799596149e-08,5.370304023699645768e-08,5.078324582427740097e-03,-9.838632649916689843e-06,3.106599251623265445e-06,-1.269647165180742832e-09,0.000000000000000000e+00,5.772908480139449239e-05,1.000000000000000000e+00
7.946169376373291016e-01,2.123685359954833984e+00,6.892758941650390625e+01,6.892758941650390625e+01,3.296590745449066162e-01,-9.049768066406250000e+01,6.683557330688927323e-06,3.305518969654031025e-09,7.227955567401522785e-09,-1.413109839631943032e-05,1.527451409799596149e-08,5.370304023699645768e-08,5.078324582427740097e-03,-9.838632649916689843e-06,3.106599251623265445e-06,-1.269647165180742832e-09,0.000000000000000000e+00,5.772908480139449239e-05,1.000000000000000000e+00
7.946169376373291016e-01,2.123685359954833984e+00,6.892758941650390625e+01,6.892758941650390625e+01,3.296590745449066162e-01,-9.049768066406250000e+01,6.683557330688927323e-06,3.305518969654031025e-09,7.227955567401522785e-09,-1.413109839631943032e-05,1.527451409799596149e-08,5.370304023699645768e-08,5.078324582427740097e-03,-9.838632649916689843e-06,3.106599251623265445e-06,-1.269647165180742832e-09,0.000000000000000000e+00,5.772908480139449239e-05,1.000000000000000000e+00
7.946169376373291016e-01,2.123685359954833984e+00,6.892758941650390625e+01,6.892758941650390625e+01,3.296590745449066162e-01,-9.049768066406250000e+01,6.683557330688927323e-06,3.305518969654031025e-09,7.227955567401522785e-09,-1.413109839631943032e-05,1.527451409799596149e-08,5.370304023699645768e-08,5.078324582427740097e-03,-9.838632649916689843e-06,3.106599251623265445e-06,-1.269647165180742832e-09,0.000000000000000000e+00,5.772908480139449239e-05,1.000000000000000000e+00
8.783230781555175781e-01,2.123685359954833984e+00,6.892758941650390625e+01,6.892758941650390625e+01,3.296590745449066162e-01,-9.049768066406250000e+01,6.683557330688927323e-06,-2.598382176088875894e-09,4.409125953230841333e-09,2.162191376555711031e-04,-7.053128570078115445e-08,-3.367530254649864219e-08,2.751891734078526497e-03,-6.067576578061562032e-06,-8.142923434206750244e-06,6.518801054511413895e-10,0.000000000000000000e+00,5.772908480139449239e-05,1.000000000000000000e+00
8.783230781555175781e-01,2.123685359954833984e+00,6.892758941650390625e+01,6.892758941650390625e+01,3.296590745449066162e-01,-9.049768066406250000e+01,6.683557330688927323e-06,-2.598382176088875894e-09,4.409125953230841333e-09,2.162191376555711031e-04,-7.053128570078115445e-08,-3.367530254649864219e-08,2.751891734078526497e-03,-6.067576578061562032e-06,-8.142923434206750244e-06,6.518801054511413895e-10,0.000000000000000000e+00,5.772908480139449239e-05,1.000000000000000000e+00
9.483780860900878906e-01,2.123685359954833984e+00,6.892758941650390625e+01,6.892758941650390625e+01,3.296590745449066162e-01,-9.049768066406250000e+01,6.683557330688927323e-06,-8.378725269153619593e-09,4.999040292830159160e-09,5.453683552332222462e-04,-8.251149097304733004e-08,8.420730779334917315e-09,4.698439501225948334e-03,-6.659128302999306470e-06,-1.028543374559376389e-05,4.140579434874780418e-09,0.000000000000000000e+00,5.772908480139449239e-05,1.000000000000000000e+00
9.483780860900878906e-01,2.123685359954833984e+00,6.892758941650390625e+01,6.892758941650390625e+01,3.296590745449066162e-01,-9.049768066406250000e+01,6.683557330688927323e-06,-8.378725269153619593e-09,4.999040292830159160e-09,5.453683552332222462e-04,-8.251149097304733004e-08,8.420730779334917315e-09,4.698439501225948334e-03,-6.659128302999306470e-06,-1.028543374559376389e-05,4.140579434874780418e-09,0.000000000000000000e+00,5.772908480139449239e-05,1.000000000000000000e+00
9.483780860900878906e-01,2.123685359954833984e+00,6.892758941650390625e+01,6.892758941650390625e+01,3.296590745449066162e-01,-9.049768066406250000e+01,6.683557330688927323e-06,-8.378725269153619593e-09,4.999040292830159160e-09,5.453683552332222462e-04,-8.251149097304733004e-08,8.420730779334917315e-09,4.698439501225948334e-03,-6.659128302999306470e-06,-1.028543374559376389e-05,4.140579434874780418e-09,0.000000000000000000e+00,5.772908480139449239e-05,1.000000000000000000e+00
9.483780860900878906e-01,2.123685359954833984e+00,6.892758941650390625e+01,6.892758941650390625e+01,3.296590745449066162e-01,-9.049768066406250000e+01,6.683557330688927323e-06,-8.378725269153619593e-09,4.999040292830159160e-09,5.453683552332222462e-04,-8.251149097304733004e-08,8.420730779334917315e-09,4.698439501225948334e-03,-6.659128302999306470e-06,-1.028543374559376389e-05,4.140579434874780418e-09,0.000000000000000000e+00,5.772908480139449239e-05,1.000000000000000000e+00
9.483780860900878906e-01,2.123685359954833984e+00,6.892758941650390625e+01,6.892758941650390625e+01,3.296590745449066162e-01,-9.049768066406250000e+01,6.683557330688927323e-06,-4.756300686636905084e-09,3.529247560862813771e-09,4.258417175151407719e-04,4.597043101739473059e-08,-1.865242538201528077e-08,-1.516854506917297840e-03,-4.691601134254597127e-06,-1.149180661741411313e-05,1.028659712964952178e-09,0.000000000000000000e+00,5.772908480139449239e-05,1.000000000000000000e+00
1.027177095413208008e+00,2.123685359954833984e+00,6.892758941650390625e+01,6.892758941650390625e+01,3.296590745449066162e-01,-9.049768066406250000e+01,6.683557330688927323e-06,-4.756300686636905084e-09,3.529247560862813771e-09,4.258417175151407719e-04,4.597043101739473059e-08,-1.865242538201528077e-08,-1.516854506917297840e-03,-4.691601134254597127e-06,-1.149180661741411313e-05,1.028659712964952178e-09,0.000000000000000000e+00,5.772908480139449239e-05,1.000000000000000000e+00
1.027177095413208008e+00,2.123685359954833984e+00,6.892758941650390625e+01,6.892758941650390625e+01,3.296590745449066162e-01,-9.049768066406250000e+01,6.683557330688927323e-06,-4.756300686636905084e-09,3.529247560862813771e-09,4.258417175151407719e-04,4.597043101739473059e-08,-1.865242538201528077e-08,-1.516854506917297840e-03,-4.691601134254597127e-06,-1.149180661741411313e-05,1.028659712964952178e-09,0.000000000000000000e+00,5.772908480139449239e-05,1.000000000000000000e+00
1.095043420791625977e+00,2.123685359954833984e+00,6.892758941650390625e+01,6.892758941650390625e+01,3.296590745449066162e-01,-9.049768066406250000e+01,6.683557330688927323e-06,6.195569834943626120e-09,-5.674463565696896694e-09,-7.264422602020204067e-04,1.613741460460005328e-07,-1.356152949938405072e-07,-1.697872951626777649e-02,7.942352567624766380e-06,7.144169103412423283e-06,-3.132699877284039758e-09,0.000000000000000000e+00,5.772908480139449239e-05,1.000000000000000000e+00
1.095043420791625977e+00,2.123685359954833984e+00,6.892758941650390625e+01,6.892758941650390625e+01,3.296590745449066162e-01,-9.049768066406250000e+01,6.683557330688927323e-06,6.195569834943626120e-09,-5.674463565696896694e-09,-7.264422602020204067e-04,1.613741460460005328e-07,-1.356152949938405072e-07,-1.697872951626777649e-02,7.942352567624766380e-06,7.144169103412423283e-06,-3.132699877284039758e-09,0.000000000000000000e+00,5.772908480139449239e-05,1.000000000000000000e+00
1.095043420791625977e+00,2.123685359954833984e+00,6.892758941650390625e+01,6.892758941650390625e+01,3.296590745449066162e-01,-9.049768066406250000e+01,6.683557330688927323e-06,6.195569834943626120e-09,-5.674463565696896694e-09,-7.264422602020204067e-04,1.613741460460005328e-07,-1.356152949938405072e-07,-1.697872951626777649e-02,7.942352567624766380e-06,7.144169103412423283e-06,-3.132699877284039758e-09,0.000000000000000000e+00,5.772908480139449239e-05,1.000000000000000000e+00
1.095043420791625977e+00,2.123685359954833984e+00,6.892758941650390625e+01,6.892758941650390625e+01,3.296590745449066162e-01,-9.049768066406250000e+01,6.683557330688927323e-06,6.195569834943626120e-09,-5.674463565696896694e-09,-7.264422602020204067e-04,1.613741460460005328e-07,-1.356152949938405072e-07,-1.697872951626777649e-02,7.942352567624766380e-06,7.144169103412423283e-06,-3.132699877284039758e-09,0.000000000000000000e+00,5.772908480139449239e-05,1.000000000000000000e+00
1.168572425842285156e+00,2.123685359954833984e+00,6.892758941650390625e+01,6.892758941650390625e+01,3.296590745449066162e-01,-9.049768066406250000e+01,6.683557330688927323e-06,-2.778298702210690863e-10,6.360780790970466114e-09,1.508040702901780605e-03,-8.803871764939685818e-08,1.636802124949099380e-07,3.038913384079933167e-02,-8.901915862224996090e-06,-2.382066895734169520e-06,6.115001838224998210e-10,0.000000000000000000e+00,5.772908480139449239e-05,1.000000000000000000e+00
1.168572425842285156e+00,2.123685359954833984e+00,6.892758941650390625e+01,6.892758941650390625e+01,3.296590745449066162e-01,-9.049768066406250000e+01,6.683557330688927323e-06,-2.778298702210690863e-10,6.360780790970466114e-09,1.508040702901780605e-03,-8.803871764939685818e-08,1.636802124949099380e-07,3.038913384079933167e-02,-8.901915862224996090e-06,-2.382066895734169520e-06,6.115001838224998210e-10,0.000000000000000000e+00,5.772908480139449239e-05,1.000000000000000000e+00
1.168572425842285156e+00,2.123685359954833984e+00,6.892758941650390625e+01,6.892758941650390625e+01,3.296590745449066162e-01,-9.049768066406250000e+01,6.683557330688927323e-06,-2.778298702210690863e-10,6.360780790970466114e-09,1.508040702901780605e-03,-8.803871764939685818e-08,1.636802124949099380e-07,3.038913384079933167e-02,-8.901915862224996090e-06,-2.382066895734169520e-06,6.115001838224998210e-10,0.000000000000000000e+00,5.772908480139449239e-05,1.000000000000000000e+00
1.168572425842285156e+00,2.123685359954833984e+00,6.892758941650390625e+01,6.892758941650390625e+01,3.296590745449066162e-01,-9.049768066406250000e+01,6.683557330688927323e-06,-2.778298702210690863e-10,6.360780790970466114e-09,1.508040702901780605e-03,-8.803871764939685818e-08,1.636802124949099380e-07,3.038913384079933167e-02,-8.901915862224996090e-06,-2.382066895734169520e-06,6.115001838224998210e-10,0.000000000000000000e+00,5.772908480139449239e-05,1.000000000000000000e+00
1.168572425842285156e+00,2.123685359954833984e+00,6.892758941650390625e+01,6.892758941650390625e+01,3.296590745449066162e-01,-9.049768066406250000e+01,6.683557330688927323e-06,-2.648120167592082908e-09,-3.744729415444680853e-09,-2.665127794898580760e-05,-3.158346828513458604e-08,-1.346531490753477556e-07,-2.044935151934623718e-02,5.162587058293865994e-06,-9.358954002891550772e-07,1.925049675222112455e-09,0.000000000000000000e+00,5.772908480139449239e-05,1.000000000000000000e+00
1.243620872497558594e+00,2.123685359954833984e+00,6.892758941650390625e+01,6.892758941650390625e+01,3.296590745449066162e-01,-9.049768066406250000e+01,6.683557330688927323e-06,-2.648120167592082908e-09,-3.744729415444680853e-09,-2.665127794898580760e-05,-3.158346828513458604e-08,-1.346531490753477556e-07,-2.044935151934623718e-02,5.162587058293865994e-06,-9.358954002891550772e-07,1.925049675222112455e-09,0.000000000000000000e+00,5.772908480139449239e-05,1.000000000000000000e+00
1.243620872497558594e+00,2.123685359954833984e+00,6.892758941650390625e+01,6.892758941650390625e+01,3.296590745449066162e-01,-9.049768066406250000e+01,6.683557330688927323e-06,-2.648120167592082908e-09,-3.744729415444680853e-09,-2.665127794898580760e-05,-3.158346828513458604e-08,-1.346531490753477556e-07,-2.044935151934623718e-02,5.162587058293865994e-06,-9.358954002891550772e-07,1.925049675222112455e-09,0.000000000000000000e+00,5.772908480139449239e-05,1.000000000000000000e+00
1.243620872497558594e+00,2.123685359954833984e+00,6.892758941650390625e+01,6.892758941650390625e+01,3.296590745449066162e-01,-9.049768066406250000e+01,6.683557330688927323e-06,-2.648120167592082908e-09,-3.744729415444680853e-09,-2.665127794898580760e-05,-3.158346828513458604e-08,-1.346531490753477556e-07,-2.044935151934623718e-02,5.162587058293865994e-06,-9.358954002891550772e-07,1.925049675222112455e-09,0.000000000000000000e+00,5.772908480139449239e-05,1.000000000000000000e+00
1.312042951583862305e+00,2.123685359954833984e+00,6.892758941650390625e+01,6.892758941650390625e+01,3.296590745449066162e-01,-9.049768066406250000e+01,6.683557330688927323e-06,0.000000000000000000e+00,0.000000000000000000e+00,0.000000000000000000e+00,3.870271569894612185e-08,5.472984199172969966e-08,3.895128320436924696e-04,0.000000000000000000e+00,0.000000000000000000e+00,0.000000000000000000e+00,0.000000000000000000e+00,5.772908480139449239e-05,1.000000000000000000e+00
1.312042951583862305e+00,2.123685359954833984e+00,6.892758941650390625e+01,6.892758941650390625e+01,3.296590745449066162e-01,-9.049768066406250000e+01,6.683557330688927323e-06,0.000000000000000000e+00,0.000000000000000000e+00,0.000000000000000000e+00,3.870271569894612185e-08,5.472984199172969966e-08,3.895128320436924696e-04,0.000000000000000000e+00,0.000000000000000000e+00,0.000000000000000000e+00,0.000000000000000000e+00,5.772908480139449239e-05,1.000000000000000000e+00
1.312042951583862305e+00,2.123685359954833984e+00,6.892758941650390625e+01,6.892758941650390625e+01,3.296590745449066162e-01,-9.049768066406250000e+01,6.683557330688927323e-06,5.404125147379090777e-09,4.625282379322470661e-09,9.848296176642179489e-04,7.602191942623903742e-08,6.506563465791259659e-08,1.385397929698228836e-02,-6.244468750082887709e-06,7.493011253245640546e-06,-2.943940424771085418e-09,0.000000000000000000e+00,5.772908480139449239e-05,1.000000000000000000e+00
1.383129358291625977e+00,2.123685359954833984e+00,6.892758941650390625e+01,6.892758941650390625e+01,3.296590745449066162e-01,-9.049768066406250000e+01,6.683557330688927323e-06,5.404125147379090777e-09,4.625282379322470661e-09,9.848296176642179489e-04,7.602191942623903742e-08,6.506563465791259659e-08,1.385397929698228836e-02,-6.244468750082887709e-06,7.493011253245640546e-06,-2.943940424771085418e-09,0.000000000000000000e+00,5.772908480139449239e-05,1.000000000000000000e+00
1.383129358291625977e+00,2.123685359954833984e+00,6.892758941650390625e+01,6.892758941650390625e+01,3.296590745449066162e-01,-9.049768066406250000e+01,6.683557330688927323e-06,5.404125147379090777e-09,4.625282379322470661e-09,9.848296176642179489e-04,7.602191942623903742e-08,6.506563465791259659e-08,1.385397929698228836e-02,-6.244468750082887709e-06,7.493011253245640546e-06,-2.943940424771085418e-09,0.000000000000000000e+00,5.772908480139449239e-05,1.000000000000000000e+00
1.450951814651489258e+00,2.123685359954833984e+00,6.892758941650390625e+01,6.892758941650390625e+01,3.296590745449066162e-01,-9.049768066406250000e+01,6.683557330688927323e-06,1.000456872901622773e-08,-3.401459558460828703e-09,3.101861511822789907e-05,6.783068329241359606e-08,-1.183493267831181583e-07,-1.406335085630416870e-02,4.633812750398647040e-06,7.512860975111834705e-06,-6.872230340349005928e-09,0.000000000000000000e+00,5.772908480139449239e-05,1.000000000000000000e+00
1.450951814651489258e+00,2.123685359954833984e+00,6.892758941650390625e+01,6.892758941650390625e+01,3.296590745449066162e-01,-9.049768066406250000e+01,6.683557330688927323e-06,1.000456872901622773e-08,-3.401459558460828703e-09,3.101861511822789907e-05,6.783068329241359606e-08,-1.183493267831181583e-07,-1.406335085630416870e-02,4.633812750398647040e-06,7.512860975111834705e-06,-6.872230340349005928e-09,0.000000000000000000e+00,5.772908480139449239e-05,1.000000000000000000e+00
1.450951814651489258e+00,2.123685359954833984e+00,6.892758941650390625e+01,6.892758941650390625e+01,3.296590745449066162e-01,-9.049768066406250000e+01,6.683557330688927323e-06,1.000456872901622773e-08,-3.401459558460828703e-09,3.101861511822789907e-05,6.783068329241359606e-08,-1.183493267831181583e-07,-1.406335085630416870e-02,4.633812750398647040e-06,7.512860975111834705e-06,-6.872230340349005928e-09,0.000000000000000000e+00,5.772908480139449239e-05,1.000000000000000000e+00
1.527701377868652344e+00,2.123685359954833984e+00,6.892758941650390625e+01,6.892758941650390625e+01,3.296590745449066162e-01,-9.049768066406250000e+01,6.683557330688927323e-06,4.385162788445029491e-10,2.407528398862268659e-09,4.168421728536486626e-04,-1.246398397825032589e-07,7.568757354192712228e-08,5.027045495808124542e-03,-3.350918632349930704e-06,5.805905516353959683e-07,2.540674615136850889e-10,0.000000000000000000e+00,5.772908480139449239e-05,1.000000000000000000e+00
1.527701377868652344e+00,2.123685359954833984e+00,6.892758941650390625e+01,6.892758941650390625e+01,3.296590745449066162e-01,-9.049768066406250000e+01,6.683557330688927323e-06,4.385162788445029491e-10,2.407528398862268659e-09,4.168421728536486626e-04,-1.246398397825032589e-07,7.568757354192712228e-08,5.027045495808124542e-03,-3.350918632349930704e-06,5.805905516353959683e-07,2.540674615136850889e-10,0.000000000000000000e+00,5.772908480139449239e-05,1.000000000000000000e+00
1.527701377868652344e+00,2.123685359954833984e+00,6.892758941650390625e+01,6.892758941650390625e+01,3.296590745449066162e-01,-9.049768066406250000e+01,6.683557330688927323e-06,4.385162788445029491e-10,2.407528398862268659e-09,4.168421728536486626e-04,-1.246398397825032589e-07,7.568757354192712228e-08,5.027045495808124542e-03,-3.350918632349930704e-06,5.805905516353959683e-07,2.540674615136850889e-10,0.000000000000000000e+00,5.772908480139449239e-05,1.000000000000000000e+00
1.600134611129760742e+00,2.123685359954833984e+00,6.892758941650390625e+01,6.892758941650390625e+01,3.296590745449066162e-01,-9.049768066406250000e+01,6.683557330688927323e-06,-3.579378349272133164e-09,-5.771591649050833439e-09,-1.009824220091104507e-03,-5.547031634023369406e-08,-1.129194302507130487e-07,-1.969629526138305664e-02,8.239655471697915345e-06,-7.158205335144884884e-06,1.380302649955922334e-09,0.000000000000000000e+00,5.772908480139449239e-05,1.000000000000000000e+00
1.600134611129760742e+00,2.123685359954833984e+00,6.892758941650390625e+01,6.892758941650390625e+01,3.296590745449066162e-01,-9.049768066406250000e+01,6.683557330688927323e-06,-3.579378349272133164e-09,-5.771591649050833439e-09,-1.009824220091104507e-03,-5.547031634023369406e-08,-1.129194302507130487e-07,-1.969629526138305664e-02,8.239655471697915345e-06,-7.158205335144884884e-06,1.380302649955922334e-09,0.000000000000000000e+00,5.772908480139449239e-05,1.000000000000000000e+00
1.600134611129760742e+00,2.123685359954833984e+00,6.892758941650390625e+01,6.892758941650390625e+01,3.296590745449066162e-01,-9.049768066406250000e+01,6.683557330688927323e-06,-3.579378349272133164e-09,-5.771591649050833439e-09,-1.009824220091104507e-03,-5.547031634023369406e-08,-1.129194302507130487e-07,-1.969629526138305664e-02,8.239655471697915345e-06,-7.158205335144884884e-06,1.380302649955922334e-09,0.000000000000000000e+00,5.772908480139449239e-05,1.000000000000000000e+00
1.600134611129760742e+00,2.123685359954833984e+00,6.892758941650390625e+01,6.892758941650390625e+01,3.296590745449066162e-01,-9.049768066406250000e+01,6.683557330688927323e-06,-3.579378349272133164e-09,-5.771591649050833439e-09,-1.009824220091104507e-03,-5.547031634023369406e-08,-1.129194302507130487e-07,-1.969629526138305664e-02,8.239655471697915345e-06,-7.158205335144884884e-06,1.380302649955922334e-09,0.000000000000000000e+00,5.772908480139449239e-05,1.000000000000000000e+00
1.600134611129760742e+00,2.123685359954833984e+00,6.892758941650390625e+01,6.892758941650390625e+01,3.296590745449066162e-01,-9.049768066406250000e+01,6.683557330688927323e-06,-3.579378349272133164e-09,-5.771591649050833439e-09,-1.009824220091104507e-03,-5.547031634023369406e-08,-1.129194302507130487e-07,-1.969629526138305664e-02,8.239655471697915345e-06,-7.158205335144884884e-06,1.380302649955922334e-09,0.000000000000000000e+00,5.772908480139449239e-05,1.000000000000000000e+00
1.600134611129760742e+00,2.123685359954833984e+00,6.892758941650390625e+01,6.892758941650390625e+01,3.296590745449066162e-01,-9.049768066406250000e+01,6.683557330688927323e-06,-1.674805988338690099e-10,1.786808367931769226e-09,2.623559557832777500e-04,2.957125389002612792e-08,6.550940412353156717e-08,1.102611143141984940e-02,-2.690002702365745790e-06,-3.732266804945538752e-06,-1.002279370609926445e-09,0.000000000000000000e+00,5.772908480139449239e-05,1.000000000000000000e+00
1.715513467788696289e+00,2.123685359954833984e+00,6.892758941650390625e+01,6.892758941650390625e+01,3.296590745449066162e-01,-9.049768066406250000e+01,6.683557330688927323e-06,-1.674805988338690099e-10,1.786808367931769226e-09,2.623559557832777500e-04,2.957125389002612792e-08,6.550940412353156717e-08,1.102611143141984940e-02,-2.690002702365745790e-06,-3.732266804945538752e-06,-1.002279370609926445e-09,0.000000000000000000e+00,5.772908480139449239e-05,1.000000000000000000e+00
1.715513467788696289e+00,2.123685359954833984e+00,6.892758941650390625e+01,6.892758941650390625e+01,3.296590745449066162e-01,-9.049768066406250000e+01,6.683557330688927323e-06,-1.674805988338690099e-10,1.786808367931769226e-09,2.623559557832777500e-04,2.957125389002612792e-08,6.550940412353156717e-08,1.102611143141984940e-02,-2.690002702365745790e-06,-3.732266804945538752e-06,-1.002279370609926445e-09,0.000000000000000000e+00,5.772908480139449239e-05,1.000000000000000000e+00
1.715513467788696289e+00,2.123685359954833984e+00,6.892758941650390625e+01,6.892758941650390625e+01,3.296590745449066162e-01,-9.049768066406250000e+01,6.683557330688927323e-06,-1.674805988338690099e-10,1.786808367931769226e-09,2.623559557832777500e-04,2.957125389002612792e-08,6.550940412353156717e-08,1.102611143141984940e-02,-2.690002702365745790e-06,-3.732266804945538752e-06,-1.002279370609926445e-09,0.000000000000000000e+00,5.772908480139449239e-05,1.000000000000000000e+00
1.813115119934082031e+00,2.123685359954833984e+00,6.892758941650390625e+01,6.892758941650390625e+01,3.296590745449066162e-01,-9.049768066406250000e+01,6.683557330688927323e-06,-1.795094961565268932e-09,-1.120514514507675585e-10,-1.500261132605373859e-04,-1.667609517141954711e-08,-1.945520189394756017e-08,-4.225154872983694077e-03,6.074615725992771331e-07,-5.180292191653279588e-06,4.223855987195435091e-11,0.000000000000000000e+00,5.772908480139449239e-05,1.000000000000000000e+00
1.813115119934082031e+00,2.123685359954833984e+00,6.892758941650390625e+01,6.892758941650390625e+01,3.296590745449066162e-01,-9.049768066406250000e+01,6.683557330688927323e-06,-1.795094961565268932e-09,-1.120514514507675585e-10,-1.500261132605373859e-04,-1.667609517141954711e-08,-1.945520189394756017e-08,-4.225154872983694077e-03,6.074615725992771331e-07,-5.180292191653279588e-06,4.223855987195435091e-11,0.000000000000000000e+00,5.772908480139449239e-05,1.000000000000000000e+00
1.813115119934082031e+00,2.123685359954833984e+00,6.892758941650390625e+01,6.892758941650390625e+01,3.296590745449066162e-01,-9.049768066406250000e+01,6.683557330688927323e-06,-1.795094961565268932e-09,-1.120514514507675585e-10,-1.500261132605373859e-04,-1.667609517141954711e-08,-1.945520189394756017e-08,-4.225154872983694077e-03,6.074615725992771331e-07,-5.180292191653279588e-06,4.223855987195435091e-11,0.000000000000000000e+00,5.772908480139449239e-05,1.000000000000000000e+00
1.813115119934082031e+00,2.123685359954833984e+00,6.892758941650390625e+01,6.892758941650390625e+01,3.296590745449066162e-01,-9.049768066406250000e+01,6.683557330688927323e-06,-1.795094961565268932e-09,-1.120514514507675585e-10,-1.500261132605373859e-04,-1.667609517141954711e-08,-1.945520189394756017e-08,-4.225154872983694077e-03,6.074615725992771331e-07,-5.180292191653279588e-06,4.223855987195435091e-11,0.000000000000000000e+00,5.772908480139449239e-05,1.000000000000000000e+00
1.896134853363037109e+00,2.123685359954833984e+00,6.892758941650390625e+01,6.892758941650390625e+01,3.296590745449066162e-01,-9.049768066406250000e+01,6.683557330688927323e-06,-1.423089202035043854e-09,5.235533784286872105e-09,2.540747227612882853e-04,4.480931625749917657e-09,6.441342037533104303e-08,4.867527633905410767e-03,-6.795135959691833705e-06,-5.125900315761100501e-06,2.197265147607652125e-10,0.000000000000000000e+00,5.772908480139449239e-05,1.000000000000000000e+00
1.896134853363037109e+00,2.123685359954833984e+00,6.892758941650390625e+01,6.892758941650390625e+01,3.296590745449066162e-01,-9.049768066406250000e+01,6.683557330688927323e-06,-1.423089202035043854e-09,5.235533784286872105e-09,2.540747227612882853e-04,4.480931625749917657e-09,6.441342037533104303e-08,4.867527633905410767e-03,-6.795135959691833705e-06,-5.125900315761100501e-06,2.197265147607652125e-10,0.000000000000000000e+00,5.772908480139449239e-05,1.000000000000000000e+00
1.896134853363037109e+00,2.123685359954833984e+00,6.892758941650390625e+01,6.892758941650390625e+01,3.296590745449066162e-01,-9.049768066406250000e+01,6.683557330688927323e-06,-1.423089202035043854e-09,5.235533784286872105e-09,2.540747227612882853e-04,4.480931625749917657e-09,6.441342037533104303e-08,4.867527633905410767e-03,-6.795135959691833705e-06,-5.125900315761100501e-06,2.197265147607652125e-10,0.000000000000000000e+00,5.772908480139449239e-05,1.000000000000000000e+00
1.896134853363037109e+00,2.123685359954833984e+00,6.892758941650390625e+01,6.892758941650390625e+01,3.296590745449066162e-01,-9.049768066406250000e+01,6.683557330688927323e-06,-1.423089202035043854e-09,5.235533784286872105e-09,2.540747227612882853e-04,4.480931625749917657e-09,6.441342037533104303e-08,4.867527633905410767e-03,-6.795135959691833705e-06,-5.125900315761100501e-06,2.197265147607652125e-10,0.000000000000000000e+00,5.772908480139449239e-05,1.000000000000000000e+00
1.896134853363037109e+00,2.123685359954833984e+00,6.892758941650390625e+01,6.892758941650390625e+01,3.296590745449066162e-01,-9.049768066406250000e+01,6.683557330688927323e-06,-1.423089202035043854e-09,5.235533784286872105e-09,2.540747227612882853e-04,4.480931625749917657e-09,6.441342037533104303e-08,4.867527633905410767e-03,-6.795135959691833705e-06,-5.125900315761100501e-06,2.197265147607652125e-10,0.000000000000000000e+00,5.772908480139449239e-05,1.000000000000000000e+00
1.896134853363037109e+00,2.123685359954833984e+00,6.892758941650390625e+01,6.892758941650390625e+01,3.296590745449066162e-01,-9.049768066406250000e+01,6.683557330688927323e-06,-1.423089202035043854e-09,5.235533784286872105e-09,2.540747227612882853e-04,4.480931625749917657e-09,6.441342037533104303e-08,4.867527633905410767e-03,-6.795135959691833705e-06,-5.125900315761100501e-06,2.197265147607652125e-10,0.000000000000000000e+00,5.772908480139449239e-05,1.000000000000000000e+00
1.896134853363037109e+00,2.123685359954833984e+00,6.892758941650390625e+01,6.892758941650390625e+01,3.296590745449066162e-01,-9.049768066406250000e+01,6.683557330688927323e-06,-1.423089202035043854e-09,5.235533784286872105e-09,2.540747227612882853e-04,4.480931625749917657e-09,6.441342037533104303e-08,4.867527633905410767e-03,-6.795135959691833705e-06,-5.125900315761100501e-06,2.197265147607652125e-10,0.000000000000000000e+00,5.772908480139449239e-05,1.000000000000000000e+00
2.195794820785522461e+00,2.123685359954833984e+00,6.892758941650390625e+01,6.892758941650390625e+01,3.296590745449066162e-01,-9.049768066406250000e+01,6.683557330688927323e-06,-6.343134351105561564e-10,6.305862054745148271e-09,1.201415900141000748e-03,4.288740029778637108e-08,8.882577873237096355e-08,2.291488647460937500e-02,-8.830987098917830735e-06,-1.490681711402430665e-06,-2.241873527097926200e-11,0.000000000000000000e+00,5.772908480139449239e-05,1.000000000000000000e+00
2.195794820785522461e+00,2.123685359954833984e+00,6.892758941650390625e+01,6.892758941650390625e+01,3.296590745449066162e-01,-9.049768066406250000e+01,6.683557330688927323e-06,-6.343134351105561564e-10,6.305862054745148271e-09,1.201415900141000748e-03,4.288740029778637108e-08,8.882577873237096355e-08,2.291488647460937500e-02,-8.830987098917830735e-06,-1.490681711402430665e-06,-2.241873527097926200e-11,0.000000000000000000e+00,5.772908480139449239e-05,1.000000000000000000e+00
2.195794820785522461e+00,2.123685359954833984e+00,6.892758941650390625e+01,6.892758941650390625e+01,3.296590745449066162e-01,-9.049768066406250000e+01,6.683557330688927323e-06,-6.343134351105561564e-10,6.305862054745148271e-09,1.201415900141000748e-03,4.288740029778637108e-08,8.882577873237096355e-08,2.291488647460937500e-02,-8.830987098917830735e-06,-1.490681711402430665e-06,-2.241873527097926200e-11,0.000000000000000000e+00,5.772908480139449239e-05,1.000000000000000000e+00
2.195794820785522461e+00,2.123685359954833984e+00,6.892758941650390625e+01,6.892758941650390625e+01,3.296590745449066162e-01,-9.049768066406250000e+01,6.683557330688927323e-06,-6.343134351105561564e-10,6.305862054745148271e-09,1.201415900141000748e-03,4.288740029778637108e-08,8.882577873237096355e-08,2.291488647460937500e-02,-8.830987098917830735e-06,-1.490681711402430665e-06,-2.241873527097926200e-11,0.000000000000000000e+00,5.772908480139449239e-05,1.000000000000000000e+00
2.195794820785522461e+00,2.123685359954833984e+00,6.892758941650390625e+01,6.892758941650390625e+01,3.296590745449066162e-01,-9.049768066406250000e+01,6.683557330688927323e-06,-6.343134351105561564e-10,6.305862054745148271e-09,1.201415900141000748e-03,4.288740029778637108e-08,8.882577873237096355e-08,2.291488647460937500e-02,-8.830987098917830735e-06,-1.490681711402430665e-06,-2.241873527097926200e-11,0.000000000000000000e+00,5.772908480139449239e-05,1.000000000000000000e+00
2.195794820785522461e+00,2.123685359954833984e+00,6.892758941650390625e+01,6.892758941650390625e+01,3.296590745449066162e-01,-9.049768066406250000e+01,6.683557330688927323e-06,-6.343134351105561564e-10,6.305862054745148271e-09,1.201415900141000748e-03,4.288740029778637108e-08,8.882577873237096355e-08,2.291488647460937500e-02,-8.830987098917830735e-06,-1.490681711402430665e-06,-2.241873527097926200e-11,0.000000000000000000e+00,5.772908480139449239e-05,1.000000000000000000e+00
2.195794820785522461e+00,2.123685359954833984e+00,6.892758941650390625e+01,6.892758941650390625e+01,3.296590745449066162e-01,-9.049768066406250000e+01,6.683557330688927323e-06,-6.343134351105561564e-10,6.305862054745148271e-09,1.201415900141000748e-03,4.288740029778637108e-08,8.882577873237096355e-08,2.291488647460937500e-02,-8.830987098917830735e-06,-1.490681711402430665e-06,-2.241873527097926200e-11,0.000000000000000000e+00,5.772908480139449239e-05,1.000000000000000000e+00
2.195794820785522461e+00,2.123685359954833984e+00,6.892758941650390625e+01,6.892758941650390625e+01,3.296590745449066162e-01,-9.049768066406250000e+01,6.683557330688927323e-06,-6.343134351105561564e-10,6.305862054745148271e-09,1.201415900141000748e-03,4.288740029778637108e-08,8.882577873237096355e-08,2.291488647460937500e-02,-8.830987098917830735e-06,-1.490681711402430665e-06,-2.241873527097926200e-11,0.000000000000000000e+00,5.772908480139449239e-05,1.000000000000000000e+00
2.195794820785522461e+00,2.123685359954833984e+00,6.892758941650390625e+01,6.892758941650390625e+01,3.296590745449066162e-01,-9.049768066406250000e+01,6.683557330688927323e-06,-6.343134351105561564e-10,6.305862054745148271e-09,1.201415900141000748e-03,4.288740029778637108e-08,8.882577873237096355e-08,2.291488647460937500e-02,-8.830987098917830735e-06,-1.490681711402430665e-06,-2.241873527097926200e-11,0.000000000000000000e+00,5.772908480139449239e-05,1.000000000000000000e+00
2.195794820785522461e+00,2.123685359954833984e+00,6.892758941650390625e+01,6.892758941650390625e+01,3.296590745449066162e-01,-9.049768066406250000e+01,6.683557330688927323e-06,-6.343134351105561564e-10,6.305862054745148271e-09,1.201415900141000748e-03,4.288740029778637108e-08,8.882577873237096355e-08,2.291488647460937500e-02,-8.830987098917830735e-06,-1.490681711402430665e-06,-2.241873527097926200e-11,0.000000000000000000e+00,5.772908480139449239e-05,1.000000000000000000e+00
2.374083757400512695e+00,2.123685359954833984e+00,6.892758941650390625e+01,6.892758941650390625e+01,3.296590745449066162e-01,-9.049768066406250000e+01,6.683557330688927323e-06,-4.233640993334120139e-09,-1.090789902846722725e-09,2.566378389019519091e-04,-2.018817113480508851e-08,-4.148688148575274681e-08,-5.299140233546495438e-03,1.080742777048726566e-06,-1.470346433052327484e-06,3.750339594432716694e-09,0.000000000000000000e+00,5.772908480139449239e-05,1.000000000000000000e+00
2.374083757400512695e+00,2.123685359954833984e+00,6.892758941650390625e+01,6.892758941650390625e+01,3.296590745449066162e-01,-9.049768066406250000e+01,6.683557330688927323e-06,-4.233640993334120139e-09,-1.090789902846722725e-09,2.566378389019519091e-04,-2.018817113480508851e-08,-4.148688148575274681e-08,-5.299140233546495438e-03,1.080742777048726566e-06,-1.470346433052327484e-06,3.750339594432716694e-09,0.000000000000000000e+00,5.772908480139449239e-05,1.000000000000000000e+00
2.374083757400512695e+00,2.123685359954833984e+00,6.892758941650390625e+01,6.892758941650390625e+01,3.296590745449066162e-01,-9.049768066406250000e+01,6.683557330688927323e-06,-4.233640993334120139e-09,-1.090789902846722725e-09,2.566378389019519091e-04,-2.018817113480508851e-08,-4.148688148575274681e-08,-5.299140233546495438e-03,1.080742777048726566e-06,-1.470346433052327484e-06,3.750339594432716694e-09,0.000000000000000000e+00,5.772908480139449239e-05,1.000000000000000000e+00
2.447860002517700195e+00,2.123685359954833984e+00,6.892758941650390625e+01,6.892758941650390625e+01,3.296590745449066162e-01,-9.049768066406250000e+01,6.683557330688927323e-06,-1.801571114512512395e-09,-4.485055438152585339e-09,-1.440208638086915016e-03,3.296548811704269610e-08,-4.600756753347923222e-08,-2.299990318715572357e-02,6.473874691437231377e-06,1.485499524278566241e-06,1.128117266269157426e-09,0.000000000000000000e+00,5.772908480139449239e-05,1.000000000000000000e+00
2.447860002517700195e+00,2.123685359954833984e+00,6.892758941650390625e+01,6.892758941650390625e+01,3.296590745449066162e-01,-9.049768066406250000e+01,6.683557330688927323e-06,-1.801571114512512395e-09,-4.485055438152585339e-09,-1.440208638086915016e-03,3.296548811704269610e-08,-4.600756753347923222e-08,-2.299990318715572357e-02,6.473874691437231377e-06,1.485499524278566241e-06,1.128117266269157426e-09,0.000000000000000000e+00,5.772908480139449239e-05,1.000000000000000000e+00
2.500878810882568359e+00,2.123685359954833984e+00,6.892758941650390625e+01,6.892758941650390625e+01,3.296590745449066162e-01,-9.049768066406250000e+01,6.683557330688927323e-06,3.494205813581174880e-09,1.416866535208782807e-08,1.124235102906823158e-03,9.988487192913453327e-08,3.518321136652957648e-07,4.836856573820114136e-02,-1.947303644556086510e-05,9.223589586326852441e-06,8.813038493427072240e-11,0.000000000000000000e+00,5.772908480139449239e-05,1.000000000000000000e+00
2.500878810882568359e+00,2.123685359954833984e+00,6.892758941650390625e+01,6.892758941650390625e+01,3.296590745449066162e-01,-9.049768066406250000e+01,6.683557330688927323e-06,3.494205813581174880e-09,1.416866535208782807e-08,1.124235102906823158e-03,9.988487192913453327e-08,3.518321136652957648e-07,4.836856573820114136e-02,-1.947303644556086510e-05,9.223589586326852441e-06,8.813038493427072240e-11,0.000000000000000000e+00,5.772908480139449239e-05,1.000000000000000000e+00
2.500878810882568359e+00,2.123685359954833984e+00,6.892758941650390625e+01,6.892758941650390625e+01,3.296590745449066162e-01,-9.049768066406250000e+01,6.683557330688927323e-06,3.494205813581174880e-09,1.416866535208782807e-08,1.124235102906823158e-03,9.988487192913453327e-08,3.518321136652957648e-07,4.836856573820114136e-02,-1.947303644556086510e-05,9.223589586326852441e-06,8.813038493427072240e-11,0.000000000000000000e+00,5.772908480139449239e-05,1.000000000000000000e+00
2.560195446014404297e+00,2.123685359954833984e+00,6.892758941650390625e+01,6.892758941650390625e+01,3.296590745449066162e-01,-9.049768066406250000e+01,6.683557330688927323e-06,-1.455905618286124081e-09,1.460204845926682538e-08,1.927978475578129292e-03,-8.345232771489463630e-08,7.306265814577272977e-09,1.355004962533712387e-02,-2.025820504059083760e-05,-5.322015113051747903e-06,2.595538228788996093e-10,0.000000000000000000e+00,5.772908480139449239e-05,1.000000000000000000e+00
2.560195446014404297e+00,2.123685359954833984e+00,6.892758941650390625e+01,6.892758941650390625e+01,3.296590745449066162e-01,-9.049768066406250000e+01,6.683557330688927323e-06,-1.455905618286124081e-09,1.460204845926682538e-08,1.927978475578129292e-03,-8.345232771489463630e-08,7.306265814577272977e-09,1.355004962533712387e-02,-2.025820504059083760e-05,-5.322015113051747903e-06,2.595538228788996093e-10,0.000000000000000000e+00,5.772908480139449239e-05,1.000000000000000000e+00
2.618730545043945312e+00,2.123685359954833984e+00,6.892758941650390625e+01,6.892758941650390625e+01,3.296590745449066162e-01,-9.049768066406250000e+01,6.683557330688927323e-06,-2.495047501938074674e-09,-4.029417244311161994e-09,-2.871278265956789255e-04,-1.775245728197205608e-08,-3.182956334057962522e-07,-3.784235939383506775e-02,5.558825250773224980e-06,-1.033998913158029609e-07,1.527911352994237859e-09,0.000000000000000000e+00,5.772908480139449239e-05,1.000000000000000000e+00
2.618730545043945312e+00,2.123685359954833984e+00,6.892758941650390625e+01,6.892758941650390625e+01,3.296590745449066162e-01,-9.049768066406250000e+01,6.683557330688927323e-06,-2.495047501938074674e-09,-4.029417244311161994e-09,-2.871278265956789255e-04,-1.775245728197205608e-08,-3.182956334057962522e-07,-3.784235939383506775e-02,5.558825250773224980e-06,-1.033998913158029609e-07,1.527911352994237859e-09,0.000000000000000000e+00,5.772908480139449239e-05,1.000000000000000000e+00
2.677334070205688477e+00,2.123685359954833984e+00,6.892758941650390625e+01,6.892758941650390625e+01,3.296590745449066162e-01,-9.049768066406250000e+01,6.683557330688927323e-06,9.655761523674755153e-09,3.237334400552072111e-09,4.408191307447850704e-05,2.073392266765949898e-07,1.239985465417703381e-07,5.651703570038080215e-03,-4.053092652611667290e-06,1.012373741104966030e-05,-5.153490523213122287e-09,0.000000000000000000e+00,5.772908480139449239e-05,1.000000000000000000e+00
2.677334070205688477e+00,2.123685359954833984e+00,6.892758941650390625e+01,6.892758941650390625e+01,3.296590745449066162e-01,-9.049768066406250000e+01,6.683557330688927323e-06,9.655761523674755153e-09,3.237334400552072111e-09,4.408191307447850704e-05,2.073392266765949898e-07,1.239985465417703381e-07,5.651703570038080215e-03,-4.053092652611667290e-06,1.012373741104966030e-05,-5.153490523213122287e-09,0.000000000000000000e+00,5.772908480139449239e-05,1.000000000000000000e+00
2.677334070205688477e+00,2.123685359954833984e+00,6.892758941650390625e+01,6.892758941650390625e+01,3.296590745449066162e-01,-9.049768066406250000e+01,6.683557330688927323e-06,9.655761523674755153e-09,3.237334400552072111e-09,4.408191307447850704e-05,2.073392266765949898e-07,1.239985465417703381e-07,5.651703570038080215e-03,-4.053092652611667290e-06,1.012373741104966030e-05,-5.153490523213122287e-09,0.000000000000000000e+00,5.772908480139449239e-05,1.000000000000000000e+00
2.677334070205688477e+00,2.123685359954833984e+00,6.892758941650390625e+01,6.892758941650390625e+01,3.296590745449066162e-01,-9.049768066406250000e+01,6.683557330688927323e-06,9.655761523674755153e-09,3.237334400552072111e-09,4.408191307447850704e-05,2.073392266765949898e-07,1.239985465417703381e-07,5.651703570038080215e-03,-4.053092652611667290e-06,1.012373741104966030e-05,-5.153490523213122287e-09,0.000000000000000000e+00,5.772908480139449239e-05,1.000000000000000000e+00
2.755024909973144531e+00,2.123685359954833984e+00,6.892758941650390625e+01,6.892758941650390625e+01,3.296590745449066162e-01,-9.049768066406250000e+01,6.683557330688927323e-06,7.318304295900190937e-11,-2.428434398016321438e-10,8.724841791263315827e-06,-1.233424455904241768e-07,-4.479521464872959768e-08,-4.550996236503124237e-04,3.157408627885160968e-07,9.687603608199424343e-08,-2.544150480565665617e-11,0.000000000000000000e+00,5.772908480139449239e-05,1.000000000000000000e+00
2.755024909973144531e+00,2.123685359954833984e+00,6.892758941650390625e+01,6.892758941650390625e+01,3.296590745449066162e-01,-9.049768066406250000e+01,6.683557330688927323e-06,7.318304295900190937e-11,-2.428434398016321438e-10,8.724841791263315827e-06,-1.233424455904241768e-07,-4.479521464872959768e-08,-4.550996236503124237e-04,3.157408627885160968e-07,9.687603608199424343e-08,-2.544150480565665617e-11,0.000000000000000000e+00,5.772908480139449239e-05,1.000000000000000000e+00
2.755024909973144531e+00,2.123685359954833984e+00,6.892758941650390625e+01,6.892758941650390625e+01,3.296590745449066162e-01,-9.049768066406250000e+01,6.683557330688927323e-06,7.318304295900190937e-11,-2.428434398016321438e-10,8.724841791263315827e-06,-1.233424455904241768e-07,-4.479521464872959768e-08,-4.550996236503124237e-04,3.157408627885160968e-07,9.687603608199424343e-08,-2.544150480565665617e-11,0.000000000000000000e+00,5.772908480139449239e-05,1.000000000000000000e+00
2.830169916152954102e+00,2.123685359954833984e+00,6.892758941650390625e+01,6.892758941650390625e+01,3.296590745449066162e-01,-9.049768066406250000e+01,6.683557330688927323e-06,-4.210413351302122464e-09,-5.241941547495798659e-09,-5.396766937337815762e-04,-5.700440652844918077e-08,-6.652601314272033051e-08,-7.297910749912261963e-03,7.060396910674171522e-06,-4.629792783816810697e-06,2.540722299215758540e-09,0.000000000000000000e+00,5.772908480139449239e-05,1.000000000000000000e+00
2.830169916152954102e+00,2.123685359954833984e+00,6.892758941650390625e+01,6.892758941650390625e+01,3.296590745449066162e-01,-9.049768066406250000e+01,6.683557330688927323e-06,-4.210413351302122464e-09,-5.241941547495798659e-09,-5.396766937337815762e-04,-5.700440652844918077e-08,-6.652601314272033051e-08,-7.297910749912261963e-03,7.060396910674171522e-06,-4.629792783816810697e-06,2.540722299215758540e-09,0.000000000000000000e+00,5.772908480139449239e-05,1.000000000000000000e+00
2.830169916152954102e+00,2.123685359954833984e+00,6.892758941650390625e+01,6.892758941650390625e+01,3.296590745449066162e-01,-9.049768066406250000e+01,6.683557330688927323e-06,-4.210413351302122464e-09,-5.241941547495798659e-09,-5.396766937337815762e-04,-5.700440652844918077e-08,-6.652601314272033051e-08,-7.297910749912261963e-03,7.060396910674171522e-06,-4.629792783816810697e-06,2.540722299215758540e-09,0.000000000000000000e+00,5.772908480139449239e-05,1.000000000000000000e+00
2.830169916152954102e+00,2.123685359954833984e+00,6.892758941650390625e+01,6.892758941650390625e+01,3.296590745449066162e-01,-9.049768066406250000e+01,6.683557330688927323e-06,-4.210413351302122464e-09,-5.241941547495798659e-09,-5.396766937337815762e-04,-5.700440652844918077e-08,-6.652601314272033051e-08,-7.297910749912261963e-03,7.060396910674171522e-06,-4.629792783816810697e-06,2.540722299215758540e-09,0.000000000000000000e+00,5.772908480139449239e-05,1.000000000000000000e+00
2.830169916152954102e+00,2.123685359954833984e+00,6.892758941650390625e+01,6.892758941650390625e+01,3.296590745449066162e-01,-9.049768066406250000e+01,6.683557330688927323e-06,-4.210413351302122464e-09,-5.241941547495798659e-09,-5.396766937337815762e-04,-5.700440652844918077e-08,-6.652601314272033051e-08,-7.297910749912261963e-03,7.060396910674171522e-06,-4.629792783816810697e-06,2.540722299215758540e-09,0.000000000000000000e+00,5.772908480139449239e-05,1.000000000000000000e+00
2.917726278305053711e+00,2.123685359954833984e+00,6.892758941650390625e+01,6.892758941650390625e+01,3.296590745449066162e-01,-9.049768066406250000e+01,6.683557330688927323e-06,-1.359654749899519288e-10,2.611389438023081766e-10,2.349881833652034402e-04,4.653514196206742781e-08,6.285186060495107085e-08,8.847612887620925903e-03,-2.081759333805166534e-07,-4.003337835456477478e-06,-3.234985612721175130e-10,0.000000000000000000e+00,5.772908480139449239e-05,1.000000000000000000e+00
