# Time,X,Y,Z,Roll,Pitch,Yaw,Vx,Vy,Vz,Ax,Ay,Az,Wx,Wy,Wz,Throttle,Steer,Brake
0.000000000000000000e+00,-5.636333942413330078e+00,2.821817626953125000e+02,2.821817626953125000e+02,-1.456332802772521973e-01,8.910105895996093750e+01,-1.525925181340426207e-04,1.117895692586898804e-01,7.074728965759277344e+00,4.331929812906309962e-05,2.625489421188831329e-02,1.510404825210571289e+00,-3.727628154592821375e-06,1.214703083038330078e+00,-2.498695068061351776e-02,-4.857948794960975647e-02,1.000000000000000000e+00,-2.275739389006048441e-04,0.000000000000000000e+00
1.045818328857421875e-01,-5.636333942413330078e+00,2.821817626953125000e+02,2.821817626953125000e+02,-1.456332802772521973e-01,8.910105895996093750e+01,-1.525925181340426207e-04,1.117895692586898804e-01,7.074728965759277344e+00,4.331929812906309962e-05,2.625489421188831329e-02,1.510404825210571289e+00,-3.727628154592821375e-06,1.214703083038330078e+00,-2.498695068061351776e-02,-4.857948794960975647e-02,1.000000000000000000e+00,-2.275739389006048441e-04,0.000000000000000000e+00
1.045818328857421875e-01,-5.636333942413330078e+00,2.821817626953125000e+02,2.821817626953125000e+02,-1.456332802772521973e-01,8.910105895996093750e+01,-1.525925181340426207e-04,1.117895692586898804e-01,7.074728965759277344e+00,4.331929812906309962e-05,2.625489421188831329e-02,1.510404825210571289e+00,-3.727628154592821375e-06,1.214703083038330078e+00,-2.498695068061351776e-02,-4.857948794960975647e-02,1.000000000000000000e+00,-2.275739389006048441e-04,0.000000000000000000e+00
1.045818328857421875e-01,-5.636333942413330078e+00,2.821817626953125000e+02,2.821817626953125000e+02,-1.456332802772521973e-01,8.910105895996093750e+01,-1.525925181340426207e-04,1.117895692586898804e-01,7.074728965759277344e+00,4.331929812906309962e-05,2.625489421188831329e-02,1.510404825210571289e+00,-3.727628154592821375e-06,1.214703083038330078e+00,-2.498695068061351776e-02,-4.857948794960975647e-02,1.000000000000000000e+00,-2.275739389006048441e-04,0.000000000000000000e+00
1.045818328857421875e-01,-5.636333942413330078e+00,2.821817626953125000e+02,2.821817626953125000e+02,-1.456332802772521973e-01,8.910105895996093750e+01,-1.525925181340426207e-04,1.117895692586898804e-01,7.074728965759277344e+00,4.331929812906309962e-05,2.625489421188831329e-02,1.510404825210571289e+00,-3.727628154592821375e-06,1.214703083038330078e+00,-2.498695068061351776e-02,-4.857948794960975647e-02,1.000000000000000000e+00,-2.275739389006048441e-04,0.000000000000000000e+00
1.045818328857421875e-01,-5.636333942413330078e+00,2.821817626953125000e+02,2.821817626953125000e+02,-1.456332802772521973e-01,8.910105895996093750e+01,-1.525925181340426207e-04,1.117895692586898804e-01,7.074728965759277344e+00,4.331929812906309962e-05,2.625489421188831329e-02,1.510404825210571289e+00,-3.727628154592821375e-06,1.214703083038330078e+00,-2.498695068061351776e-02,-4.857948794960975647e-02,1.000000000000000000e+00,-2.275739389006048441e-04,0.000000000000000000e+00
1.045818328857421875e-01,-5.624939441680908203e+00,2.829052429199218750e+02,2.829052429199218750e+02,-2.846822701394557953e-02,8.909709167480468750e+01,1.437508035451173782e-04,1.160260960459709167e-01,7.341448307037353516e+00,2.294158002769108862e-05,4.046003893017768860e-02,2.547245740890502930e+00,-1.946130214491859078e-04,1.078189373016357422e+00,-2.126109972596168518e-02,-3.883123397827148438e-02,1.000000000000000000e+00,-1.136779756052419543e-04,0.000000000000000000e+00
2.092907428741455078e-01,-5.624939441680908203e+00,2.829052429199218750e+02,2.829052429199218750e+02,-2.846822701394557953e-02,8.909709167480468750e+01,1.437508035451173782e-04,1.160260960459709167e-01,7.341448307037353516e+00,2.294158002769108862e-05,4.046003893017768860e-02,2.547245740890502930e+00,-1.946130214491859078e-04,1.078189373016357422e+00,-2.126109972596168518e-02,-3.883123397827148438e-02,1.000000000000000000e+00,-1.136779756052419543e-04,0.000000000000000000e+00
2.092907428741455078e-01,-5.624939441680908203e+00,2.829052429199218750e+02,2.829052429199218750e+02,-2.846822701394557953e-02,8.909709167480468750e+01,1.437508035451173782e-04,1.160260960459709167e-01,7.341448307037353516e+00,2.294158002769108862e-05,4.046003893017768860e-02,2.547245740890502930e+00,-1.946130214491859078e-04,1.078189373016357422e+00,-2.126109972596168518e-02,-3.883123397827148438e-02,1.000000000000000000e+00,-1.136779756052419543e-04,0.000000000000000000e+00
2.092907428741455078e-01,-5.624939441680908203e+00,2.829052429199218750e+02,2.829052429199218750e+02,-2.846822701394557953e-02,8.909709167480468750e+01,1.437508035451173782e-04,1.160260960459709167e-01,7.341448307037353516e+00,2.294158002769108862e-05,4.046003893017768860e-02,2.547245740890502930e+00,-1.946130214491859078e-04,1.078189373016357422e+00,-2.126109972596168518e-02,-3.883123397827148438e-02,1.000000000000000000e+00,-1.136779756052419543e-04,0.000000000000000000e+00
2.092907428741455078e-01,-5.624939441680908203e+00,2.829052429199218750e+02,2.829052429199218750e+02,-2.846822701394557953e-02,8.909709167480468750e+01,1.437508035451173782e-04,1.160260960459709167e-01,7.341448307037353516e+00,2.294158002769108862e-05,4.046003893017768860e-02,2.547245740890502930e+00,-1.946130214491859078e-04,1.078189373016357422e+00,-2.126109972596168518e-02,-3.883123397827148438e-02,1.000000000000000000e+00,-1.136779756052419543e-04,0.000000000000000000e+00
2.092907428741455078e-01,-5.613059997558593750e+00,2.836583251953125000e+02,2.836583251953125000e+02,6.612988561391830444e-02,8.909382629394531250e+01,4.344409680925309658e-04,1.211315244436264038e-01,7.657992362976074219e+00,-5.339686026673007291e-07,6.842033565044403076e-02,4.242161273956298828e+00,-3.146072849631309509e-04,8.514091968536376953e-01,-1.721080765128135681e-02,-3.191350772976875305e-02,1.000000000000000000e+00,-4.283360249246470630e-05,0.000000000000000000e+00
2.839093208312988281e-01,-5.613059997558593750e+00,2.836583251953125000e+02,2.836583251953125000e+02,6.612988561391830444e-02,8.909382629394531250e+01,4.344409680925309658e-04,1.211315244436264038e-01,7.657992362976074219e+00,-5.339686026673007291e-07,6.842033565044403076e-02,4.242161273956298828e+00,-3.146072849631309509e-04,8.514091968536376953e-01,-1.721080765128135681e-02,-3.191350772976875305e-02,1.000000000000000000e+00,-4.283360249246470630e-05,0.000000000000000000e+00
2.839093208312988281e-01,-5.613059997558593750e+00,2.836583251953125000e+02,2.836583251953125000e+02,6.612988561391830444e-02,8.909382629394531250e+01,4.344409680925309658e-04,1.211315244436264038e-01,7.657992362976074219e+00,-5.339686026673007291e-07,6.842033565044403076e-02,4.242161273956298828e+00,-3.146072849631309509e-04,8.514091968536376953e-01,-1.721080765128135681e-02,-3.191350772976875305e-02,1.000000000000000000e+00,-4.283360249246470630e-05,0.000000000000000000e+00
2.839093208312988281e-01,-5.613059997558593750e+00,2.836583251953125000e+02,2.836583251953125000e+02,6.612988561391830444e-02,8.909382629394531250e+01,4.344409680925309658e-04,1.211315244436264038e-01,7.657992362976074219e+00,-5.339686026673007291e-07,6.842033565044403076e-02,4.242161273956298828e+00,-3.146072849631309509e-04,8.514091968536376953e-01,-1.721080765128135681e-02,-3.191350772976875305e-02,1.000000000000000000e+00,-4.283360249246470630e-05,0.000000000000000000e+00
2.839093208312988281e-01,-5.613059997558593750e+00,2.836583251953125000e+02,2.836583251953125000e+02,6.612988561391830444e-02,8.909382629394531250e+01,4.344409680925309658e-04,1.211315244436264038e-01,7.657992362976074219e+00,-5.339686026673007291e-07,6.842033565044403076e-02,4.242161273956298828e+00,-3.146072849631309509e-04,8.514091968536376953e-01,-1.721080765128135681e-02,-3.191350772976875305e-02,1.000000000000000000e+00,-4.283360249246470630e-05,0.000000000000000000e+00
3.569011688232421875e-01,-5.603853225708007812e+00,2.842415161132812500e+02,2.842415161132812500e+02,1.213041543960571289e-01,8.909193420410156250e+01,5.644990596920251846e-04,1.251498609781265259e-01,7.912686824798583984e+00,-1.379760760755743831e-05,5.505185201764106750e-02,3.489354848861694336e+00,-1.817139709601178765e-04,6.873742938041687012e-01,-1.298498269170522690e-02,-2.374468930065631866e-02,1.000000000000000000e+00,2.681187288544606417e-05,0.000000000000000000e+00
3.569011688232421875e-01,-5.603853225708007812e+00,2.842415161132812500e+02,2.842415161132812500e+02,1.213041543960571289e-01,8.909193420410156250e+01,5.644990596920251846e-04,1.251498609781265259e-01,7.912686824798583984e+00,-1.379760760755743831e-05,5.505185201764106750e-02,3.489354848861694336e+00,-1.817139709601178765e-04,6.873742938041687012e-01,-1.298498269170522690e-02,-2.374468930065631866e-02,1.000000000000000000e+00,2.681187288544606417e-05,0.000000000000000000e+00
3.569011688232421875e-01,-5.603853225708007812e+00,2.842415161132812500e+02,2.842415161132812500e+02,1.213041543960571289e-01,8.909193420410156250e+01,5.644990596920251846e-04,1.251498609781265259e-01,7.912686824798583984e+00,-1.379760760755743831e-05,5.505185201764106750e-02,3.489354848861694336e+00,-1.817139709601178765e-04,6.873742938041687012e-01,-1.298498269170522690e-02,-2.374468930065631866e-02,1.000000000000000000e+00,2.681187288544606417e-05,0.000000000000000000e+00
3.569011688232421875e-01,-5.603853225708007812e+00,2.842415161132812500e+02,2.842415161132812500e+02,1.213041543960571289e-01,8.909193420410156250e+01,5.644990596920251846e-04,1.251498609781265259e-01,7.912686824798583984e+00,-1.379760760755743831e-05,5.505185201764106750e-02,3.489354848861694336e+00,-1.817139709601178765e-04,6.873742938041687012e-01,-1.298498269170522690e-02,-2.374468930065631866e-02,1.000000000000000000e+00,2.681187288544606417e-05,0.000000000000000000e+00
4.765405654907226562e-01,-5.594545841217041016e+00,2.848306884765625000e+02,2.848306884765625000e+02,1.655501127243041992e-01,8.909055328369140625e+01,6.515520508401095867e-04,1.292262524366378784e-01,8.170613288879394531e+00,-1.949025681824423373e-05,3.407231718301773071e-02,2.155865669250488281e+00,-4.758172872243449092e-05,5.556033253669738770e-01,-1.033484283834695816e-02,-1.746101863682270050e-02,1.000000000000000000e+00,7.084437675075605512e-05,0.000000000000000000e+00
4.765405654907226562e-01,-5.594545841217041016e+00,2.848306884765625000e+02,2.848306884765625000e+02,1.655501127243041992e-01,8.909055328369140625e+01,6.515520508401095867e-04,1.292262524366378784e-01,8.170613288879394531e+00,-1.949025681824423373e-05,3.407231718301773071e-02,2.155865669250488281e+00,-4.758172872243449092e-05,5.556033253669738770e-01,-1.033484283834695816e-02,-1.746101863682270050e-02,1.000000000000000000e+00,7.084437675075605512e-05,0.000000000000000000e+00
4.765405654907226562e-01,-5.594545841217041016e+00,2.848306884765625000e+02,2.848306884765625000e+02,1.655501127243041992e-01,8.909055328369140625e+01,6.515520508401095867e-04,1.292262524366378784e-01,8.170613288879394531e+00,-1.949025681824423373e-05,3.407231718301773071e-02,2.155865669250488281e+00,-4.758172872243449092e-05,5.556033253669738770e-01,-1.033484283834695816e-02,-1.746101863682270050e-02,1.000000000000000000e+00,7.084437675075605512e-05,0.000000000000000000e+00
4.765405654907226562e-01,-5.594545841217041016e+00,2.848306884765625000e+02,2.848306884765625000e+02,1.655501127243041992e-01,8.909055328369140625e+01,6.515520508401095867e-04,1.292262524366378784e-01,8.170613288879394531e+00,-1.949025681824423373e-05,3.407231718301773071e-02,2.155865669250488281e+00,-4.758172872243449092e-05,5.556033253669738770e-01,-1.033484283834695816e-02,-1.746101863682270050e-02,1.000000000000000000e+00,7.084437675075605512e-05,0.000000000000000000e+00
4.765405654907226562e-01,-5.594545841217041016e+00,2.848306884765625000e+02,2.848306884765625000e+02,1.655501127243041992e-01,8.909055328369140625e+01,6.515520508401095867e-04,1.292262524366378784e-01,8.170613288879394531e+00,-1.949025681824423373e-05,3.407231718301773071e-02,2.155865669250488281e+00,-4.758172872243449092e-05,5.556033253669738770e-01,-1.033484283834695816e-02,-1.746101863682270050e-02,1.000000000000000000e+00,7.084437675075605512e-05,0.000000000000000000e+00
4.765405654907226562e-01,-5.594545841217041016e+00,2.848306884765625000e+02,2.848306884765625000e+02,1.655501127243041992e-01,8.909055328369140625e+01,6.515520508401095867e-04,1.292262524366378784e-01,8.170613288879394531e+00,-1.949025681824423373e-05,3.407231718301773071e-02,2.155865669250488281e+00,-4.758172872243449092e-05,5.556033253669738770e-01,-1.033484283834695816e-02,-1.746101863682270050e-02,1.000000000000000000e+00,7.084437675075605512e-05,0.000000000000000000e+00
4.765405654907226562e-01,-5.594545841217041016e+00,2.848306884765625000e+02,2.848306884765625000e+02,1.655501127243041992e-01,8.909055328369140625e+01,6.515520508401095867e-04,1.292262524366378784e-01,8.170613288879394531e+00,-1.949025681824423373e-05,3.407231718301773071e-02,2.155865669250488281e+00,-4.758172872243449092e-05,5.556033253669738770e-01,-1.033484283834695816e-02,-1.746101863682270050e-02,1.000000000000000000e+00,7.084437675075605512e-05,0.000000000000000000e+00
6.200885772705078125e-01,-5.581296920776367188e+00,2.856691284179687500e+02,2.856691284179687500e+02,2.127398848533630371e-01,8.908927154541015625e+01,7.451093988493084908e-04,1.349448710680007935e-01,8.531626701354980469e+00,-2.132060399162583053e-05,3.983767330646514893e-02,2.514931440353393555e+00,-1.275076647289097309e-05,4.013159275054931641e-01,-7.853481918573379517e-03,-1.149489451199769974e-02,1.000000000000000000e+00,1.068115234375000000e-04,0.000000000000000000e+00
6.200885772705078125e-01,-5.581296920776367188e+00,2.856691284179687500e+02,2.856691284179687500e+02,2.127398848533630371e-01,8.908927154541015625e+01,7.451093988493084908e-04,1.349448710680007935e-01,8.531626701354980469e+00,-2.132060399162583053e-05,3.983767330646514893e-02,2.514931440353393555e+00,-1.275076647289097309e-05,4.013159275054931641e-01,-7.853481918573379517e-03,-1.149489451199769974e-02,1.000000000000000000e+00,1.068115234375000000e-04,0.000000000000000000e+00
6.200885772705078125e-01,-5.581296920776367188e+00,2.856691284179687500e+02,2.856691284179687500e+02,2.127398848533630371e-01,8.908927154541015625e+01,7.451093988493084908e-04,1.349448710680007935e-01,8.531626701354980469e+00,-2.132060399162583053e-05,3.983767330646514893e-02,2.514931440353393555e+00,-1.275076647289097309e-05,4.013159275054931641e-01,-7.853481918573379517e-03,-1.149489451199769974e-02,1.000000000000000000e+00,1.068115234375000000e-04,0.000000000000000000e+00
6.200885772705078125e-01,-5.581296920776367188e+00,2.856691284179687500e+02,2.856691284179687500e+02,2.127398848533630371e-01,8.908927154541015625e+01,7.451093988493084908e-04,1.349448710680007935e-01,8.531626701354980469e+00,-2.132060399162583053e-05,3.983767330646514893e-02,2.514931440353393555e+00,-1.275076647289097309e-05,4.013159275054931641e-01,-7.853481918573379517e-03,-1.149489451199769974e-02,1.000000000000000000e+00,1.068115234375000000e-04,0.000000000000000000e+00
6.200885772705078125e-01,-5.581296920776367188e+00,2.856691284179687500e+02,2.856691284179687500e+02,2.127398848533630371e-01,8.908927154541015625e+01,7.451093988493084908e-04,1.349448710680007935e-01,8.531626701354980469e+00,-2.132060399162583053e-05,3.983767330646514893e-02,2.514931440353393555e+00,-1.275076647289097309e-05,4.013159275054931641e-01,-7.853481918573379517e-03,-1.149489451199769974e-02,1.000000000000000000e+00,1.068115234375000000e-04,0.000000000000000000e+00
6.200885772705078125e-01,-5.581296920776367188e+00,2.856691284179687500e+02,2.856691284179687500e+02,2.127398848533630371e-01,8.908927154541015625e+01,7.451093988493084908e-04,1.349448710680007935e-01,8.531626701354980469e+00,-2.132060399162583053e-05,3.983767330646514893e-02,2.514931440353393555e+00,-1.275076647289097309e-05,4.013159275054931641e-01,-7.853481918573379517e-03,-1.149489451199769974e-02,1.000000000000000000e+00,1.068115234375000000e-04,0.000000000000000000e+00
7.946169376373291016e-01,-5.567512035369873047e+00,2.865415039062500000e+02,2.865415039062500000e+02,2.357371300458908081e-01,8.908904266357421875e+01,7.162153488025069237e-04,1.395605653524398804e-01,8.831671714782714844e+00,-1.615254950593225658e-05,2.644667215645313263e-02,1.719176292419433594e+00,2.961154496006201953e-05,3.162796795368194580e-02,-2.811295562423765659e-04,4.158724565058946609e-03,5.000000000000000000e-01,1.569475425640121102e-04,0.000000000000000000e+00
7.946169376373291016e-01,-5.567512035369873047e+00,2.865415039062500000e+02,2.865415039062500000e+02,2.357371300458908081e-01,8.908904266357421875e+01,7.162153488025069237e-04,1.395605653524398804e-01,8.831671714782714844e+00,-1.615254950593225658e-05,2.644667215645313263e-02,1.719176292419433594e+00,2.961154496006201953e-05,3.162796795368194580e-02,-2.811295562423765659e-04,4.158724565058946609e-03,5.000000000000000000e-01,1.569475425640121102e-04,0.000000000000000000e+00
7.946169376373291016e-01,-5.567512035369873047e+00,2.865415039062500000e+02,2.865415039062500000e+02,2.357371300458908081e-01,8.908904266357421875e+01,7.162153488025069237e-04,1.395605653524398804e-01,8.831671714782714844e+00,-1.615254950593225658e-05,2.644667215645313263e-02,1.719176292419433594e+00,2.961154496006201953e-05,3.162796795368194580e-02,-2.811295562423765659e-04,4.158724565058946609e-03,5.000000000000000000e-01,1.569475425640121102e-04,0.000000000000000000e+00
8.783230781555175781e-01,-5.553426265716552734e+00,2.874323425292968750e+02,2.874323425292968750e+02,2.086622714996337891e-01,8.909030151367187500e+01,6.357520469464361668e-04,1.412715464830398560e-01,8.943800926208496094e+00,-8.963044706433720421e-07,2.044033072888851166e-02,1.339557766914367676e+00,1.822595804696902633e-04,-4.570815265178680420e-01,9.079259820282459259e-03,1.866578496992588043e-02,5.000000000000000000e-01,1.493181480327621102e-04,0.000000000000000000e+00
8.783230781555175781e-01,-5.553426265716552734e+00,2.874323425292968750e+02,2.874323425292968750e+02,2.086622714996337891e-01,8.909030151367187500e+01,6.357520469464361668e-04,1.412715464830398560e-01,8.943800926208496094e+00,-8.963044706433720421e-07,2.044033072888851166e-02,1.339557766914367676e+00,1.822595804696902633e-04,-4.570815265178680420e-01,9.079259820282459259e-03,1.866578496992588043e-02,5.000000000000000000e-01,1.493181480327621102e-04,0.000000000000000000e+00
8.783230781555175781e-01,-5.553426265716552734e+00,2.874323425292968750e+02,2.874323425292968750e+02,2.086622714996337891e-01,8.909030151367187500e+01,6.357520469464361668e-04,1.412715464830398560e-01,8.943800926208496094e+00,-8.963044706433720421e-07,2.044033072888851166e-02,1.339557766914367676e+00,1.822595804696902633e-04,-4.570815265178680420e-01,9.079259820282459259e-03,1.866578496992588043e-02,5.000000000000000000e-01,1.493181480327621102e-04,0.000000000000000000e+00
9.483780860900878906e-01,-5.541607379913330078e+00,2.881802368164062500e+02,2.881802368164062500e+02,1.599288731813430786e-01,8.909239196777343750e+01,3.827722102869302034e-04,1.407598406076431274e-01,8.924652099609375000e+00,1.338771835435181856e-05,-7.304343860596418381e-03,-2.733398675918579102e-01,2.038972452282905579e-04,-6.630041599273681641e-01,1.427540648728609085e-02,2.840092219412326813e-02,5.000000000000000000e-01,1.496451295679435134e-04,0.000000000000000000e+00
9.483780860900878906e-01,-5.541607379913330078e+00,2.881802368164062500e+02,2.881802368164062500e+02,1.599288731813430786e-01,8.909239196777343750e+01,3.827722102869302034e-04,1.407598406076431274e-01,8.924652099609375000e+00,1.338771835435181856e-05,-7.304343860596418381e-03,-2.733398675918579102e-01,2.038972452282905579e-04,-6.630041599273681641e-01,1.427540648728609085e-02,2.840092219412326813e-02,5.000000000000000000e-01,1.496451295679435134e-04,0.000000000000000000e+00
9.483780860900878906e-01,-5.541607379913330078e+00,2.881802368164062500e+02,2.881802368164062500e+02,1.599288731813430786e-01,8.909239196777343750e+01,3.827722102869302034e-04,1.407598406076431274e-01,8.924652099609375000e+00,1.338771835435181856e-05,-7.304343860596418381e-03,-2.733398675918579102e-01,2.038972452282905579e-04,-6.630041599273681641e-01,1.427540648728609085e-02,2.840092219412326813e-02,5.000000000000000000e-01,1.496451295679435134e-04,0.000000000000000000e+00
9.483780860900878906e-01,-5.541607379913330078e+00,2.881802368164062500e+02,2.881802368164062500e+02,1.599288731813430786e-01,8.909239196777343750e+01,3.827722102869302034e-04,1.407598406076431274e-01,8.924652099609375000e+00,1.338771835435181856e-05,-7.304343860596418381e-03,-2.733398675918579102e-01,2.038972452282905579e-04,-6.630041599273681641e-01,1.427540648728609085e-02,2.840092219412326813e-02,5.000000000000000000e-01,1.496451295679435134e-04,0.000000000000000000e+00
9.483780860900878906e-01,-5.531780242919921875e+00,2.888024291992187500e+02,2.888024291992187500e+02,1.106490567326545715e-01,8.909415435791015625e+01,2.198237780248746276e-04,1.396548748016357422e-01,8.855751991271972656e+00,1.492291085014585406e-05,-1.402258500456809998e-02,-8.743778467178344727e-01,1.948238241311628371e-05,-7.155418395996093750e-01,1.398936565965414047e-02,2.553687617182731628e-02,5.000000000000000000e-01,9.144374052993953228e-05,0.000000000000000000e+00
1.027177095413208008e+00,-5.531780242919921875e+00,2.888024291992187500e+02,2.888024291992187500e+02,1.106490567326545715e-01,8.909415435791015625e+01,2.198237780248746276e-04,1.396548748016357422e-01,8.855751991271972656e+00,1.492291085014585406e-05,-1.402258500456809998e-02,-8.743778467178344727e-01,1.948238241311628371e-05,-7.155418395996093750e-01,1.398936565965414047e-02,2.553687617182731628e-02,5.000000000000000000e-01,9.144374052993953228e-05,0.000000000000000000e+00
1.027177095413208008e+00,-5.531780242919921875e+00,2.888024291992187500e+02,2.888024291992187500e+02,1.106490567326545715e-01,8.909415435791015625e+01,2.198237780248746276e-04,1.396548748016357422e-01,8.855751991271972656e+00,1.492291085014585406e-05,-1.402258500456809998e-02,-8.743778467178344727e-01,1.948238241311628371e-05,-7.155418395996093750e-01,1.398936565965414047e-02,2.553687617182731628e-02,5.000000000000000000e-01,9.144374052993953228e-05,0.000000000000000000e+00
1.095043420791625977e+00,-5.520854949951171875e+00,2.894945373535156250e+02,2.894945373535156250e+02,5.447758734226226807e-02,8.909604644775390625e+01,1.835947477957233787e-05,1.377366632223129272e-01,8.740458488464355469e+00,1.430285919923335314e-05,-2.826455608010292053e-02,-1.698832273483276367e+00,-9.136367225437425077e-06,-6.840589642524719238e-01,1.386075839400291443e-02,2.374631725251674652e-02,5.000000000000000000e-01,6.397792458301410079e-05,0.000000000000000000e+00
1.095043420791625977e+00,-5.520854949951171875e+00,2.894945373535156250e+02,2.894945373535156250e+02,5.447758734226226807e-02,8.909604644775390625e+01,1.835947477957233787e-05,1.377366632223129272e-01,8.740458488464355469e+00,1.430285919923335314e-05,-2.826455608010292053e-02,-1.698832273483276367e+00,-9.136367225437425077e-06,-6.840589642524719238e-01,1.386075839400291443e-02,2.374631725251674652e-02,5.000000000000000000e-01,6.397792458301410079e-05,0.000000000000000000e+00
1.095043420791625977e+00,-5.520854949951171875e+00,2.894945373535156250e+02,2.894945373535156250e+02,5.447758734226226807e-02,8.909604644775390625e+01,1.835947477957233787e-05,1.377366632223129272e-01,8.740458488464355469e+00,1.430285919923335314e-05,-2.826455608010292053e-02,-1.698832273483276367e+00,-9.136367225437425077e-06,-6.840589642524719238e-01,1.386075839400291443e-02,2.374631725251674652e-02,5.000000000000000000e-01,6.397792458301410079e-05,0.000000000000000000e+00
1.095043420791625977e+00,-5.520854949951171875e+00,2.894945373535156250e+02,2.894945373535156250e+02,5.447758734226226807e-02,8.909604644775390625e+01,1.835947477957233787e-05,1.377366632223129272e-01,8.740458488464355469e+00,1.430285919923335314e-05,-2.826455608010292053e-02,-1.698832273483276367e+00,-9.136367225437425077e-06,-6.840589642524719238e-01,1.386075839400291443e-02,2.374631725251674652e-02,5.000000000000000000e-01,6.397792458301410079e-05,0.000000000000000000e+00
1.168572425842285156e+00,-5.511579990386962891e+00,2.900825500488281250e+02,2.900825500488281250e+02,1.219871733337640762e-02,8.909750366210937500e+01,-1.525878469692543149e-04,1.357522010803222656e-01,8.618939399719238281e+00,9.201708053296897560e-06,-2.698883414268493652e-02,-1.652668714523315430e+00,-6.937603757251054049e-05,-6.019787192344665527e-01,1.196350716054439545e-02,2.075477503240108490e-02,5.000000000000000000e-01,3.247942368034273386e-05,0.000000000000000000e+00
1.168572425842285156e+00,-5.511579990386962891e+00,2.900825500488281250e+02,2.900825500488281250e+02,1.219871733337640762e-02,8.909750366210937500e+01,-1.525878469692543149e-04,1.357522010803222656e-01,8.618939399719238281e+00,9.201708053296897560e-06,-2.698883414268493652e-02,-1.652668714523315430e+00,-6.937603757251054049e-05,-6.019787192344665527e-01,1.196350716054439545e-02,2.075477503240108490e-02,5.000000000000000000e-01,3.247942368034273386e-05,0.000000000000000000e+00
1.168572425842285156e+00,-5.511579990386962891e+00,2.900825500488281250e+02,2.900825500488281250e+02,1.219871733337640762e-02,8.909750366210937500e+01,-1.525878469692543149e-04,1.357522010803222656e-01,8.618939399719238281e+00,9.201708053296897560e-06,-2.698883414268493652e-02,-1.652668714523315430e+00,-6.937603757251054049e-05,-6.019787192344665527e-01,1.196350716054439545e-02,2.075477503240108490e-02,5.000000000000000000e-01,3.247942368034273386e-05,0.000000000000000000e+00
1.168572425842285156e+00,-5.511579990386962891e+00,2.900825500488281250e+02,2.900825500488281250e+02,1.219871733337640762e-02,8.909750366210937500e+01,-1.525878469692543149e-04,1.357522010803222656e-01,8.618939399719238281e+00,9.201708053296897560e-06,-2.698883414268493652e-02,-1.652668714523315430e+00,-6.937603757251054049e-05,-6.019787192344665527e-01,1.196350716054439545e-02,2.075477503240108490e-02,5.000000000000000000e-01,3.247942368034273386e-05,0.000000000000000000e+00
1.168572425842285156e+00,-5.501761436462402344e+00,2.907162780761718750e+02,2.907162780761718750e+02,-5.491471849381923676e-03,8.910542297363281250e+01,-2.716064453125000000e-03,1.316301375627517700e-01,8.616543769836425781e+00,5.425608833320438862e-06,-5.492536723613739014e-02,-3.192111104726791382e-02,-5.031548789702355862e-05,-1.066254973411560059e-01,3.494467586278915405e-02,1.402160525321960449e-01,5.000000000000000000e-01,9.184700902551412582e-04,0.000000000000000000e+00
1.243620872497558594e+00,-5.501761436462402344e+00,2.907162780761718750e+02,2.907162780761718750e+02,-5.491471849381923676e-03,8.910542297363281250e+01,-2.716064453125000000e-03,1.316301375627517700e-01,8.616543769836425781e+00,5.425608833320438862e-06,-5.492536723613739014e-02,-3.192111104726791382e-02,-5.031548789702355862e-05,-1.066254973411560059e-01,3.494467586278915405e-02,1.402160525321960449e-01,5.000000000000000000e-01,9.184700902551412582e-04,0.000000000000000000e+00
1.243620872497558594e+00,-5.501761436462402344e+00,2.907162780761718750e+02,2.907162780761718750e+02,-5.491471849381923676e-03,8.910542297363281250e+01,-2.716064453125000000e-03,1.316301375627517700e-01,8.616543769836425781e+00,5.425608833320438862e-06,-5.492536723613739014e-02,-3.192111104726791382e-02,-5.031548789702355862e-05,-1.066254973411560059e-01,3.494467586278915405e-02,1.402160525321960449e-01,5.000000000000000000e-01,9.184700902551412582e-04,0.000000000000000000e+00
1.243620872497558594e+00,-5.491918087005615234e+00,2.913622741699218750e+02,2.913622741699218750e+02,-8.571887388825416565e-03,8.911717987060546875e+01,-4.394530784338712692e-03,1.291334331035614014e-01,8.602869987487792969e+00,1.191913952425238676e-06,-3.648975118994712830e-02,-1.998445987701416016e-01,-6.187615508679300547e-05,-1.192610245198011398e-02,1.642542332410812378e-02,1.630032956600189209e-01,5.000000000000000000e-01,9.213038720190525055e-04,0.000000000000000000e+00
1.312042951583862305e+00,-5.491918087005615234e+00,2.913622741699218750e+02,2.913622741699218750e+02,-8.571887388825416565e-03,8.911717987060546875e+01,-4.394530784338712692e-03,1.291334331035614014e-01,8.602869987487792969e+00,1.191913952425238676e-06,-3.648975118994712830e-02,-1.998445987701416016e-01,-6.187615508679300547e-05,-1.192610245198011398e-02,1.642542332410812378e-02,1.630032956600189209e-01,5.000000000000000000e-01,9.213038720190525055e-04,0.000000000000000000e+00
1.312042951583862305e+00,-5.491918087005615234e+00,2.913622741699218750e+02,2.913622741699218750e+02,-8.571887388825416565e-03,8.911717987060546875e+01,-4.394530784338712692e-03,1.291334331035614014e-01,8.602869987487792969e+00,1.191913952425238676e-06,-3.648975118994712830e-02,-1.998445987701416016e-01,-6.187615508679300547e-05,-1.192610245198011398e-02,1.642542332410812378e-02,1.630032956600189209e-01,5.000000000000000000e-01,9.213038720190525055e-04,0.000000000000000000e+00
1.383129358291625977e+00,-5.483065128326416016e+00,2.919504699707031250e+02,2.919504699707031250e+02,-8.271358907222747803e-03,8.912782287597656250e+01,-4.913330543786287308e-03,1.275365650653839111e-01,8.592191696166992188e+00,1.716378847049782053e-06,-2.246375940740108490e-02,-1.502156555652618408e-01,7.377850579359801486e-06,9.972441941499710083e-03,5.249535664916038513e-03,1.526311039924621582e-01,5.000000000000000000e-01,8.249555248767137527e-04,0.000000000000000000e+00
1.383129358291625977e+00,-5.483065128326416016e+00,2.919504699707031250e+02,2.919504699707031250e+02,-8.271358907222747803e-03,8.912782287597656250e+01,-4.913330543786287308e-03,1.275365650653839111e-01,8.592191696166992188e+00,1.716378847049782053e-06,-2.246375940740108490e-02,-1.502156555652618408e-01,7.377850579359801486e-06,9.972441941499710083e-03,5.249535664916038513e-03,1.526311039924621582e-01,5.000000000000000000e-01,8.249555248767137527e-04,0.000000000000000000e+00
1.383129358291625977e+00,-5.483065128326416016e+00,2.919504699707031250e+02,2.919504699707031250e+02,-8.271358907222747803e-03,8.912782287597656250e+01,-4.913330543786287308e-03,1.275365650653839111e-01,8.592191696166992188e+00,1.716378847049782053e-06,-2.246375940740108490e-02,-1.502156555652618408e-01,7.377850579359801486e-06,9.972441941499710083e-03,5.249535664916038513e-03,1.526311039924621582e-01,5.000000000000000000e-01,8.249555248767137527e-04,0.000000000000000000e+00
1.450951814651489258e+00,-5.474315643310546875e+00,2.925607604980468750e+02,2.925607604980468750e+02,-7.444905582815408707e-03,8.915285491943359375e+01,-1.016235258430242538e-02,1.175604015588760376e-01,8.580856323242187500e+00,1.439843458683753852e-06,-1.470923423767089844e-01,-1.671330332756042480e-01,-4.077342509845038876e-06,1.302124653011560440e-02,7.169537991285324097e-02,4.275537133216857910e-01,5.000000000000000000e-01,2.724129706621170044e-03,0.000000000000000000e+00
1.450951814651489258e+00,-5.474315643310546875e+00,2.925607604980468750e+02,2.925607604980468750e+02,-7.444905582815408707e-03,8.915285491943359375e+01,-1.016235258430242538e-02,1.175604015588760376e-01,8.580856323242187500e+00,1.439843458683753852e-06,-1.470923423767089844e-01,-1.671330332756042480e-01,-4.077342509845038876e-06,1.302124653011560440e-02,7.169537991285324097e-02,4.275537133216857910e-01,5.000000000000000000e-01,2.724129706621170044e-03,0.000000000000000000e+00
1.450951814651489258e+00,-5.474315643310546875e+00,2.925607604980468750e+02,2.925607604980468750e+02,-7.444905582815408707e-03,8.915285491943359375e+01,-1.016235258430242538e-02,1.175604015588760376e-01,8.580856323242187500e+00,1.439843458683753852e-06,-1.470923423767089844e-01,-1.671330332756042480e-01,-4.077342509845038876e-06,1.302124653011560440e-02,7.169537991285324097e-02,4.275537133216857910e-01,5.000000000000000000e-01,2.724129706621170044e-03,0.000000000000000000e+00
1.527701377868652344e+00,-5.466348648071289062e+00,2.931423034667968750e+02,2.931423034667968750e+02,-6.686754990369081497e-03,8.918375396728515625e+01,-1.336669828742742538e-02,1.120313927531242371e-01,8.570035934448242188e+00,9.821512776397867128e-07,-7.203961163759231567e-02,-1.409830749034881592e-01,-5.963449893897632137e-06,1.068541593849658966e-02,3.561580926179885864e-02,4.664943218231201172e-01,5.000000000000000000e-01,2.636173740029335022e-03,0.000000000000000000e+00
1.527701377868652344e+00,-5.466348648071289062e+00,2.931423034667968750e+02,2.931423034667968750e+02,-6.686754990369081497e-03,8.918375396728515625e+01,-1.336669828742742538e-02,1.120313927531242371e-01,8.570035934448242188e+00,9.821512776397867128e-07,-7.203961163759231567e-02,-1.409830749034881592e-01,-5.963449893897632137e-06,1.068541593849658966e-02,3.561580926179885864e-02,4.664943218231201172e-01,5.000000000000000000e-01,2.636173740029335022e-03,0.000000000000000000e+00
1.527701377868652344e+00,-5.466348648071289062e+00,2.931423034667968750e+02,2.931423034667968750e+02,-6.686754990369081497e-03,8.918375396728515625e+01,-1.336669828742742538e-02,1.120313927531242371e-01,8.570035934448242188e+00,9.821512776397867128e-07,-7.203961163759231567e-02,-1.409830749034881592e-01,-5.963449893897632137e-06,1.068541593849658966e-02,3.561580926179885864e-02,4.664943218231201172e-01,5.000000000000000000e-01,2.636173740029335022e-03,0.000000000000000000e+00
1.600134611129760742e+00,-5.457691669464111328e+00,2.937994995117187500e+02,2.937994995117187500e+02,-6.010565906763076782e-03,8.921765136718750000e+01,-1.452636905014514923e-02,1.074512898921966553e-01,8.557785987854003906e+00,1.249121510227269027e-06,-6.323206424713134766e-02,-1.691205352544784546e-01,3.685742285597370937e-06,7.971338927745819092e-03,9.915064089000225067e-03,4.322430789470672607e-01,5.000000000000000000e-01,2.354867057874798775e-03,0.000000000000000000e+00
1.600134611129760742e+00,-5.457691669464111328e+00,2.937994995117187500e+02,2.937994995117187500e+02,-6.010565906763076782e-03,8.921765136718750000e+01,-1.452636905014514923e-02,1.074512898921966553e-01,8.557785987854003906e+00,1.249121510227269027e-06,-6.323206424713134766e-02,-1.691205352544784546e-01,3.685742285597370937e-06,7.971338927745819092e-03,9.915064089000225067e-03,4.322430789470672607e-01,5.000000000000000000e-01,2.354867057874798775e-03,0.000000000000000000e+00
1.600134611129760742e+00,-5.457691669464111328e+00,2.937994995117187500e+02,2.937994995117187500e+02,-6.010565906763076782e-03,8.921765136718750000e+01,-1.452636905014514923e-02,1.074512898921966553e-01,8.557785987854003906e+00,1.249121510227269027e-06,-6.323206424713134766e-02,-1.691205352544784546e-01,3.685742285597370937e-06,7.971338927745819092e-03,9.915064089000225067e-03,4.322430789470672607e-01,5.000000000000000000e-01,2.354867057874798775e-03,0.000000000000000000e+00
1.600134611129760742e+00,-5.457691669464111328e+00,2.937994995117187500e+02,2.937994995117187500e+02,-6.010565906763076782e-03,8.921765136718750000e+01,-1.452636905014514923e-02,1.074512898921966553e-01,8.557785987854003906e+00,1.249121510227269027e-06,-6.323206424713134766e-02,-1.691205352544784546e-01,3.685742285597370937e-06,7.971338927745819092e-03,9.915064089000225067e-03,4.322430789470672607e-01,5.000000000000000000e-01,2.354867057874798775e-03,0.000000000000000000e+00
1.600134611129760742e+00,-5.457691669464111328e+00,2.937994995117187500e+02,2.937994995117187500e+02,-6.010565906763076782e-03,8.921765136718750000e+01,-1.452636905014514923e-02,1.074512898921966553e-01,8.557785987854003906e+00,1.249121510227269027e-06,-6.323206424713134766e-02,-1.691205352544784546e-01,3.685742285597370937e-06,7.971338927745819092e-03,9.915064089000225067e-03,4.322430789470672607e-01,5.000000000000000000e-01,2.354867057874798775e-03,0.000000000000000000e+00
1.600134611129760742e+00,-5.450211524963378906e+00,2.944188537597656250e+02,2.944188537597656250e+02,-5.559773650020360947e-03,8.926364135742187500e+01,-2.026367187500000000e-02,9.426954388618469238e-02,8.546319007873535156e+00,-4.290912727356044343e-07,-1.142475008964538574e-01,-9.938544780015945435e-02,-1.454523680877173319e-05,6.661864928901195526e-03,7.624461501836776733e-02,7.103528380393981934e-01,5.000000000000000000e-01,4.289899487048387527e-03,0.000000000000000000e+00
1.715513467788696289e+00,-5.450211524963378906e+00,2.944188537597656250e+02,2.944188537597656250e+02,-5.559773650020360947e-03,8.926364135742187500e+01,-2.026367187500000000e-02,9.426954388618469238e-02,8.546319007873535156e+00,-4.290912727356044343e-07,-1.142475008964538574e-01,-9.938544780015945435e-02,-1.454523680877173319e-05,6.661864928901195526e-03,7.624461501836776733e-02,7.103528380393981934e-01,5.000000000000000000e-01,4.289899487048387527e-03,0.000000000000000000e+00
1.715513467788696289e+00,-5.450211524963378906e+00,2.944188537597656250e+02,2.944188537597656250e+02,-5.559773650020360947e-03,8.926364135742187500e+01,-2.026367187500000000e-02,9.426954388618469238e-02,8.546319007873535156e+00,-4.290912727356044343e-07,-1.142475008964538574e-01,-9.938544780015945435e-02,-1.454523680877173319e-05,6.661864928901195526e-03,7.624461501836776733e-02,7.103528380393981934e-01,5.000000000000000000e-01,4.289899487048387527e-03,0.000000000000000000e+00
1.715513467788696289e+00,-5.440517425537109375e+00,2.953038024902343750e+02,2.953038024902343750e+02,8.652482926845550537e-02,8.933455657958984375e+01,-2.420043759047985077e-02,8.878587186336517334e-02,9.016409873962402344e+00,-3.261022357037290931e-06,-5.618421360850334167e-02,4.816423416137695312e+00,-2.901519837905652821e-05,9.665608406066894531e-01,1.482539623975753784e-02,7.178960442543029785e-01,5.000000000000000000e-01,3.966413438320159912e-03,0.000000000000000000e+00
1.813115119934082031e+00,-5.440517425537109375e+00,2.953038024902343750e+02,2.953038024902343750e+02,8.652482926845550537e-02,8.933455657958984375e+01,-2.420043759047985077e-02,8.878587186336517334e-02,9.016409873962402344e+00,-3.261022357037290931e-06,-5.618421360850334167e-02,4.816423416137695312e+00,-2.901519837905652821e-05,9.665608406066894531e-01,1.482539623975753784e-02,7.178960442543029785e-01,5.000000000000000000e-01,3.966413438320159912e-03,0.000000000000000000e+00
1.813115119934082031e+00,-5.440517425537109375e+00,2.953038024902343750e+02,2.953038024902343750e+02,8.652482926845550537e-02,8.933455657958984375e+01,-2.420043759047985077e-02,8.878587186336517334e-02,9.016409873962402344e+00,-3.261022357037290931e-06,-5.618421360850334167e-02,4.816423416137695312e+00,-2.901519837905652821e-05,9.665608406066894531e-01,1.482539623975753784e-02,7.178960442543029785e-01,5.000000000000000000e-01,3.966413438320159912e-03,0.000000000000000000e+00
1.813115119934082031e+00,-5.440517425537109375e+00,2.953038024902343750e+02,2.953038024902343750e+02,8.652482926845550537e-02,8.933455657958984375e+01,-2.420043759047985077e-02,8.878587186336517334e-02,9.016409873962402344e+00,-3.261022357037290931e-06,-5.618421360850334167e-02,4.816423416137695312e+00,-2.901519837905652821e-05,9.665608406066894531e-01,1.482539623975753784e-02,7.178960442543029785e-01,5.000000000000000000e-01,3.966413438320159912e-03,0.000000000000000000e+00
1.896134853363037109e+00,-5.431556701660156250e+00,2.962002258300781250e+02,2.962002258300781250e+02,1.449639201164245605e-01,8.939725494384765625e+01,-2.368164248764514923e-02,8.405952155590057373e-02,9.275193214416503906e+00,-1.149944091594079509e-05,-5.693044513463973999e-02,3.117130517959594727e+00,-9.923446486936882138e-05,3.356887996196746826e-01,-6.440426222980022430e-03,6.214070916175842285e-01,5.000000000000000000e-01,3.230939619243144989e-03,0.000000000000000000e+00
1.896134853363037109e+00,-5.431556701660156250e+00,2.962002258300781250e+02,2.962002258300781250e+02,1.449639201164245605e-01,8.939725494384765625e+01,-2.368164248764514923e-02,8.405952155590057373e-02,9.275193214416503906e+00,-1.149944091594079509e-05,-5.693044513463973999e-02,3.117130517959594727e+00,-9.923446486936882138e-05,3.356887996196746826e-01,-6.440426222980022430e-03,6.214070916175842285e-01,5.000000000000000000e-01,3.230939619243144989e-03,0.000000000000000000e+00
1.896134853363037109e+00,-5.431556701660156250e+00,2.962002258300781250e+02,2.962002258300781250e+02,1.449639201164245605e-01,8.939725494384765625e+01,-2.368164248764514923e-02,8.405952155590057373e-02,9.275193214416503906e+00,-1.149944091594079509e-05,-5.693044513463973999e-02,3.117130517959594727e+00,-9.923446486936882138e-05,3.356887996196746826e-01,-6.440426222980022430e-03,6.214070916175842285e-01,5.000000000000000000e-01,3.230939619243144989e-03,0.000000000000000000e+00
1.896134853363037109e+00,-5.431556701660156250e+00,2.962002258300781250e+02,2.962002258300781250e+02,1.449639201164245605e-01,8.939725494384765625e+01,-2.368164248764514923e-02,8.405952155590057373e-02,9.275193214416503906e+00,-1.149944091594079509e-05,-5.693044513463973999e-02,3.117130517959594727e+00,-9.923446486936882138e-05,3.356887996196746826e-01,-6.440426222980022430e-03,6.214070916175842285e-01,5.000000000000000000e-01,3.230939619243144989e-03,0.000000000000000000e+00
1.896134853363037109e+00,-5.431556701660156250e+00,2.962002258300781250e+02,2.962002258300781250e+02,1.449639201164245605e-01,8.939725494384765625e+01,-2.368164248764514923e-02,8.405952155590057373e-02,9.275193214416503906e+00,-1.149944091594079509e-05,-5.693044513463973999e-02,3.117130517959594727e+00,-9.923446486936882138e-05,3.356887996196746826e-01,-6.440426222980022430e-03,6.214070916175842285e-01,5.000000000000000000e-01,3.230939619243144989e-03,0.000000000000000000e+00
1.896134853363037109e+00,-5.431556701660156250e+00,2.962002258300781250e+02,2.962002258300781250e+02,1.449639201164245605e-01,8.939725494384765625e+01,-2.368164248764514923e-02,8.405952155590057373e-02,9.275193214416503906e+00,-1.149944091594079509e-05,-5.693044513463973999e-02,3.117130517959594727e+00,-9.923446486936882138e-05,3.356887996196746826e-01,-6.440426222980022430e-03,6.214070916175842285e-01,5.000000000000000000e-01,3.230939619243144989e-03,0.000000000000000000e+00
1.896134853363037109e+00,-5.431556701660156250e+00,2.962002258300781250e+02,2.962002258300781250e+02,1.449639201164245605e-01,8.939725494384765625e+01,-2.368164248764514923e-02,8.405952155590057373e-02,9.275193214416503906e+00,-1.149944091594079509e-05,-5.693044513463973999e-02,3.117130517959594727e+00,-9.923446486936882138e-05,3.356887996196746826e-01,-6.440426222980022430e-03,6.214070916175842285e-01,5.000000000000000000e-01,3.230939619243144989e-03,0.000000000000000000e+00
1.896134853363037109e+00,-5.431556701660156250e+00,2.962002258300781250e+02,2.962002258300781250e+02,1.449639201164245605e-01,8.939725494384765625e+01,-2.368164248764514923e-02,8.405952155590057373e-02,9.275193214416503906e+00,-1.149944091594079509e-05,-5.693044513463973999e-02,3.117130517959594727e+00,-9.923446486936882138e-05,3.356887996196746826e-01,-6.440426222980022430e-03,6.214070916175842285e-01,5.000000000000000000e-01,3.230939619243144989e-03,0.000000000000000000e+00
2.195794820785522461e+00,-5.413989067077636719e+00,2.987523803710937500e+02,2.987523803710937500e+02,1.081696972250938416e-01,8.965827941894531250e+01,-4.037475585937500000e-02,3.291982784867286682e-02,9.495797157287597656e+00,3.041776608370128088e-06,-3.864291310310363770e-01,4.854060709476470947e-01,1.025928722810931504e-04,-2.985251545906066895e-01,7.070475071668624878e-02,1.166231989860534668e+00,5.000000000000000000e-01,6.128692533820867538e-03,0.000000000000000000e+00
2.195794820785522461e+00,-5.413989067077636719e+00,2.987523803710937500e+02,2.987523803710937500e+02,1.081696972250938416e-01,8.965827941894531250e+01,-4.037475585937500000e-02,3.291982784867286682e-02,9.495797157287597656e+00,3.041776608370128088e-06,-3.864291310310363770e-01,4.854060709476470947e-01,1.025928722810931504e-04,-2.985251545906066895e-01,7.070475071668624878e-02,1.166231989860534668e+00,5.000000000000000000e-01,6.128692533820867538e-03,0.000000000000000000e+00
2.195794820785522461e+00,-5.413989067077636719e+00,2.987523803710937500e+02,2.987523803710937500e+02,1.081696972250938416e-01,8.965827941894531250e+01,-4.037475585937500000e-02,3.291982784867286682e-02,9.495797157287597656e+00,3.041776608370128088e-06,-3.864291310310363770e-01,4.854060709476470947e-01,1.025928722810931504e-04,-2.985251545906066895e-01,7.070475071668624878e-02,1.166231989860534668e+00,5.000000000000000000e-01,6.128692533820867538e-03,0.000000000000000000e+00
2.195794820785522461e+00,-5.413989067077636719e+00,2.987523803710937500e+02,2.987523803710937500e+02,1.081696972250938416e-01,8.965827941894531250e+01,-4.037475585937500000e-02,3.291982784867286682e-02,9.495797157287597656e+00,3.041776608370128088e-06,-3.864291310310363770e-01,4.854060709476470947e-01,1.025928722810931504e-04,-2.985251545906066895e-01,7.070475071668624878e-02,1.166231989860534668e+00,5.000000000000000000e-01,6.128692533820867538e-03,0.000000000000000000e+00
2.195794820785522461e+00,-5.413989067077636719e+00,2.987523803710937500e+02,2.987523803710937500e+02,1.081696972250938416e-01,8.965827941894531250e+01,-4.037475585937500000e-02,3.291982784867286682e-02,9.495797157287597656e+00,3.041776608370128088e-06,-3.864291310310363770e-01,4.854060709476470947e-01,1.025928722810931504e-04,-2.985251545906066895e-01,7.070475071668624878e-02,1.166231989860534668e+00,5.000000000000000000e-01,6.128692533820867538e-03,0.000000000000000000e+00
2.195794820785522461e+00,-5.413989067077636719e+00,2.987523803710937500e+02,2.987523803710937500e+02,1.081696972250938416e-01,8.965827941894531250e+01,-4.037475585937500000e-02,3.291982784867286682e-02,9.495797157287597656e+00,3.041776608370128088e-06,-3.864291310310363770e-01,4.854060709476470947e-01,1.025928722810931504e-04,-2.985251545906066895e-01,7.070475071668624878e-02,1.166231989860534668e+00,5.000000000000000000e-01,6.128692533820867538e-03,0.000000000000000000e+00
2.195794820785522461e+00,-5.413989067077636719e+00,2.987523803710937500e+02,2.987523803710937500e+02,1.081696972250938416e-01,8.965827941894531250e+01,-4.037475585937500000e-02,3.291982784867286682e-02,9.495797157287597656e+00,3.041776608370128088e-06,-3.864291310310363770e-01,4.854060709476470947e-01,1.025928722810931504e-04,-2.985251545906066895e-01,7.070475071668624878e-02,1.166231989860534668e+00,5.000000000000000000e-01,6.128692533820867538e-03,0.000000000000000000e+00
2.195794820785522461e+00,-5.413989067077636719e+00,2.987523803710937500e+02,2.987523803710937500e+02,1.081696972250938416e-01,8.965827941894531250e+01,-4.037475585937500000e-02,3.291982784867286682e-02,9.495797157287597656e+00,3.041776608370128088e-06,-3.864291310310363770e-01,4.854060709476470947e-01,1.025928722810931504e-04,-2.985251545906066895e-01,7.070475071668624878e-02,1.166231989860534668e+00,5.000000000000000000e-01,6.128692533820867538e-03,0.000000000000000000e+00
2.195794820785522461e+00,-5.413989067077636719e+00,2.987523803710937500e+02,2.987523803710937500e+02,1.081696972250938416e-01,8.965827941894531250e+01,-4.037475585937500000e-02,3.291982784867286682e-02,9.495797157287597656e+00,3.041776608370128088e-06,-3.864291310310363770e-01,4.854060709476470947e-01,1.025928722810931504e-04,-2.985251545906066895e-01,7.070475071668624878e-02,1.166231989860534668e+00,5.000000000000000000e-01,6.128692533820867538e-03,0.000000000000000000e+00
2.195794820785522461e+00,-5.413989067077636719e+00,2.987523803710937500e+02,2.987523803710937500e+02,1.081696972250938416e-01,8.965827941894531250e+01,-4.037475585937500000e-02,3.291982784867286682e-02,9.495797157287597656e+00,3.041776608370128088e-06,-3.864291310310363770e-01,4.854060709476470947e-01,1.025928722810931504e-04,-2.985251545906066895e-01,7.070475071668624878e-02,1.166231989860534668e+00,5.000000000000000000e-01,6.128692533820867538e-03,0.000000000000000000e+00
2.374083757400512695e+00,-5.412033557891845703e+00,2.992564086914062500e+02,2.992564086914062500e+02,9.273347258567810059e-02,8.971729278564453125e+01,-4.171752184629440308e-02,2.504265308380126953e-02,9.500888824462890625e+00,4.901235570287099108e-06,-4.418207332491874695e-02,2.855851314961910248e-02,1.042946860252413899e-05,-2.893858253955841064e-01,1.670525968074798584e-02,1.090115070343017578e+00,5.000000000000000000e-01,5.313764326274394989e-03,0.000000000000000000e+00
2.374083757400512695e+00,-5.412033557891845703e+00,2.992564086914062500e+02,2.992564086914062500e+02,9.273347258567810059e-02,8.971729278564453125e+01,-4.171752184629440308e-02,2.504265308380126953e-02,9.500888824462890625e+00,4.901235570287099108e-06,-4.418207332491874695e-02,2.855851314961910248e-02,1.042946860252413899e-05,-2.893858253955841064e-01,1.670525968074798584e-02,1.090115070343017578e+00,5.000000000000000000e-01,5.313764326274394989e-03,0.000000000000000000e+00
2.374083757400512695e+00,-5.412033557891845703e+00,2.992564086914062500e+02,2.992564086914062500e+02,9.273347258567810059e-02,8.971729278564453125e+01,-4.171752184629440308e-02,2.504265308380126953e-02,9.500888824462890625e+00,4.901235570287099108e-06,-4.418207332491874695e-02,2.855851314961910248e-02,1.042946860252413899e-05,-2.893858253955841064e-01,1.670525968074798584e-02,1.090115070343017578e+00,5.000000000000000000e-01,5.313764326274394989e-03,0.000000000000000000e+00
2.447860002517700195e+00,-5.409496307373046875e+00,3.002062072753906250e+02,3.002062072753906250e+02,6.508486717939376831e-02,8.981606292724609375e+01,-4.086303710937500000e-02,1.129086967557668686e-02,9.497671127319335938e+00,4.252678536431631073e-06,-1.863985359668731689e-01,-4.361427202820777893e-02,-8.790865649643819779e-06,-2.495347559452056885e-01,-4.159836564213037491e-03,9.526945948600769043e-01,5.000000000000000000e-01,4.717690404504537582e-03,0.000000000000000000e+00
2.447860002517700195e+00,-5.409496307373046875e+00,3.002062072753906250e+02,3.002062072753906250e+02,6.508486717939376831e-02,8.981606292724609375e+01,-4.086303710937500000e-02,1.129086967557668686e-02,9.497671127319335938e+00,4.252678536431631073e-06,-1.863985359668731689e-01,-4.361427202820777893e-02,-8.790865649643819779e-06,-2.495347559452056885e-01,-4.159836564213037491e-03,9.526945948600769043e-01,5.000000000000000000e-01,4.717690404504537582e-03,0.000000000000000000e+00
2.500878810882568359e+00,-5.408857822418212891e+00,3.009063720703125000e+02,3.009063720703125000e+02,4.901343584060668945e-02,8.989656066894531250e+01,-4.455566778779029846e-02,-6.225113756954669952e-03,9.488609313964843750e+00,3.613892204157309607e-06,-3.303730189800262451e-01,-1.709169596433639526e-01,-1.204829641210380942e-05,-2.035244554281234741e-01,5.184374004602432251e-02,1.145663499832153320e+00,5.000000000000000000e-01,6.054360419511795044e-03,0.000000000000000000e+00
2.500878810882568359e+00,-5.408857822418212891e+00,3.009063720703125000e+02,3.009063720703125000e+02,4.901343584060668945e-02,8.989656066894531250e+01,-4.455566778779029846e-02,-6.225113756954669952e-03,9.488609313964843750e+00,3.613892204157309607e-06,-3.303730189800262451e-01,-1.709169596433639526e-01,-1.204829641210380942e-05,-2.035244554281234741e-01,5.184374004602432251e-02,1.145663499832153320e+00,5.000000000000000000e-01,6.054360419511795044e-03,0.000000000000000000e+00
2.560195446014404297e+00,-5.408999919891357422e+00,3.014090881347656250e+02,3.014090881347656250e+02,3.934188932180404663e-02,8.995555114746093750e+01,-4.547118395566940308e-02,-1.478304713964462280e-02,9.480095863342285156e+00,4.052578333357814699e-06,-1.442754268646240234e-01,-1.435255110263824463e-01,7.395667580567533150e-06,-1.737233996391296387e-01,8.885077200829982758e-03,1.098556160926818848e+00,5.000000000000000000e-01,5.433000624179840088e-03,0.000000000000000000e+00
2.560195446014404297e+00,-5.408999919891357422e+00,3.014090881347656250e+02,3.014090881347656250e+02,3.934188932180404663e-02,8.995555114746093750e+01,-4.547118395566940308e-02,-1.478304713964462280e-02,9.480095863342285156e+00,4.052578333357814699e-06,-1.442754268646240234e-01,-1.435255110263824463e-01,7.395667580567533150e-06,-1.737233996391296387e-01,8.885077200829982758e-03,1.098556160926818848e+00,5.000000000000000000e-01,5.433000624179840088e-03,0.000000000000000000e+00
2.560195446014404297e+00,-5.408999919891357422e+00,3.014090881347656250e+02,3.014090881347656250e+02,3.934188932180404663e-02,8.995555114746093750e+01,-4.547118395566940308e-02,-1.478304713964462280e-02,9.480095863342285156e+00,4.052578333357814699e-06,-1.442754268646240234e-01,-1.435255110263824463e-01,7.395667580567533150e-06,-1.737233996391296387e-01,8.885077200829982758e-03,1.098556160926818848e+00,5.000000000000000000e-01,5.433000624179840088e-03,0.000000000000000000e+00
2.618730545043945312e+00,-5.409673213958740234e+00,3.019709777832031250e+02,3.019709777832031250e+02,2.986158616840839386e-02,9.001669311523437500e+01,-4.458617791533470154e-02,-2.297949418425559998e-02,9.469327926635742188e+00,3.842737442028010264e-06,-1.400261968374252319e-01,-1.839569211006164551e-01,-3.584872956707840785e-06,-1.477846354246139526e-01,-1.655857637524604797e-02,1.004478931427001953e+00,5.000000000000000000e-01,4.888153169304132462e-03,0.000000000000000000e+00
2.618730545043945312e+00,-5.409673213958740234e+00,3.019709777832031250e+02,3.019709777832031250e+02,2.986158616840839386e-02,9.001669311523437500e+01,-4.458617791533470154e-02,-2.297949418425559998e-02,9.469327926635742188e+00,3.842737442028010264e-06,-1.400261968374252319e-01,-1.839569211006164551e-01,-3.584872956707840785e-06,-1.477846354246139526e-01,-1.655857637524604797e-02,1.004478931427001953e+00,5.000000000000000000e-01,4.888153169304132462e-03,0.000000000000000000e+00
2.677334070205688477e+00,-5.411061286926269531e+00,3.025247802734375000e+02,3.025247802734375000e+02,2.225275523960590363e-02,9.008233642578125000e+01,-4.693603515625000000e-02,-3.748697042465209961e-02,9.457811355590820312e+00,1.678221110523736570e-06,-2.475529611110687256e-01,-1.965166926383972168e-01,-3.693491817102767527e-05,-1.203822270035743713e-01,4.705670103430747986e-02,1.166998863220214844e+00,5.000000000000000000e-01,6.254577543586492538e-03,0.000000000000000000e+00
2.677334070205688477e+00,-5.411061286926269531e+00,3.025247802734375000e+02,3.025247802734375000e+02,2.225275523960590363e-02,9.008233642578125000e+01,-4.693603515625000000e-02,-3.748697042465209961e-02,9.457811355590820312e+00,1.678221110523736570e-06,-2.475529611110687256e-01,-1.965166926383972168e-01,-3.693491817102767527e-05,-1.203822270035743713e-01,4.705670103430747986e-02,1.166998863220214844e+00,5.000000000000000000e-01,6.254577543586492538e-03,0.000000000000000000e+00
2.677334070205688477e+00,-5.411061286926269531e+00,3.025247802734375000e+02,3.025247802734375000e+02,2.225275523960590363e-02,9.008233642578125000e+01,-4.693603515625000000e-02,-3.748697042465209961e-02,9.457811355590820312e+00,1.678221110523736570e-06,-2.475529611110687256e-01,-1.965166926383972168e-01,-3.693491817102767527e-05,-1.203822270035743713e-01,4.705670103430747986e-02,1.166998863220214844e+00,5.000000000000000000e-01,6.254577543586492538e-03,0.000000000000000000e+00
2.677334070205688477e+00,-5.413097381591796875e+00,3.030785522460937500e+02,3.030785522460937500e+02,1.605094410479068756e-02,9.014952850341796875e+01,-4.794311523437500000e-02,-4.772451892495155334e-02,9.445814132690429688e+00,2.259876964672002941e-06,-1.317729204893112183e-01,-1.544226258993148804e-01,7.486801223421934992e-06,-9.733770042657852173e-02,9.073347784578800201e-03,1.138226509094238281e+00,5.000000000000000000e-01,5.710274912416934967e-03,0.000000000000000000e+00
2.755024909973144531e+00,-5.413097381591796875e+00,3.030785522460937500e+02,3.030785522460937500e+02,1.605094410479068756e-02,9.014952850341796875e+01,-4.794311523437500000e-02,-4.772451892495155334e-02,9.445814132690429688e+00,2.259876964672002941e-06,-1.317729204893112183e-01,-1.544226258993148804e-01,7.486801223421934992e-06,-9.733770042657852173e-02,9.073347784578800201e-03,1.138226509094238281e+00,5.000000000000000000e-01,5.710274912416934967e-03,0.000000000000000000e+00
2.755024909973144531e+00,-5.413097381591796875e+00,3.030785522460937500e+02,3.030785522460937500e+02,1.605094410479068756e-02,9.014952850341796875e+01,-4.794311523437500000e-02,-4.772451892495155334e-02,9.445814132690429688e+00,2.259876964672002941e-06,-1.317729204893112183e-01,-1.544226258993148804e-01,7.486801223421934992e-06,-9.733770042657852173e-02,9.073347784578800201e-03,1.138226509094238281e+00,5.000000000000000000e-01,5.710274912416934967e-03,0.000000000000000000e+00
2.755024909973144531e+00,-5.413097381591796875e+00,3.030785522460937500e+02,3.030785522460937500e+02,1.605094410479068756e-02,9.014952850341796875e+01,-4.794311523437500000e-02,-4.772451892495155334e-02,9.445814132690429688e+00,2.259876964672002941e-06,-1.317729204893112183e-01,-1.544226258993148804e-01,7.486801223421934992e-06,-9.733770042657852173e-02,9.073347784578800201e-03,1.138226509094238281e+00,5.000000000000000000e-01,5.710274912416934967e-03,0.000000000000000000e+00
2.830169916152954102e+00,-5.416633129119873047e+00,3.038115844726562500e+02,3.038115844726562500e+02,9.637396782636642456e-03,9.023142242431640625e+01,-4.647827148437500000e-02,-5.884256213903427124e-02,9.429540634155273438e+00,1.334936570174249937e-07,-1.479545086622238159e-01,-2.165612727403640747e-01,-2.829706681950483471e-05,-7.247813045978546143e-02,-1.921469531953334808e-02,1.022554516792297363e+00,5.000000000000000000e-01,5.050768144428730011e-03,0.000000000000000000e+00
2.830169916152954102e+00,-5.416633129119873047e+00,3.038115844726562500e+02,3.038115844726562500e+02,9.637396782636642456e-03,9.023142242431640625e+01,-4.647827148437500000e-02,-5.884256213903427124e-02,9.429540634155273438e+00,1.334936570174249937e-07,-1.479545086622238159e-01,-2.165612727403640747e-01,-2.829706681950483471e-05,-7.247813045978546143e-02,-1.921469531953334808e-02,1.022554516792297363e+00,5.000000000000000000e-01,5.050768144428730011e-03,0.000000000000000000e+00
2.830169916152954102e+00,-5.416633129119873047e+00,3.038115844726562500e+02,3.038115844726562500e+02,9.637396782636642456e-03,9.023142242431640625e+01,-4.647827148437500000e-02,-5.884256213903427124e-02,9.429540634155273438e+00,1.334936570174249937e-07,-1.479545086622238159e-01,-2.165612727403640747e-01,-2.829706681950483471e-05,-7.247813045978546143e-02,-1.921469531953334808e-02,1.022554516792297363e+00,5.000000000000000000e-01,5.050768144428730011e-03,0.000000000000000000e+00
2.830169916152954102e+00,-5.416633129119873047e+00,3.038115844726562500e+02,3.038115844726562500e+02,9.637396782636642456e-03,9.023142242431640625e+01,-4.647827148437500000e-02,-5.884256213903427124e-02,9.429540634155273438e+00,1.334936570174249937e-07,-1.479545086622238159e-01,-2.165612727403640747e-01,-2.829706681950483471e-05,-7.247813045978546143e-02,-1.921469531953334808e-02,1.022554516792297363e+00,5.000000000000000000e-01,5.050768144428730011e-03,0.000000000000000000e+00
2.830169916152954102e+00,-5.416633129119873047e+00,3.038115844726562500e+02,3.038115844726562500e+02,9.637396782636642456e-03,9.023142242431640625e+01,-4.647827148437500000e-02,-5.884256213903427124e-02,9.429540634155273438e+00,1.334936570174249937e-07,-1.479545086622238159e-01,-2.165612727403640747e-01,-2.829706681950483471e-05,-7.247813045978546143e-02,-1.921469531953334808e-02,1.022554516792297363e+00,5.000000000000000000e-01,5.050768144428730011e-03,0.000000000000000000e+00
2.917726278305053711e+00,-5.420933246612548828e+00,3.045194396972656250e+02,3.045194396972656250e+02,5.108981393277645111e-03,9.030486297607421875e+01,-4.479980841279029846e-02,-6.969726830720901489e-02,9.413667678833007812e+00,1.687749886514211539e-06,-1.239739209413528442e-01,-1.812884211540222168e-01,1.775149212335236371e-05,-5.312475189566612244e-02,-1.910811290144920349e-02,9.593930840492248535e-01,5.000000000000000000e-01,4.793984349817037582e-03,0.000000000000000000e+00
