# Time,X,Y,Z,Roll,Pitch,Yaw,Vx,Vy,Vz,Ax,Ay,Az,Wx,Wy,Wz,Throttle,Steer,Brake
0.000000000000000000e+00,6.414062500000000000e+02,4.166252899169921875e+01,4.166252899169921875e+01,-8.537736139260232449e-04,-3.823852539062500000e-02,1.317103742621839046e-04,-9.732012586027849466e-06,2.771506402154955140e-08,1.539785065688192844e-03,-2.945491178252268583e-05,-1.662562851834081812e-07,1.486548781394958496e-02,-2.029964525718241930e-05,-5.216205492615699768e-03,-3.470673703986904002e-08,0.000000000000000000e+00,1.896275498438626528e-04,1.000000000000000000e+00
1.045818328857421875e-01,6.414062500000000000e+02,4.166252899169921875e+01,4.166252899169921875e+01,-8.537736139260232449e-04,-3.823852539062500000e-02,1.317103742621839046e-04,-9.732012586027849466e-06,2.771506402154955140e-08,1.539785065688192844e-03,-2.945491178252268583e-05,-1.662562851834081812e-07,1.486548781394958496e-02,-2.029964525718241930e-05,-5.216205492615699768e-03,-3.470673703986904002e-08,0.000000000000000000e+00,1.896275498438626528e-04,1.000000000000000000e+00
1.045818328857421875e-01,6.414062500000000000e+02,4.166252899169921875e+01,4.166252899169921875e+01,-8.537736139260232449e-04,-3.823852539062500000e-02,1.317103742621839046e-04,-9.732012586027849466e-06,2.771506402154955140e-08,1.539785065688192844e-03,-2.945491178252268583e-05,-1.662562851834081812e-07,1.486548781394958496e-02,-2.029964525718241930e-05,-5.216205492615699768e-03,-3.470673703986904002e-08,0.000000000000000000e+00,1.896275498438626528e-04,1.000000000000000000e+00
1.045818328857421875e-01,6.414062500000000000e+02,4.166252899169921875e+01,4.166252899169921875e+01,-8.537736139260232449e-04,-3.823852539062500000e-02,1.317103742621839046e-04,-9.732012586027849466e-06,2.771506402154955140e-08,1.539785065688192844e-03,-2.945491178252268583e-05,-1.662562851834081812e-07,1.486548781394958496e-02,-2.029964525718241930e-05,-5.216205492615699768e-03,-3.470673703986904002e-08,0.000000000000000000e+00,1.896275498438626528e-04,1.000000000000000000e+00
1.045818328857421875e-01,6.414062500000000000e+02,4.166252899169921875e+01,4.166252899169921875e+01,-8.537736139260232449e-04,-3.823852539062500000e-02,1.317103742621839046e-04,-9.732012586027849466e-06,2.771506402154955140e-08,1.539785065688192844e-03,-2.945491178252268583e-05,-1.662562851834081812e-07,1.486548781394958496e-02,-2.029964525718241930e-05,-5.216205492615699768e-03,-3.470673703986904002e-08,0.000000000000000000e+00,1.896275498438626528e-04,1.000000000000000000e+00
1.045818328857421875e-01,6.414062500000000000e+02,4.166252899169921875e+01,4.166252899169921875e+01,-8.537736139260232449e-04,-3.823852539062500000e-02,1.317103742621839046e-04,-9.732012586027849466e-06,2.771506402154955140e-08,1.539785065688192844e-03,-2.945491178252268583e-05,-1.662562851834081812e-07,1.486548781394958496e-02,-2.029964525718241930e-05,-5.216205492615699768e-03,-3.470673703986904002e-08,0.000000000000000000e+00,1.896275498438626528e-04,1.000000000000000000e+00
1.045818328857421875e-01,6.414062500000000000e+02,4.166252899169921875e+01,4.166252899169921875e+01,-3.346792655065655708e-04,-3.823852539062500000e-02,1.341488969046622515e-04,-8.808822713035624474e-06,2.084666483881392196e-08,-9.734056657180190086e-04,8.816727131488732994e-06,-6.559517373716516886e-08,-2.400168776512145996e-02,-2.160637450288049877e-05,-4.726703744381666183e-03,8.529504214038752252e-09,0.000000000000000000e+00,1.896275498438626528e-04,1.000000000000000000e+00
2.092907428741455078e-01,6.414062500000000000e+02,4.166252899169921875e+01,4.166252899169921875e+01,-3.346792655065655708e-04,-3.823852539062500000e-02,1.341488969046622515e-04,-8.808822713035624474e-06,2.084666483881392196e-08,-9.734056657180190086e-04,8.816727131488732994e-06,-6.559517373716516886e-08,-2.400168776512145996e-02,-2.160637450288049877e-05,-4.726703744381666183e-03,8.529504214038752252e-09,0.000000000000000000e+00,1.896275498438626528e-04,1.000000000000000000e+00
2.092907428741455078e-01,6.414062500000000000e+02,4.166252899169921875e+01,4.166252899169921875e+01,-3.346792655065655708e-04,-3.823852539062500000e-02,1.341488969046622515e-04,-8.808822713035624474e-06,2.084666483881392196e-08,-9.734056657180190086e-04,8.816727131488732994e-06,-6.559517373716516886e-08,-2.400168776512145996e-02,-2.160637450288049877e-05,-4.726703744381666183e-03,8.529504214038752252e-09,0.000000000000000000e+00,1.896275498438626528e-04,1.000000000000000000e+00
2.092907428741455078e-01,6.414062500000000000e+02,4.166252899169921875e+01,4.166252899169921875e+01,-3.346792655065655708e-04,-3.823852539062500000e-02,1.341488969046622515e-04,-8.808822713035624474e-06,2.084666483881392196e-08,-9.734056657180190086e-04,8.816727131488732994e-06,-6.559517373716516886e-08,-2.400168776512145996e-02,-2.160637450288049877e-05,-4.726703744381666183e-03,8.529504214038752252e-09,0.000000000000000000e+00,1.896275498438626528e-04,1.000000000000000000e+00
2.092907428741455078e-01,6.414062500000000000e+02,4.166252899169921875e+01,4.166252899169921875e+01,-3.346792655065655708e-04,-3.823852539062500000e-02,1.341488969046622515e-04,-8.808822713035624474e-06,2.084666483881392196e-08,-9.734056657180190086e-04,8.816727131488732994e-06,-6.559517373716516886e-08,-2.400168776512145996e-02,-2.160637450288049877e-05,-4.726703744381666183e-03,8.529504214038752252e-09,0.000000000000000000e+00,1.896275498438626528e-04,1.000000000000000000e+00
2.092907428741455078e-01,6.414062500000000000e+02,4.166252899169921875e+01,4.166252899169921875e+01,6.830188794992864132e-05,-3.823852539062500000e-02,1.332131942035630345e-04,-6.488946382887661457e-06,-9.451701643570231681e-09,-2.041094849118962884e-04,3.108979581156745553e-05,-4.060431990637880517e-07,1.030971389263868332e-02,7.339495368796633556e-06,-3.483335953205823898e-03,1.493444656830433814e-08,0.000000000000000000e+00,1.896275498438626528e-04,1.000000000000000000e+00
2.839093208312988281e-01,6.414062500000000000e+02,4.166252899169921875e+01,4.166252899169921875e+01,6.830188794992864132e-05,-3.823852539062500000e-02,1.332131942035630345e-04,-6.488946382887661457e-06,-9.451701643570231681e-09,-2.041094849118962884e-04,3.108979581156745553e-05,-4.060431990637880517e-07,1.030971389263868332e-02,7.339495368796633556e-06,-3.483335953205823898e-03,1.493444656830433814e-08,0.000000000000000000e+00,1.896275498438626528e-04,1.000000000000000000e+00
2.839093208312988281e-01,6.414062500000000000e+02,4.166252899169921875e+01,4.166252899169921875e+01,6.830188794992864132e-05,-3.823852539062500000e-02,1.332131942035630345e-04,-6.488946382887661457e-06,-9.451701643570231681e-09,-2.041094849118962884e-04,3.108979581156745553e-05,-4.060431990637880517e-07,1.030971389263868332e-02,7.339495368796633556e-06,-3.483335953205823898e-03,1.493444656830433814e-08,0.000000000000000000e+00,1.896275498438626528e-04,1.000000000000000000e+00
2.839093208312988281e-01,6.414062500000000000e+02,4.166252899169921875e+01,4.166252899169921875e+01,6.830188794992864132e-05,-3.823852539062500000e-02,1.332131942035630345e-04,-6.488946382887661457e-06,-9.451701643570231681e-09,-2.041094849118962884e-04,3.108979581156745553e-05,-4.060431990637880517e-07,1.030971389263868332e-02,7.339495368796633556e-06,-3.483335953205823898e-03,1.493444656830433814e-08,0.000000000000000000e+00,1.896275498438626528e-04,1.000000000000000000e+00
2.839093208312988281e-01,6.414062500000000000e+02,4.166252899169921875e+01,4.166252899169921875e+01,6.830188794992864132e-05,-3.823852539062500000e-02,1.332131942035630345e-04,-6.488946382887661457e-06,-9.451701643570231681e-09,-2.041094849118962884e-04,3.108979581156745553e-05,-4.060431990637880517e-07,1.030971389263868332e-02,7.339495368796633556e-06,-3.483335953205823898e-03,1.493444656830433814e-08,0.000000000000000000e+00,1.896275498438626528e-04,1.000000000000000000e+00
3.569011688232421875e-01,6.414062500000000000e+02,4.166252899169921875e+01,4.166252899169921875e+01,2.868679293897002935e-04,-3.823852539062500000e-02,1.337168068857863545e-04,-4.812866336578736082e-06,8.221102687500092543e-10,1.224058563821017742e-03,2.296256570843979716e-05,1.407528742447539116e-07,1.956612989306449890e-02,-1.128162097074891790e-08,-2.583275549113750458e-03,1.420292861098459980e-08,0.000000000000000000e+00,1.896275498438626528e-04,1.000000000000000000e+00
3.569011688232421875e-01,6.414062500000000000e+02,4.166252899169921875e+01,4.166252899169921875e+01,2.868679293897002935e-04,-3.823852539062500000e-02,1.337168068857863545e-04,-4.812866336578736082e-06,8.221102687500092543e-10,1.224058563821017742e-03,2.296256570843979716e-05,1.407528742447539116e-07,1.956612989306449890e-02,-1.128162097074891790e-08,-2.583275549113750458e-03,1.420292861098459980e-08,0.000000000000000000e+00,1.896275498438626528e-04,1.000000000000000000e+00
3.569011688232421875e-01,6.414062500000000000e+02,4.166252899169921875e+01,4.166252899169921875e+01,2.868679293897002935e-04,-3.823852539062500000e-02,1.337168068857863545e-04,-4.812866336578736082e-06,8.221102687500092543e-10,1.224058563821017742e-03,2.296256570843979716e-05,1.407528742447539116e-07,1.956612989306449890e-02,-1.128162097074891790e-08,-2.583275549113750458e-03,1.420292861098459980e-08,0.000000000000000000e+00,1.896275498438626528e-04,1.000000000000000000e+00
3.569011688232421875e-01,6.414062500000000000e+02,4.166252899169921875e+01,4.166252899169921875e+01,2.868679293897002935e-04,-3.823852539062500000e-02,1.337168068857863545e-04,-4.812866336578736082e-06,8.221102687500092543e-10,1.224058563821017742e-03,2.296256570843979716e-05,1.407528742447539116e-07,1.956612989306449890e-02,-1.128162097074891790e-08,-2.583275549113750458e-03,1.420292861098459980e-08,0.000000000000000000e+00,1.896275498438626528e-04,1.000000000000000000e+00
4.765405654907226562e-01,6.414062500000000000e+02,4.166252899169921875e+01,4.166252899169921875e+01,2.868679293897002935e-04,-3.823852539062500000e-02,1.337168068857863545e-04,-1.461735337215941399e-06,5.189740193145553349e-08,9.054769907379522920e-05,2.801026312226895243e-05,4.269103328624623828e-07,-9.474394842982292175e-03,-2.813728315231855959e-05,-7.808498339727520943e-04,-2.482983063600840978e-08,0.000000000000000000e+00,1.896275498438626528e-04,1.000000000000000000e+00
4.765405654907226562e-01,6.414062500000000000e+02,4.166252899169921875e+01,4.166252899169921875e+01,2.868679293897002935e-04,-3.823852539062500000e-02,1.337168068857863545e-04,-1.461735337215941399e-06,5.189740193145553349e-08,9.054769907379522920e-05,2.801026312226895243e-05,4.269103328624623828e-07,-9.474394842982292175e-03,-2.813728315231855959e-05,-7.808498339727520943e-04,-2.482983063600840978e-08,0.000000000000000000e+00,1.896275498438626528e-04,1.000000000000000000e+00
4.765405654907226562e-01,6.414062500000000000e+02,4.166252899169921875e+01,4.166252899169921875e+01,2.868679293897002935e-04,-3.823852539062500000e-02,1.337168068857863545e-04,-1.461735337215941399e-06,5.189740193145553349e-08,9.054769907379522920e-05,2.801026312226895243e-05,4.269103328624623828e-07,-9.474394842982292175e-03,-2.813728315231855959e-05,-7.808498339727520943e-04,-2.482983063600840978e-08,0.000000000000000000e+00,1.896275498438626528e-04,1.000000000000000000e+00
4.765405654907226562e-01,6.414062500000000000e+02,4.166252899169921875e+01,4.166252899169921875e+01,2.868679293897002935e-04,-3.823852539062500000e-02,1.337168068857863545e-04,-1.461735337215941399e-06,5.189740193145553349e-08,9.054769907379522920e-05,2.801026312226895243e-05,4.269103328624623828e-07,-9.474394842982292175e-03,-2.813728315231855959e-05,-7.808498339727520943e-04,-2.482983063600840978e-08,0.000000000000000000e+00,1.896275498438626528e-04,1.000000000000000000e+00
4.765405654907226562e-01,6.414062500000000000e+02,4.166252899169921875e+01,4.166252899169921875e+01,2.868679293897002935e-04,-3.823852539062500000e-02,1.337168068857863545e-04,-1.461735337215941399e-06,5.189740193145553349e-08,9.054769907379522920e-05,2.801026312226895243e-05,4.269103328624623828e-07,-9.474394842982292175e-03,-2.813728315231855959e-05,-7.808498339727520943e-04,-2.482983063600840978e-08,0.000000000000000000e+00,1.896275498438626528e-04,1.000000000000000000e+00
4.765405654907226562e-01,6.414062500000000000e+02,4.166252899169921875e+01,4.166252899169921875e+01,2.868679293897002935e-04,-3.823852539062500000e-02,1.337168068857863545e-04,-1.461735337215941399e-06,5.189740193145553349e-08,9.054769907379522920e-05,2.801026312226895243e-05,4.269103328624623828e-07,-9.474394842982292175e-03,-2.813728315231855959e-05,-7.808498339727520943e-04,-2.482983063600840978e-08,0.000000000000000000e+00,1.896275498438626528e-04,1.000000000000000000e+00
4.765405654907226562e-01,6.414062500000000000e+02,4.166252899169921875e+01,4.166252899169921875e+01,2.868679293897002935e-04,-3.823852539062500000e-02,1.337168068857863545e-04,-1.461735337215941399e-06,5.189740193145553349e-08,9.054769907379522920e-05,2.801026312226895243e-05,4.269103328624623828e-07,-9.474394842982292175e-03,-2.813728315231855959e-05,-7.808498339727520943e-04,-2.482983063600840978e-08,0.000000000000000000e+00,1.896275498438626528e-04,1.000000000000000000e+00
6.200885772705078125e-01,6.414062500000000000e+02,4.166252899169921875e+01,4.166252899169921875e+01,4.576226347126066685e-04,-3.823852539062500000e-02,1.346040808130055666e-04,-2.027631808232399635e-06,-3.853009644672056311e-08,-9.803281864151358604e-04,-3.942210696550318971e-06,-6.299460437730886042e-07,-7.460054010152816772e-03,1.510391030024038628e-05,-1.086857519112527370e-03,-1.472940436286762633e-09,0.000000000000000000e+00,1.896275498438626528e-04,1.000000000000000000e+00
6.200885772705078125e-01,6.414062500000000000e+02,4.166252899169921875e+01,4.166252899169921875e+01,4.576226347126066685e-04,-3.823852539062500000e-02,1.346040808130055666e-04,-2.027631808232399635e-06,-3.853009644672056311e-08,-9.803281864151358604e-04,-3.942210696550318971e-06,-6.299460437730886042e-07,-7.460054010152816772e-03,1.510391030024038628e-05,-1.086857519112527370e-03,-1.472940436286762633e-09,0.000000000000000000e+00,1.896275498438626528e-04,1.000000000000000000e+00
6.200885772705078125e-01,6.414062500000000000e+02,4.166252899169921875e+01,4.166252899169921875e+01,4.576226347126066685e-04,-3.823852539062500000e-02,1.346040808130055666e-04,-2.027631808232399635e-06,-3.853009644672056311e-08,-9.803281864151358604e-04,-3.942210696550318971e-06,-6.299460437730886042e-07,-7.460054010152816772e-03,1.510391030024038628e-05,-1.086857519112527370e-03,-1.472940436286762633e-09,0.000000000000000000e+00,1.896275498438626528e-04,1.000000000000000000e+00
6.200885772705078125e-01,6.414062500000000000e+02,4.166252899169921875e+01,4.166252899169921875e+01,4.576226347126066685e-04,-3.823852539062500000e-02,1.346040808130055666e-04,-2.027631808232399635e-06,-3.853009644672056311e-08,-9.803281864151358604e-04,-3.942210696550318971e-06,-6.299460437730886042e-07,-7.460054010152816772e-03,1.510391030024038628e-05,-1.086857519112527370e-03,-1.472940436286762633e-09,0.000000000000000000e+00,1.896275498438626528e-04,1.000000000000000000e+00
6.200885772705078125e-01,6.414062500000000000e+02,4.166252899169921875e+01,4.166252899169921875e+01,4.576226347126066685e-04,-3.823852539062500000e-02,1.346040808130055666e-04,-2.027631808232399635e-06,-3.853009644672056311e-08,-9.803281864151358604e-04,-3.942210696550318971e-06,-6.299460437730886042e-07,-7.460054010152816772e-03,1.510391030024038628e-05,-1.086857519112527370e-03,-1.472940436286762633e-09,0.000000000000000000e+00,1.896275498438626528e-04,1.000000000000000000e+00
6.200885772705078125e-01,6.414062500000000000e+02,4.166252899169921875e+01,4.166252899169921875e+01,4.576226347126066685e-04,-3.823852539062500000e-02,1.346040808130055666e-04,-2.027631808232399635e-06,-3.853009644672056311e-08,-9.803281864151358604e-04,-3.942210696550318971e-06,-6.299460437730886042e-07,-7.460054010152816772e-03,1.510391030024038628e-05,-1.086857519112527370e-03,-1.472940436286762633e-09,0.000000000000000000e+00,1.896275498438626528e-04,1.000000000000000000e+00
7.946169376373291016e-01,6.414062500000000000e+02,4.166252899169921875e+01,4.166252899169921875e+01,4.576226347126066685e-04,-3.823852539062500000e-02,1.346040808130055666e-04,-1.725918423289840575e-06,5.224935861747326271e-08,-3.516564902383834124e-05,1.728735583128582221e-06,5.201415547162469011e-07,5.415523890405893326e-03,-2.581723674666136503e-05,-9.259539656341075897e-04,-1.560633511310527410e-09,0.000000000000000000e+00,1.896275498438626528e-04,1.000000000000000000e+00
7.946169376373291016e-01,6.414062500000000000e+02,4.166252899169921875e+01,4.166252899169921875e+01,4.576226347126066685e-04,-3.823852539062500000e-02,1.346040808130055666e-04,-1.725918423289840575e-06,5.224935861747326271e-08,-3.516564902383834124e-05,1.728735583128582221e-06,5.201415547162469011e-07,5.415523890405893326e-03,-2.581723674666136503e-05,-9.259539656341075897e-04,-1.560633511310527410e-09,0.000000000000000000e+00,1.896275498438626528e-04,1.000000000000000000e+00
7.946169376373291016e-01,6.414062500000000000e+02,4.166252899169921875e+01,4.166252899169921875e+01,4.576226347126066685e-04,-3.823852539062500000e-02,1.346040808130055666e-04,-1.725918423289840575e-06,5.224935861747326271e-08,-3.516564902383834124e-05,1.728735583128582221e-06,5.201415547162469011e-07,5.415523890405893326e-03,-2.581723674666136503e-05,-9.259539656341075897e-04,-1.560633511310527410e-09,0.000000000000000000e+00,1.896275498438626528e-04,1.000000000000000000e+00
8.783230781555175781e-01,6.414062500000000000e+02,4.166252899169921875e+01,4.166252899169921875e+01,6.352075724862515926e-04,-3.823852539062500000e-02,1.360622409265488386e-04,-1.224670768351643346e-06,4.176038004288784578e-08,2.150749205611646175e-04,5.988182692817645147e-06,-1.253071673090744298e-07,2.989512635394930840e-03,-2.894068893510848284e-05,-6.575413281098008156e-04,4.538302622592027546e-09,0.000000000000000000e+00,1.896275498438626528e-04,1.000000000000000000e+00
8.783230781555175781e-01,6.414062500000000000e+02,4.166252899169921875e+01,4.166252899169921875e+01,6.352075724862515926e-04,-3.823852539062500000e-02,1.360622409265488386e-04,-1.224670768351643346e-06,4.176038004288784578e-08,2.150749205611646175e-04,5.988182692817645147e-06,-1.253071673090744298e-07,2.989512635394930840e-03,-2.894068893510848284e-05,-6.575413281098008156e-04,4.538302622592027546e-09,0.000000000000000000e+00,1.896275498438626528e-04,1.000000000000000000e+00
8.783230781555175781e-01,6.414062500000000000e+02,4.166252899169921875e+01,4.166252899169921875e+01,6.352075724862515926e-04,-3.823852539062500000e-02,1.360622409265488386e-04,-1.224670768351643346e-06,4.176038004288784578e-08,2.150749205611646175e-04,5.988182692817645147e-06,-1.253071673090744298e-07,2.989512635394930840e-03,-2.894068893510848284e-05,-6.575413281098008156e-04,4.538302622592027546e-09,0.000000000000000000e+00,1.896275498438626528e-04,1.000000000000000000e+00
9.483780860900878906e-01,6.414062500000000000e+02,4.166252899169921875e+01,4.166252899169921875e+01,6.352075724862515926e-04,-3.823852539062500000e-02,1.360622409265488386e-04,0.000000000000000000e+00,0.000000000000000000e+00,0.000000000000000000e+00,1.748155955283436924e-05,-5.961084070804645307e-07,-3.070086240768432617e-03,0.000000000000000000e+00,0.000000000000000000e+00,0.000000000000000000e+00,0.000000000000000000e+00,1.896275498438626528e-04,1.000000000000000000e+00
9.483780860900878906e-01,6.414062500000000000e+02,4.166252899169921875e+01,4.166252899169921875e+01,6.352075724862515926e-04,-3.823852539062500000e-02,1.360622409265488386e-04,0.000000000000000000e+00,0.000000000000000000e+00,0.000000000000000000e+00,1.748155955283436924e-05,-5.961084070804645307e-07,-3.070086240768432617e-03,0.000000000000000000e+00,0.000000000000000000e+00,0.000000000000000000e+00,0.000000000000000000e+00,1.896275498438626528e-04,1.000000000000000000e+00
9.483780860900878906e-01,6.414062500000000000e+02,4.166252899169921875e+01,4.166252899169921875e+01,6.352075724862515926e-04,-3.823852539062500000e-02,1.360622409265488386e-04,0.000000000000000000e+00,0.000000000000000000e+00,0.000000000000000000e+00,1.748155955283436924e-05,-5.961084070804645307e-07,-3.070086240768432617e-03,0.000000000000000000e+00,0.000000000000000000e+00,0.000000000000000000e+00,0.000000000000000000e+00,1.896275498438626528e-04,1.000000000000000000e+00
9.483780860900878906e-01,6.414062500000000000e+02,4.166252899169921875e+01,4.166252899169921875e+01,6.352075724862515926e-04,-3.823852539062500000e-02,1.360622409265488386e-04,0.000000000000000000e+00,0.000000000000000000e+00,0.000000000000000000e+00,1.748155955283436924e-05,-5.961084070804645307e-07,-3.070086240768432617e-03,0.000000000000000000e+00,0.000000000000000000e+00,0.000000000000000000e+00,0.000000000000000000e+00,1.896275498438626528e-04,1.000000000000000000e+00
9.483780860900878906e-01,6.414062500000000000e+02,4.166252899169921875e+01,4.166252899169921875e+01,6.352075724862515926e-04,-3.823852539062500000e-02,1.360622409265488386e-04,-3.648677306955505628e-07,2.100473928123847145e-08,7.289818313438445330e-05,-4.630359399016015232e-06,2.665609599716844968e-07,9.251154260709881783e-04,-1.709935713734012097e-05,-1.949244033312425017e-04,-5.999484908869590072e-09,0.000000000000000000e+00,1.896275498438626528e-04,1.000000000000000000e+00
1.027177095413208008e+00,6.414062500000000000e+02,4.166252899169921875e+01,4.166252899169921875e+01,6.352075724862515926e-04,-3.823852539062500000e-02,1.360622409265488386e-04,-3.648677306955505628e-07,2.100473928123847145e-08,7.289818313438445330e-05,-4.630359399016015232e-06,2.665609599716844968e-07,9.251154260709881783e-04,-1.709935713734012097e-05,-1.949244033312425017e-04,-5.999484908869590072e-09,0.000000000000000000e+00,1.896275498438626528e-04,1.000000000000000000e+00
1.027177095413208008e+00,6.414062500000000000e+02,4.166252899169921875e+01,4.166252899169921875e+01,6.352075724862515926e-04,-3.823852539062500000e-02,1.360622409265488386e-04,-3.648677306955505628e-07,2.100473928123847145e-08,7.289818313438445330e-05,-4.630359399016015232e-06,2.665609599716844968e-07,9.251154260709881783e-04,-1.709935713734012097e-05,-1.949244033312425017e-04,-5.999484908869590072e-09,0.000000000000000000e+00,1.896275498438626528e-04,1.000000000000000000e+00
1.095043420791625977e+00,6.414062500000000000e+02,4.166252899169921875e+01,4.166252899169921875e+01,6.352075724862515926e-04,-3.823852539062500000e-02,1.360622409265488386e-04,-4.087114859885332407e-07,2.342866345372840442e-08,-1.054444932378828526e-03,-6.460310828515503090e-07,3.571615536657191115e-08,-1.661122962832450867e-02,-9.484869224252179265e-06,-2.191091625718399882e-04,-1.843407648749462169e-09,0.000000000000000000e+00,1.896275498438626528e-04,1.000000000000000000e+00
1.095043420791625977e+00,6.414062500000000000e+02,4.166252899169921875e+01,4.166252899169921875e+01,6.352075724862515926e-04,-3.823852539062500000e-02,1.360622409265488386e-04,-4.087114859885332407e-07,2.342866345372840442e-08,-1.054444932378828526e-03,-6.460310828515503090e-07,3.571615536657191115e-08,-1.661122962832450867e-02,-9.484869224252179265e-06,-2.191091625718399882e-04,-1.843407648749462169e-09,0.000000000000000000e+00,1.896275498438626528e-04,1.000000000000000000e+00
1.095043420791625977e+00,6.414062500000000000e+02,4.166252899169921875e+01,4.166252899169921875e+01,6.352075724862515926e-04,-3.823852539062500000e-02,1.360622409265488386e-04,-4.087114859885332407e-07,2.342866345372840442e-08,-1.054444932378828526e-03,-6.460310828515503090e-07,3.571615536657191115e-08,-1.661122962832450867e-02,-9.484869224252179265e-06,-2.191091625718399882e-04,-1.843407648749462169e-09,0.000000000000000000e+00,1.896275498438626528e-04,1.000000000000000000e+00
1.095043420791625977e+00,6.414062500000000000e+02,4.166252899169921875e+01,4.166252899169921875e+01,6.352075724862515926e-04,-3.823852539062500000e-02,1.360622409265488386e-04,-4.087114859885332407e-07,2.342866345372840442e-08,-1.054444932378828526e-03,-6.460310828515503090e-07,3.571615536657191115e-08,-1.661122962832450867e-02,-9.484869224252179265e-06,-2.191091625718399882e-04,-1.843407648749462169e-09,0.000000000000000000e+00,1.896275498438626528e-04,1.000000000000000000e+00
1.168572425842285156e+00,6.414062500000000000e+02,4.166252899169921875e+01,4.166252899169921875e+01,6.352075724862515926e-04,-3.823852539062500000e-02,1.360622409265488386e-04,-3.703691788814467145e-07,3.087996347517218965e-08,1.238015946000814438e-03,5.214582188273197971e-07,1.013382373571403150e-07,3.117763809859752655e-02,-4.470795829547569156e-06,-1.986544375540688634e-04,-5.705821148893619466e-09,0.000000000000000000e+00,1.896275498438626528e-04,1.000000000000000000e+00
1.168572425842285156e+00,6.414062500000000000e+02,4.166252899169921875e+01,4.166252899169921875e+01,6.352075724862515926e-04,-3.823852539062500000e-02,1.360622409265488386e-04,-3.703691788814467145e-07,3.087996347517218965e-08,1.238015946000814438e-03,5.214582188273197971e-07,1.013382373571403150e-07,3.117763809859752655e-02,-4.470795829547569156e-06,-1.986544375540688634e-04,-5.705821148893619466e-09,0.000000000000000000e+00,1.896275498438626528e-04,1.000000000000000000e+00
1.168572425842285156e+00,6.414062500000000000e+02,4.166252899169921875e+01,4.166252899169921875e+01,6.352075724862515926e-04,-3.823852539062500000e-02,1.360622409265488386e-04,-3.703691788814467145e-07,3.087996347517218965e-08,1.238015946000814438e-03,5.214582188273197971e-07,1.013382373571403150e-07,3.117763809859752655e-02,-4.470795829547569156e-06,-1.986544375540688634e-04,-5.705821148893619466e-09,0.000000000000000000e+00,1.896275498438626528e-04,1.000000000000000000e+00
1.168572425842285156e+00,6.414062500000000000e+02,4.166252899169921875e+01,4.166252899169921875e+01,6.352075724862515926e-04,-3.823852539062500000e-02,1.360622409265488386e-04,-3.703691788814467145e-07,3.087996347517218965e-08,1.238015946000814438e-03,5.214582188273197971e-07,1.013382373571403150e-07,3.117763809859752655e-02,-4.470795829547569156e-06,-1.986544375540688634e-04,-5.705821148893619466e-09,0.000000000000000000e+00,1.896275498438626528e-04,1.000000000000000000e+00
1.168572425842285156e+00,6.414062500000000000e+02,4.166252899169921875e+01,4.166252899169921875e+01,6.352075724862515926e-04,-3.823852539062500000e-02,1.360622409265488386e-04,-3.271968580520479009e-07,-8.145974561557522975e-08,-2.344644890399649739e-04,5.752593779106973670e-07,-1.496895833952294197e-06,-1.962039992213249207e-02,3.398802437004633248e-05,-1.752851967466995120e-04,5.662982083265433175e-09,0.000000000000000000e+00,1.896275498438626528e-04,1.000000000000000000e+00
1.243620872497558594e+00,6.414062500000000000e+02,4.166252899169921875e+01,4.166252899169921875e+01,6.352075724862515926e-04,-3.823852539062500000e-02,1.360622409265488386e-04,-3.271968580520479009e-07,-8.145974561557522975e-08,-2.344644890399649739e-04,5.752593779106973670e-07,-1.496895833952294197e-06,-1.962039992213249207e-02,3.398802437004633248e-05,-1.752851967466995120e-04,5.662982083265433175e-09,0.000000000000000000e+00,1.896275498438626528e-04,1.000000000000000000e+00
1.243620872497558594e+00,6.414062500000000000e+02,4.166252899169921875e+01,4.166252899169921875e+01,6.352075724862515926e-04,-3.823852539062500000e-02,1.360622409265488386e-04,-3.271968580520479009e-07,-8.145974561557522975e-08,-2.344644890399649739e-04,5.752593779106973670e-07,-1.496895833952294197e-06,-1.962039992213249207e-02,3.398802437004633248e-05,-1.752851967466995120e-04,5.662982083265433175e-09,0.000000000000000000e+00,1.896275498438626528e-04,1.000000000000000000e+00
1.243620872497558594e+00,6.414062500000000000e+02,4.166252899169921875e+01,4.166252899169921875e+01,6.352075724862515926e-04,-3.823852539062500000e-02,1.360622409265488386e-04,-3.271968580520479009e-07,-8.145974561557522975e-08,-2.344644890399649739e-04,5.752593779106973670e-07,-1.496895833952294197e-06,-1.962039992213249207e-02,3.398802437004633248e-05,-1.752851967466995120e-04,5.662982083265433175e-09,0.000000000000000000e+00,1.896275498438626528e-04,1.000000000000000000e+00
1.312042951583862305e+00,6.414062500000000000e+02,4.166252899169921875e+01,4.166252899169921875e+01,7.376603898592293262e-04,-3.823852539062500000e-02,1.362495240755379200e-04,-2.126971594407223165e-07,4.543980747229170447e-09,-2.560135908424854279e-04,1.673432052484713495e-06,1.256958626072446350e-06,-3.149436961393803358e-04,1.623610614842618816e-06,-1.146302165579982102e-04,1.546836436716603203e-09,0.000000000000000000e+00,1.896275498438626528e-04,1.000000000000000000e+00
1.312042951583862305e+00,6.414062500000000000e+02,4.166252899169921875e+01,4.166252899169921875e+01,7.376603898592293262e-04,-3.823852539062500000e-02,1.362495240755379200e-04,-2.126971594407223165e-07,4.543980747229170447e-09,-2.560135908424854279e-04,1.673432052484713495e-06,1.256958626072446350e-06,-3.149436961393803358e-04,1.623610614842618816e-06,-1.146302165579982102e-04,1.546836436716603203e-09,0.000000000000000000e+00,1.896275498438626528e-04,1.000000000000000000e+00
1.383129358291625977e+00,6.414062500000000000e+02,4.166252899169921875e+01,4.166252899169921875e+01,7.376603898592293262e-04,-3.823852539062500000e-02,1.362495240755379200e-04,-2.208265748038229503e-08,-1.998241572209735750e-09,1.431746059097349644e-04,2.681447767827194184e-06,-9.203196782436862122e-08,5.615534726530313492e-03,1.069906829798128456e-06,-1.160460396931739524e-05,-1.752576195279686999e-09,0.000000000000000000e+00,1.896275498438626528e-04,1.000000000000000000e+00
1.383129358291625977e+00,6.414062500000000000e+02,4.166252899169921875e+01,4.166252899169921875e+01,7.376603898592293262e-04,-3.823852539062500000e-02,1.362495240755379200e-04,-2.208265748038229503e-08,-1.998241572209735750e-09,1.431746059097349644e-04,2.681447767827194184e-06,-9.203196782436862122e-08,5.615534726530313492e-03,1.069906829798128456e-06,-1.160460396931739524e-05,-1.752576195279686999e-09,0.000000000000000000e+00,1.896275498438626528e-04,1.000000000000000000e+00
1.383129358291625977e+00,6.414062500000000000e+02,4.166252899169921875e+01,4.166252899169921875e+01,7.376603898592293262e-04,-3.823852539062500000e-02,1.362495240755379200e-04,-2.208265748038229503e-08,-1.998241572209735750e-09,1.431746059097349644e-04,2.681447767827194184e-06,-9.203196782436862122e-08,5.615534726530313492e-03,1.069906829798128456e-06,-1.160460396931739524e-05,-1.752576195279686999e-09,0.000000000000000000e+00,1.896275498438626528e-04,1.000000000000000000e+00
1.450951814651489258e+00,6.414062500000000000e+02,4.166252899169921875e+01,4.166252899169921875e+01,7.376603898592293262e-04,-3.823852539062500000e-02,1.362495240755379200e-04,-9.434124592644366203e-08,1.939106430981496487e-09,-2.289446420036256313e-04,-1.065408014255808666e-06,5.805375380418809073e-08,-5.486667156219482422e-03,3.625712452048901469e-06,-5.052870619692839682e-05,-2.926166642325256362e-09,0.000000000000000000e+00,1.896275498438626528e-04,1.000000000000000000e+00
1.450951814651489258e+00,6.414062500000000000e+02,4.166252899169921875e+01,4.166252899169921875e+01,7.376603898592293262e-04,-3.823852539062500000e-02,1.362495240755379200e-04,-9.434124592644366203e-08,1.939106430981496487e-09,-2.289446420036256313e-04,-1.065408014255808666e-06,5.805375380418809073e-08,-5.486667156219482422e-03,3.625712452048901469e-06,-5.052870619692839682e-05,-2.926166642325256362e-09,0.000000000000000000e+00,1.896275498438626528e-04,1.000000000000000000e+00
1.450951814651489258e+00,6.414062500000000000e+02,4.166252899169921875e+01,4.166252899169921875e+01,7.376603898592293262e-04,-3.823852539062500000e-02,1.362495240755379200e-04,-9.434124592644366203e-08,1.939106430981496487e-09,-2.289446420036256313e-04,-1.065408014255808666e-06,5.805375380418809073e-08,-5.486667156219482422e-03,3.625712452048901469e-06,-5.052870619692839682e-05,-2.926166642325256362e-09,0.000000000000000000e+00,1.896275498438626528e-04,1.000000000000000000e+00
1.527701377868652344e+00,6.414062500000000000e+02,4.166252899169921875e+01,4.166252899169921875e+01,7.376603898592293262e-04,-3.823852539062500000e-02,1.362495240755379200e-04,-9.354232588520972058e-08,5.798522906275138666e-08,4.089372814632952213e-04,1.040944130892285102e-08,7.302468247871729545e-07,8.311212994158267975e-03,-2.944574407592881471e-05,-5.014480484533123672e-05,-3.665486136839035680e-09,0.000000000000000000e+00,1.896275498438626528e-04,1.000000000000000000e+00
1.527701377868652344e+00,6.414062500000000000e+02,4.166252899169921875e+01,4.166252899169921875e+01,7.376603898592293262e-04,-3.823852539062500000e-02,1.362495240755379200e-04,-9.354232588520972058e-08,5.798522906275138666e-08,4.089372814632952213e-04,1.040944130892285102e-08,7.302468247871729545e-07,8.311212994158267975e-03,-2.944574407592881471e-05,-5.014480484533123672e-05,-3.665486136839035680e-09,0.000000000000000000e+00,1.896275498438626528e-04,1.000000000000000000e+00
1.527701377868652344e+00,6.414062500000000000e+02,4.166252899169921875e+01,4.166252899169921875e+01,7.376603898592293262e-04,-3.823852539062500000e-02,1.362495240755379200e-04,-9.354232588520972058e-08,5.798522906275138666e-08,4.089372814632952213e-04,1.040944130892285102e-08,7.302468247871729545e-07,8.311212994158267975e-03,-2.944574407592881471e-05,-5.014480484533123672e-05,-3.665486136839035680e-09,0.000000000000000000e+00,1.896275498438626528e-04,1.000000000000000000e+00
1.600134611129760742e+00,6.414062500000000000e+02,4.166252899169921875e+01,4.166252899169921875e+01,7.376603898592293262e-04,-3.823852539062500000e-02,1.362495240755379200e-04,-1.002255061166579253e-07,3.995822694946582487e-08,-9.113438427448272705e-04,-9.226676667140054633e-08,-2.488775123765663011e-07,-1.822756044566631317e-02,-2.813908031384926289e-05,-5.356291148927994072e-05,-5.799486446633750347e-10,0.000000000000000000e+00,1.896275498438626528e-04,1.000000000000000000e+00
1.600134611129760742e+00,6.414062500000000000e+02,4.166252899169921875e+01,4.166252899169921875e+01,7.376603898592293262e-04,-3.823852539062500000e-02,1.362495240755379200e-04,-1.002255061166579253e-07,3.995822694946582487e-08,-9.113438427448272705e-04,-9.226676667140054633e-08,-2.488775123765663011e-07,-1.822756044566631317e-02,-2.813908031384926289e-05,-5.356291148927994072e-05,-5.799486446633750347e-10,0.000000000000000000e+00,1.896275498438626528e-04,1.000000000000000000e+00
1.600134611129760742e+00,6.414062500000000000e+02,4.166252899169921875e+01,4.166252899169921875e+01,7.376603898592293262e-04,-3.823852539062500000e-02,1.362495240755379200e-04,-1.002255061166579253e-07,3.995822694946582487e-08,-9.113438427448272705e-04,-9.226676667140054633e-08,-2.488775123765663011e-07,-1.822756044566631317e-02,-2.813908031384926289e-05,-5.356291148927994072e-05,-5.799486446633750347e-10,0.000000000000000000e+00,1.896275498438626528e-04,1.000000000000000000e+00
1.600134611129760742e+00,6.414062500000000000e+02,4.166252899169921875e+01,4.166252899169921875e+01,7.376603898592293262e-04,-3.823852539062500000e-02,1.362495240755379200e-04,-1.002255061166579253e-07,3.995822694946582487e-08,-9.113438427448272705e-04,-9.226676667140054633e-08,-2.488775123765663011e-07,-1.822756044566631317e-02,-2.813908031384926289e-05,-5.356291148927994072e-05,-5.799486446633750347e-10,0.000000000000000000e+00,1.896275498438626528e-04,1.000000000000000000e+00
1.600134611129760742e+00,6.414062500000000000e+02,4.166252899169921875e+01,4.166252899169921875e+01,7.376603898592293262e-04,-3.823852539062500000e-02,1.362495240755379200e-04,-1.002255061166579253e-07,3.995822694946582487e-08,-9.113438427448272705e-04,-9.226676667140054633e-08,-2.488775123765663011e-07,-1.822756044566631317e-02,-2.813908031384926289e-05,-5.356291148927994072e-05,-5.799486446633750347e-10,0.000000000000000000e+00,1.896275498438626528e-04,1.000000000000000000e+00
1.600134611129760742e+00,6.414062500000000000e+02,4.166252899169921875e+01,4.166252899169921875e+01,7.376603898592293262e-04,-3.823852539062500000e-02,1.362495240755379200e-04,-6.548275166551320581e-08,-1.781167924264082103e-08,3.814812225755304098e-04,3.011188880464032991e-07,-5.006975243304623291e-07,1.120504271239042282e-02,1.115230043069459498e-05,-3.536960502970032394e-05,1.298763319113049874e-09,0.000000000000000000e+00,1.896275498438626528e-04,1.000000000000000000e+00
1.715513467788696289e+00,6.414062500000000000e+02,4.166252899169921875e+01,4.166252899169921875e+01,7.376603898592293262e-04,-3.823852539062500000e-02,1.362495240755379200e-04,-6.548275166551320581e-08,-1.781167924264082103e-08,3.814812225755304098e-04,3.011188880464032991e-07,-5.006975243304623291e-07,1.120504271239042282e-02,1.115230043069459498e-05,-3.536960502970032394e-05,1.298763319113049874e-09,0.000000000000000000e+00,1.896275498438626528e-04,1.000000000000000000e+00
1.715513467788696289e+00,6.414062500000000000e+02,4.166252899169921875e+01,4.166252899169921875e+01,7.376603898592293262e-04,-3.823852539062500000e-02,1.362495240755379200e-04,-6.548275166551320581e-08,-1.781167924264082103e-08,3.814812225755304098e-04,3.011188880464032991e-07,-5.006975243304623291e-07,1.120504271239042282e-02,1.115230043069459498e-05,-3.536960502970032394e-05,1.298763319113049874e-09,0.000000000000000000e+00,1.896275498438626528e-04,1.000000000000000000e+00
1.715513467788696289e+00,6.414062500000000000e+02,4.166252899169921875e+01,4.166252899169921875e+01,7.376603898592293262e-04,-3.823852539062500000e-02,1.362495240755379200e-04,-4.400004272042679077e-08,-9.897721753304722370e-09,-8.061590488068759441e-04,2.201060027573475963e-07,8.108425930686280481e-08,-1.216823980212211609e-02,1.263443209609249607e-05,-2.370932998019270599e-05,-1.507609925788244709e-09,0.000000000000000000e+00,1.896275498438626528e-04,1.000000000000000000e+00
1.813115119934082031e+00,6.414062500000000000e+02,4.166252899169921875e+01,4.166252899169921875e+01,7.376603898592293262e-04,-3.823852539062500000e-02,1.362495240755379200e-04,-4.400004272042679077e-08,-9.897721753304722370e-09,-8.061590488068759441e-04,2.201060027573475963e-07,8.108425930686280481e-08,-1.216823980212211609e-02,1.263443209609249607e-05,-2.370932998019270599e-05,-1.507609925788244709e-09,0.000000000000000000e+00,1.896275498438626528e-04,1.000000000000000000e+00
1.813115119934082031e+00,6.414062500000000000e+02,4.166252899169921875e+01,4.166252899169921875e+01,7.376603898592293262e-04,-3.823852539062500000e-02,1.362495240755379200e-04,-4.400004272042679077e-08,-9.897721753304722370e-09,-8.061590488068759441e-04,2.201060027573475963e-07,8.108425930686280481e-08,-1.216823980212211609e-02,1.263443209609249607e-05,-2.370932998019270599e-05,-1.507609925788244709e-09,0.000000000000000000e+00,1.896275498438626528e-04,1.000000000000000000e+00
1.813115119934082031e+00,6.414062500000000000e+02,4.166252899169921875e+01,4.166252899169921875e+01,7.376603898592293262e-04,-3.823852539062500000e-02,1.362495240755379200e-04,-4.400004272042679077e-08,-9.897721753304722370e-09,-8.061590488068759441e-04,2.201060027573475963e-07,8.108425930686280481e-08,-1.216823980212211609e-02,1.263443209609249607e-05,-2.370932998019270599e-05,-1.507609925788244709e-09,0.000000000000000000e+00,1.896275498438626528e-04,1.000000000000000000e+00
1.813115119934082031e+00,6.414062500000000000e+02,4.166252899169921875e+01,4.166252899169921875e+01,7.376603898592293262e-04,-3.823852539062500000e-02,1.362495240755379200e-04,-1.048211739629323347e-08,-4.706194189907364489e-08,2.973072696477174759e-04,4.037344183416280430e-07,-4.476552533105859766e-07,1.329161599278450012e-02,1.993917430809233338e-05,-5.756468453910201788e-06,3.473229925887721947e-09,0.000000000000000000e+00,1.896275498438626528e-04,1.000000000000000000e+00
1.896134853363037109e+00,6.414062500000000000e+02,4.166252899169921875e+01,4.166252899169921875e+01,7.376603898592293262e-04,-3.823852539062500000e-02,1.362495240755379200e-04,-1.048211739629323347e-08,-4.706194189907364489e-08,2.973072696477174759e-04,4.037344183416280430e-07,-4.476552533105859766e-07,1.329161599278450012e-02,1.993917430809233338e-05,-5.756468453910201788e-06,3.473229925887721947e-09,0.000000000000000000e+00,1.896275498438626528e-04,1.000000000000000000e+00
1.896134853363037109e+00,6.414062500000000000e+02,4.166252899169921875e+01,4.166252899169921875e+01,7.376603898592293262e-04,-3.823852539062500000e-02,1.362495240755379200e-04,-1.048211739629323347e-08,-4.706194189907364489e-08,2.973072696477174759e-04,4.037344183416280430e-07,-4.476552533105859766e-07,1.329161599278450012e-02,1.993917430809233338e-05,-5.756468453910201788e-06,3.473229925887721947e-09,0.000000000000000000e+00,1.896275498438626528e-04,1.000000000000000000e+00
1.896134853363037109e+00,6.414062500000000000e+02,4.166252899169921875e+01,4.166252899169921875e+01,7.376603898592293262e-04,-3.823852539062500000e-02,1.362495240755379200e-04,-1.048211739629323347e-08,-4.706194189907364489e-08,2.973072696477174759e-04,4.037344183416280430e-07,-4.476552533105859766e-07,1.329161599278450012e-02,1.993917430809233338e-05,-5.756468453910201788e-06,3.473229925887721947e-09,0.000000000000000000e+00,1.896275498438626528e-04,1.000000000000000000e+00
1.896134853363037109e+00,6.414062500000000000e+02,4.166252899169921875e+01,4.166252899169921875e+01,7.376603898592293262e-04,-3.823852539062500000e-02,1.362495240755379200e-04,-1.048211739629323347e-08,-4.706194189907364489e-08,2.973072696477174759e-04,4.037344183416280430e-07,-4.476552533105859766e-07,1.329161599278450012e-02,1.993917430809233338e-05,-5.756468453910201788e-06,3.473229925887721947e-09,0.000000000000000000e+00,1.896275498438626528e-04,1.000000000000000000e+00
1.896134853363037109e+00,6.414062500000000000e+02,4.166252899169921875e+01,4.166252899169921875e+01,7.376603898592293262e-04,-3.823852539062500000e-02,1.362495240755379200e-04,-1.048211739629323347e-08,-4.706194189907364489e-08,2.973072696477174759e-04,4.037344183416280430e-07,-4.476552533105859766e-07,1.329161599278450012e-02,1.993917430809233338e-05,-5.756468453910201788e-06,3.473229925887721947e-09,0.000000000000000000e+00,1.896275498438626528e-04,1.000000000000000000e+00
1.896134853363037109e+00,6.414062500000000000e+02,4.166252899169921875e+01,4.166252899169921875e+01,7.376603898592293262e-04,-3.823852539062500000e-02,1.362495240755379200e-04,-1.048211739629323347e-08,-4.706194189907364489e-08,2.973072696477174759e-04,4.037344183416280430e-07,-4.476552533105859766e-07,1.329161599278450012e-02,1.993917430809233338e-05,-5.756468453910201788e-06,3.473229925887721947e-09,0.000000000000000000e+00,1.896275498438626528e-04,1.000000000000000000e+00
1.896134853363037109e+00,6.414062500000000000e+02,4.166252899169921875e+01,4.166252899169921875e+01,7.376603898592293262e-04,-3.823852539062500000e-02,1.362495240755379200e-04,-1.048211739629323347e-08,-4.706194189907364489e-08,2.973072696477174759e-04,4.037344183416280430e-07,-4.476552533105859766e-07,1.329161599278450012e-02,1.993917430809233338e-05,-5.756468453910201788e-06,3.473229925887721947e-09,0.000000000000000000e+00,1.896275498438626528e-04,1.000000000000000000e+00
2.195794820785522461e+00,6.414062500000000000e+02,4.166252899169921875e+01,4.166252899169921875e+01,7.376603898592293262e-04,-3.823852539062500000e-02,1.362495240755379200e-04,-1.423954554269357686e-08,-2.295167078614213096e-08,1.390950055792927742e-03,-2.148905338117401698e-07,-2.429121082059282344e-07,2.198839932680130005e-02,4.879598691331921145e-06,-7.806166649970691651e-06,4.781525397845598491e-09,0.000000000000000000e+00,1.896275498438626528e-04,1.000000000000000000e+00
2.195794820785522461e+00,6.414062500000000000e+02,4.166252899169921875e+01,4.166252899169921875e+01,7.376603898592293262e-04,-3.823852539062500000e-02,1.362495240755379200e-04,-1.423954554269357686e-08,-2.295167078614213096e-08,1.390950055792927742e-03,-2.148905338117401698e-07,-2.429121082059282344e-07,2.198839932680130005e-02,4.879598691331921145e-06,-7.806166649970691651e-06,4.781525397845598491e-09,0.000000000000000000e+00,1.896275498438626528e-04,1.000000000000000000e+00
2.195794820785522461e+00,6.414062500000000000e+02,4.166252899169921875e+01,4.166252899169921875e+01,7.376603898592293262e-04,-3.823852539062500000e-02,1.362495240755379200e-04,-1.423954554269357686e-08,-2.295167078614213096e-08,1.390950055792927742e-03,-2.148905338117401698e-07,-2.429121082059282344e-07,2.198839932680130005e-02,4.879598691331921145e-06,-7.806166649970691651e-06,4.781525397845598491e-09,0.000000000000000000e+00,1.896275498438626528e-04,1.000000000000000000e+00
2.195794820785522461e+00,6.414062500000000000e+02,4.166252899169921875e+01,4.166252899169921875e+01,7.376603898592293262e-04,-3.823852539062500000e-02,1.362495240755379200e-04,-1.423954554269357686e-08,-2.295167078614213096e-08,1.390950055792927742e-03,-2.148905338117401698e-07,-2.429121082059282344e-07,2.198839932680130005e-02,4.879598691331921145e-06,-7.806166649970691651e-06,4.781525397845598491e-09,0.000000000000000000e+00,1.896275498438626528e-04,1.000000000000000000e+00
2.195794820785522461e+00,6.414062500000000000e+02,4.166252899169921875e+01,4.166252899169921875e+01,7.376603898592293262e-04,-3.823852539062500000e-02,1.362495240755379200e-04,-1.423954554269357686e-08,-2.295167078614213096e-08,1.390950055792927742e-03,-2.148905338117401698e-07,-2.429121082059282344e-07,2.198839932680130005e-02,4.879598691331921145e-06,-7.806166649970691651e-06,4.781525397845598491e-09,0.000000000000000000e+00,1.896275498438626528e-04,1.000000000000000000e+00
2.195794820785522461e+00,6.414062500000000000e+02,4.166252899169921875e+01,4.166252899169921875e+01,7.376603898592293262e-04,-3.823852539062500000e-02,1.362495240755379200e-04,-1.423954554269357686e-08,-2.295167078614213096e-08,1.390950055792927742e-03,-2.148905338117401698e-07,-2.429121082059282344e-07,2.198839932680130005e-02,4.879598691331921145e-06,-7.806166649970691651e-06,4.781525397845598491e-09,0.000000000000000000e+00,1.896275498438626528e-04,1.000000000000000000e+00
2.195794820785522461e+00,6.414062500000000000e+02,4.166252899169921875e+01,4.166252899169921875e+01,7.376603898592293262e-04,-3.823852539062500000e-02,1.362495240755379200e-04,-1.423954554269357686e-08,-2.295167078614213096e-08,1.390950055792927742e-03,-2.148905338117401698e-07,-2.429121082059282344e-07,2.198839932680130005e-02,4.879598691331921145e-06,-7.806166649970691651e-06,4.781525397845598491e-09,0.000000000000000000e+00,1.896275498438626528e-04,1.000000000000000000e+00
2.195794820785522461e+00,6.414062500000000000e+02,4.166252899169921875e+01,4.166252899169921875e+01,7.376603898592293262e-04,-3.823852539062500000e-02,1.362495240755379200e-04,-1.423954554269357686e-08,-2.295167078614213096e-08,1.390950055792927742e-03,-2.148905338117401698e-07,-2.429121082059282344e-07,2.198839932680130005e-02,4.879598691331921145e-06,-7.806166649970691651e-06,4.781525397845598491e-09,0.000000000000000000e+00,1.896275498438626528e-04,1.000000000000000000e+00
2.195794820785522461e+00,6.414062500000000000e+02,4.166252899169921875e+01,4.166252899169921875e+01,7.376603898592293262e-04,-3.823852539062500000e-02,1.362495240755379200e-04,-1.423954554269357686e-08,-2.295167078614213096e-08,1.390950055792927742e-03,-2.148905338117401698e-07,-2.429121082059282344e-07,2.198839932680130005e-02,4.879598691331921145e-06,-7.806166649970691651e-06,4.781525397845598491e-09,0.000000000000000000e+00,1.896275498438626528e-04,1.000000000000000000e+00
2.195794820785522461e+00,6.414062500000000000e+02,4.166252899169921875e+01,4.166252899169921875e+01,7.376603898592293262e-04,-3.823852539062500000e-02,1.362495240755379200e-04,-1.423954554269357686e-08,-2.295167078614213096e-08,1.390950055792927742e-03,-2.148905338117401698e-07,-2.429121082059282344e-07,2.198839932680130005e-02,4.879598691331921145e-06,-7.806166649970691651e-06,4.781525397845598491e-09,0.000000000000000000e+00,1.896275498438626528e-04,1.000000000000000000e+00
2.374083757400512695e+00,6.414062500000000000e+02,4.166252899169921875e+01,4.166252899169921875e+01,7.376603898592293262e-04,-3.823852539062500000e-02,1.362495240755379200e-04,-2.026001766353147104e-08,3.108911883487053274e-08,1.705944654531776905e-03,-3.376806390065212327e-08,3.031079245374712627e-07,1.766764675267040730e-03,-1.196416542370570824e-05,-1.066030108631821349e-05,-6.024692300599099326e-09,0.000000000000000000e+00,1.896275498438626528e-04,1.000000000000000000e+00
2.374083757400512695e+00,6.414062500000000000e+02,4.166252899169921875e+01,4.166252899169921875e+01,7.376603898592293262e-04,-3.823852539062500000e-02,1.362495240755379200e-04,-2.026001766353147104e-08,3.108911883487053274e-08,1.705944654531776905e-03,-3.376806390065212327e-08,3.031079245374712627e-07,1.766764675267040730e-03,-1.196416542370570824e-05,-1.066030108631821349e-05,-6.024692300599099326e-09,0.000000000000000000e+00,1.896275498438626528e-04,1.000000000000000000e+00
2.374083757400512695e+00,6.414062500000000000e+02,4.166252899169921875e+01,4.166252899169921875e+01,7.376603898592293262e-04,-3.823852539062500000e-02,1.362495240755379200e-04,-2.026001766353147104e-08,3.108911883487053274e-08,1.705944654531776905e-03,-3.376806390065212327e-08,3.031079245374712627e-07,1.766764675267040730e-03,-1.196416542370570824e-05,-1.066030108631821349e-05,-6.024692300599099326e-09,0.000000000000000000e+00,1.896275498438626528e-04,1.000000000000000000e+00
2.447860002517700195e+00,6.414062500000000000e+02,4.166252899169921875e+01,4.166252899169921875e+01,7.376603898592293262e-04,-3.823852539062500000e-02,1.362495240755379200e-04,-6.615604064563740394e-09,-1.655002912492875566e-09,-7.131912861950695515e-04,1.849431896516762208e-07,-4.438301459686044836e-07,-3.279017657041549683e-02,1.284102040699508507e-06,-3.524873591231880710e-06,-1.328668286504353091e-10,0.000000000000000000e+00,1.896275498438626528e-04,1.000000000000000000e+00
2.447860002517700195e+00,6.414062500000000000e+02,4.166252899169921875e+01,4.166252899169921875e+01,7.376603898592293262e-04,-3.823852539062500000e-02,1.362495240755379200e-04,-6.615604064563740394e-09,-1.655002912492875566e-09,-7.131912861950695515e-04,1.849431896516762208e-07,-4.438301459686044836e-07,-3.279017657041549683e-02,1.284102040699508507e-06,-3.524873591231880710e-06,-1.328668286504353091e-10,0.000000000000000000e+00,1.896275498438626528e-04,1.000000000000000000e+00
2.500878810882568359e+00,6.414062500000000000e+02,4.166252899169921875e+01,4.166252899169921875e+01,7.376603898592293262e-04,-3.823852539062500000e-02,1.362495240755379200e-04,2.221668182755820453e-08,2.875663440704556706e-08,7.324567995965480804e-04,5.438124048851022962e-07,5.736009143220144324e-07,2.726670168340206146e-02,-1.564255762787070125e-05,1.191844785353168845e-05,-1.438039243240041287e-09,0.000000000000000000e+00,1.896275498438626528e-04,1.000000000000000000e+00
2.500878810882568359e+00,6.414062500000000000e+02,4.166252899169921875e+01,4.166252899169921875e+01,7.376603898592293262e-04,-3.823852539062500000e-02,1.362495240755379200e-04,2.221668182755820453e-08,2.875663440704556706e-08,7.324567995965480804e-04,5.438124048851022962e-07,5.736009143220144324e-07,2.726670168340206146e-02,-1.564255762787070125e-05,1.191844785353168845e-05,-1.438039243240041287e-09,0.000000000000000000e+00,1.896275498438626528e-04,1.000000000000000000e+00
2.560195446014404297e+00,6.414062500000000000e+02,4.166252899169921875e+01,4.166252899169921875e+01,7.376603898592293262e-04,-3.823852539062500000e-02,1.362495240755379200e-04,-1.629417845094849326e-08,-3.793187541845099986e-09,1.240098499692976475e-03,-6.492421675829973537e-07,-5.487469252329901792e-07,8.558167144656181335e-03,1.729104155856475700e-06,-8.723909559193998575e-06,-2.376797647585249251e-10,0.000000000000000000e+00,1.896275498438626528e-04,1.000000000000000000e+00
2.560195446014404297e+00,6.414062500000000000e+02,4.166252899169921875e+01,4.166252899169921875e+01,7.376603898592293262e-04,-3.823852539062500000e-02,1.362495240755379200e-04,-1.629417845094849326e-08,-3.793187541845099986e-09,1.240098499692976475e-03,-6.492421675829973537e-07,-5.487469252329901792e-07,8.558167144656181335e-03,1.729104155856475700e-06,-8.723909559193998575e-06,-2.376797647585249251e-10,0.000000000000000000e+00,1.896275498438626528e-04,1.000000000000000000e+00
2.560195446014404297e+00,6.414062500000000000e+02,4.166252899169921875e+01,4.166252899169921875e+01,7.376603898592293262e-04,-3.823852539062500000e-02,1.362495240755379200e-04,-1.629417845094849326e-08,-3.793187541845099986e-09,1.240098499692976475e-03,-6.492421675829973537e-07,-5.487469252329901792e-07,8.558167144656181335e-03,1.729104155856475700e-06,-8.723909559193998575e-06,-2.376797647585249251e-10,0.000000000000000000e+00,1.896275498438626528e-04,1.000000000000000000e+00
2.618730545043945312e+00,6.414062500000000000e+02,4.166252899169921875e+01,4.166252899169921875e+01,7.376603898592293262e-04,-3.823852539062500000e-02,1.362495240755379200e-04,-2.836245460713371358e-09,-4.953147936248569749e-08,-1.059565693140029907e-03,2.299122030535727390e-07,-7.813823685864917934e-07,-3.928692638874053955e-02,2.333817974431440234e-05,-1.329085989709710702e-06,2.199545656722534659e-09,0.000000000000000000e+00,1.896275498438626528e-04,1.000000000000000000e+00
2.618730545043945312e+00,6.414062500000000000e+02,4.166252899169921875e+01,4.166252899169921875e+01,7.376603898592293262e-04,-3.823852539062500000e-02,1.362495240755379200e-04,-2.836245460713371358e-09,-4.953147936248569749e-08,-1.059565693140029907e-03,2.299122030535727390e-07,-7.813823685864917934e-07,-3.928692638874053955e-02,2.333817974431440234e-05,-1.329085989709710702e-06,2.199545656722534659e-09,0.000000000000000000e+00,1.896275498438626528e-04,1.000000000000000000e+00
2.677334070205688477e+00,6.414062500000000000e+02,4.166252899169921875e+01,4.166252899169921875e+01,7.376603898592293262e-04,-3.823852539062500000e-02,1.362495240755379200e-04,-7.748425900899746921e-09,-5.134975111786843627e-08,-6.777915987186133862e-04,-8.382055938227495062e-08,-3.102666212839721993e-08,6.514524575322866440e-03,2.437130751786753535e-05,-3.963138624385464936e-06,2.169921797801066532e-09,0.000000000000000000e+00,1.896275498438626528e-04,1.000000000000000000e+00
2.677334070205688477e+00,6.414062500000000000e+02,4.166252899169921875e+01,4.166252899169921875e+01,7.376603898592293262e-04,-3.823852539062500000e-02,1.362495240755379200e-04,-7.748425900899746921e-09,-5.134975111786843627e-08,-6.777915987186133862e-04,-8.382055938227495062e-08,-3.102666212839721993e-08,6.514524575322866440e-03,2.437130751786753535e-05,-3.963138624385464936e-06,2.169921797801066532e-09,0.000000000000000000e+00,1.896275498438626528e-04,1.000000000000000000e+00
2.677334070205688477e+00,6.414062500000000000e+02,4.166252899169921875e+01,4.166252899169921875e+01,7.376603898592293262e-04,-3.823852539062500000e-02,1.362495240755379200e-04,-7.748425900899746921e-09,-5.134975111786843627e-08,-6.777915987186133862e-04,-8.382055938227495062e-08,-3.102666212839721993e-08,6.514524575322866440e-03,2.437130751786753535e-05,-3.963138624385464936e-06,2.169921797801066532e-09,0.000000000000000000e+00,1.896275498438626528e-04,1.000000000000000000e+00
2.677334070205688477e+00,6.414062500000000000e+02,4.166252899169921875e+01,4.166252899169921875e+01,7.376603898592293262e-04,-3.823852539062500000e-02,1.362495240755379200e-04,-7.748425900899746921e-09,-5.134975111786843627e-08,-6.777915987186133862e-04,-8.382055938227495062e-08,-3.102666212839721993e-08,6.514524575322866440e-03,2.437130751786753535e-05,-3.963138624385464936e-06,2.169921797801066532e-09,0.000000000000000000e+00,1.896275498438626528e-04,1.000000000000000000e+00
2.755024909973144531e+00,6.414062500000000000e+02,4.166252899169921875e+01,4.166252899169921875e+01,7.376603898592293262e-04,-3.823852539062500000e-02,1.362495240755379200e-04,4.792808372400259032e-09,1.481744060782830275e-08,-5.968267796561121941e-04,1.614248787973338040e-07,8.516730076735257171e-07,1.042141113430261612e-03,-9.439188033866230398e-06,2.579679403424961492e-06,4.533906305947965620e-10,0.000000000000000000e+00,1.896275498438626528e-04,1.000000000000000000e+00
2.755024909973144531e+00,6.414062500000000000e+02,4.166252899169921875e+01,4.166252899169921875e+01,7.376603898592293262e-04,-3.823852539062500000e-02,1.362495240755379200e-04,4.792808372400259032e-09,1.481744060782830275e-08,-5.968267796561121941e-04,1.614248787973338040e-07,8.516730076735257171e-07,1.042141113430261612e-03,-9.439188033866230398e-06,2.579679403424961492e-06,4.533906305947965620e-10,0.000000000000000000e+00,1.896275498438626528e-04,1.000000000000000000e+00
2.755024909973144531e+00,6.414062500000000000e+02,4.166252899169921875e+01,4.166252899169921875e+01,7.376603898592293262e-04,-3.823852539062500000e-02,1.362495240755379200e-04,4.792808372400259032e-09,1.481744060782830275e-08,-5.968267796561121941e-04,1.614248787973338040e-07,8.516730076735257171e-07,1.042141113430261612e-03,-9.439188033866230398e-06,2.579679403424961492e-06,4.533906305947965620e-10,0.000000000000000000e+00,1.896275498438626528e-04,1.000000000000000000e+00
2.830169916152954102e+00,6.414062500000000000e+02,4.166252899169921875e+01,4.166252899169921875e+01,7.376603898592293262e-04,-3.823852539062500000e-02,1.362495240755379200e-04,-1.057285148320374901e-09,-3.193328979023135616e-08,-3.737631777767091990e-04,-7.785072853039309848e-08,-6.221401918082847260e-07,2.968441927805542946e-03,1.712926678010262549e-05,-5.684870529876207002e-07,1.348344769169784740e-09,0.000000000000000000e+00,1.896275498438626528e-04,1.000000000000000000e+00
2.830169916152954102e+00,6.414062500000000000e+02,4.166252899169921875e+01,4.166252899169921875e+01,7.376603898592293262e-04,-3.823852539062500000e-02,1.362495240755379200e-04,-1.057285148320374901e-09,-3.193328979023135616e-08,-3.737631777767091990e-04,-7.785072853039309848e-08,-6.221401918082847260e-07,2.968441927805542946e-03,1.712926678010262549e-05,-5.684870529876207002e-07,1.348344769169784740e-09,0.000000000000000000e+00,1.896275498438626528e-04,1.000000000000000000e+00
2.830169916152954102e+00,6.414062500000000000e+02,4.166252899169921875e+01,4.166252899169921875e+01,7.376603898592293262e-04,-3.823852539062500000e-02,1.362495240755379200e-04,-1.057285148320374901e-09,-3.193328979023135616e-08,-3.737631777767091990e-04,-7.785072853039309848e-08,-6.221401918082847260e-07,2.968441927805542946e-03,1.712926678010262549e-05,-5.684870529876207002e-07,1.348344769169784740e-09,0.000000000000000000e+00,1.896275498438626528e-04,1.000000000000000000e+00
2.830169916152954102e+00,6.414062500000000000e+02,4.166252899169921875e+01,4.166252899169921875e+01,7.376603898592293262e-04,-3.823852539062500000e-02,1.362495240755379200e-04,-1.057285148320374901e-09,-3.193328979023135616e-08,-3.737631777767091990e-04,-7.785072853039309848e-08,-6.221401918082847260e-07,2.968441927805542946e-03,1.712926678010262549e-05,-5.684870529876207002e-07,1.348344769169784740e-09,0.000000000000000000e+00,1.896275498438626528e-04,1.000000000000000000e+00
2.830169916152954102e+00,6.414062500000000000e+02,4.166252899169921875e+01,4.166252899169921875e+01,7.376603898592293262e-04,-3.823852539062500000e-02,1.362495240755379200e-04,-1.057285148320374901e-09,-3.193328979023135616e-08,-3.737631777767091990e-04,-7.785072853039309848e-08,-6.221401918082847260e-07,2.968441927805542946e-03,1.712926678010262549e-05,-5.684870529876207002e-07,1.348344769169784740e-09,0.000000000000000000e+00,1.896275498438626528e-04,1.000000000000000000e+00
2.917726278305053711e+00,6.414062500000000000e+02,4.166252899169921875e+01,4.166252899169921875e+01,7.376603898592293262e-04,-3.823852539062500000e-02,1.362495240755379200e-04,1.540101202124333213e-08,4.385054097610918689e-08,-5.081366543890908360e-05,1.879737396848213393e-07,8.655433703097514808e-07,3.688475582748651505e-03,-1.978409818548243493e-05,8.071442607615608722e-06,-2.259575193619411948e-09,0.000000000000000000e+00,1.896275498438626528e-04,1.000000000000000000e+00
