# Time,X,Y,Z,Roll,Pitch,Yaw,Vx,Vy,Vz,Ax,Ay,Az,Wx,Wy,Wz,Throttle,Steer,Brake
0.000000000000000000e+00,-1.583664855957031250e+02,4.546323013305664062e+01,4.546323013305664062e+01,7.513207674492150545e-05,-2.838134532794356346e-03,0.000000000000000000e+00,1.854488118624431081e-08,-2.988400638059829362e-08,1.231219619512557983e-03,2.141420196721810498e-07,-7.509497095270489808e-07,1.495768036693334579e-02,-1.813933158700820059e-05,-1.015231009660055861e-05,3.335106413260291447e-09,0.000000000000000000e+00,-3.760669787880033255e-04,1.000000000000000000e+00
1.045818328857421875e-01,-1.583664855957031250e+02,4.546323013305664062e+01,4.546323013305664062e+01,7.513207674492150545e-05,-2.838134532794356346e-03,0.000000000000000000e+00,1.854488118624431081e-08,-2.988400638059829362e-08,1.231219619512557983e-03,2.141420196721810498e-07,-7.509497095270489808e-07,1.495768036693334579e-02,-1.813933158700820059e-05,-1.015231009660055861e-05,3.335106413260291447e-09,0.000000000000000000e+00,-3.760669787880033255e-04,1.000000000000000000e+00
1.045818328857421875e-01,-1.583664855957031250e+02,4.546323013305664062e+01,4.546323013305664062e+01,7.513207674492150545e-05,-2.838134532794356346e-03,0.000000000000000000e+00,1.854488118624431081e-08,-2.988400638059829362e-08,1.231219619512557983e-03,2.141420196721810498e-07,-7.509497095270489808e-07,1.495768036693334579e-02,-1.813933158700820059e-05,-1.015231009660055861e-05,3.335106413260291447e-09,0.000000000000000000e+00,-3.760669787880033255e-04,1.000000000000000000e+00
1.045818328857421875e-01,-1.583664855957031250e+02,4.546323013305664062e+01,4.546323013305664062e+01,7.513207674492150545e-05,-2.838134532794356346e-03,0.000000000000000000e+00,1.854488118624431081e-08,-2.988400638059829362e-08,1.231219619512557983e-03,2.141420196721810498e-07,-7.509497095270489808e-07,1.495768036693334579e-02,-1.813933158700820059e-05,-1.015231009660055861e-05,3.335106413260291447e-09,0.000000000000000000e+00,-3.760669787880033255e-04,1.000000000000000000e+00
1.045818328857421875e-01,-1.583664855957031250e+02,4.546323013305664062e+01,4.546323013305664062e+01,7.513207674492150545e-05,-2.838134532794356346e-03,0.000000000000000000e+00,1.854488118624431081e-08,-2.988400638059829362e-08,1.231219619512557983e-03,2.141420196721810498e-07,-7.509497095270489808e-07,1.495768036693334579e-02,-1.813933158700820059e-05,-1.015231009660055861e-05,3.335106413260291447e-09,0.000000000000000000e+00,-3.760669787880033255e-04,1.000000000000000000e+00
1.045818328857421875e-01,-1.583664855957031250e+02,4.546323013305664062e+01,4.546323013305664062e+01,7.513207674492150545e-05,-2.838134532794356346e-03,0.000000000000000000e+00,1.854488118624431081e-08,-2.988400638059829362e-08,1.231219619512557983e-03,2.141420196721810498e-07,-7.509497095270489808e-07,1.495768036693334579e-02,-1.813933158700820059e-05,-1.015231009660055861e-05,3.335106413260291447e-09,0.000000000000000000e+00,-3.760669787880033255e-04,1.000000000000000000e+00
1.045818328857421875e-01,-1.583664855957031250e+02,4.546323013305664062e+01,4.546323013305664062e+01,7.513207674492150545e-05,-2.838134532794356346e-03,0.000000000000000000e+00,-7.253758482761440973e-09,3.568552342514408338e-09,-1.208389992825686932e-03,-2.463843600253312616e-07,3.194814723883609986e-07,-2.329896949231624603e-02,2.198554739152314141e-06,3.760950221476377919e-06,-6.496435611680340116e-10,0.000000000000000000e+00,-3.760669787880033255e-04,1.000000000000000000e+00
2.092907428741455078e-01,-1.583664855957031250e+02,4.546323013305664062e+01,4.546323013305664062e+01,7.513207674492150545e-05,-2.838134532794356346e-03,0.000000000000000000e+00,-7.253758482761440973e-09,3.568552342514408338e-09,-1.208389992825686932e-03,-2.463843600253312616e-07,3.194814723883609986e-07,-2.329896949231624603e-02,2.198554739152314141e-06,3.760950221476377919e-06,-6.496435611680340116e-10,0.000000000000000000e+00,-3.760669787880033255e-04,1.000000000000000000e+00
2.092907428741455078e-01,-1.583664855957031250e+02,4.546323013305664062e+01,4.546323013305664062e+01,7.513207674492150545e-05,-2.838134532794356346e-03,0.000000000000000000e+00,-7.253758482761440973e-09,3.568552342514408338e-09,-1.208389992825686932e-03,-2.463843600253312616e-07,3.194814723883609986e-07,-2.329896949231624603e-02,2.198554739152314141e-06,3.760950221476377919e-06,-6.496435611680340116e-10,0.000000000000000000e+00,-3.760669787880033255e-04,1.000000000000000000e+00
2.092907428741455078e-01,-1.583664855957031250e+02,4.546323013305664062e+01,4.546323013305664062e+01,7.513207674492150545e-05,-2.838134532794356346e-03,0.000000000000000000e+00,-7.253758482761440973e-09,3.568552342514408338e-09,-1.208389992825686932e-03,-2.463843600253312616e-07,3.194814723883609986e-07,-2.329896949231624603e-02,2.198554739152314141e-06,3.760950221476377919e-06,-6.496435611680340116e-10,0.000000000000000000e+00,-3.760669787880033255e-04,1.000000000000000000e+00
2.092907428741455078e-01,-1.583664855957031250e+02,4.546323013305664062e+01,4.546323013305664062e+01,7.513207674492150545e-05,-2.838134532794356346e-03,0.000000000000000000e+00,-7.253758482761440973e-09,3.568552342514408338e-09,-1.208389992825686932e-03,-2.463843600253312616e-07,3.194814723883609986e-07,-2.329896949231624603e-02,2.198554739152314141e-06,3.760950221476377919e-06,-6.496435611680340116e-10,0.000000000000000000e+00,-3.760669787880033255e-04,1.000000000000000000e+00
2.092907428741455078e-01,-1.583664855957031250e+02,4.546323013305664062e+01,4.546323013305664062e+01,7.513207674492150545e-05,-2.838134532794356346e-03,0.000000000000000000e+00,-4.505968376200542025e-10,4.580109802532206231e-08,-1.130297096096910536e-04,9.117248822576584644e-08,5.659789508172252681e-07,1.467945799231529236e-02,1.910315040731802583e-05,2.524471369724778924e-07,-1.111249092744515110e-09,0.000000000000000000e+00,-3.760669787880033255e-04,1.000000000000000000e+00
2.839093208312988281e-01,-1.583664855957031250e+02,4.546323013305664062e+01,4.546323013305664062e+01,7.513207674492150545e-05,-2.838134532794356346e-03,0.000000000000000000e+00,-4.505968376200542025e-10,4.580109802532206231e-08,-1.130297096096910536e-04,9.117248822576584644e-08,5.659789508172252681e-07,1.467945799231529236e-02,1.910315040731802583e-05,2.524471369724778924e-07,-1.111249092744515110e-09,0.000000000000000000e+00,-3.760669787880033255e-04,1.000000000000000000e+00
2.839093208312988281e-01,-1.583664855957031250e+02,4.546323013305664062e+01,4.546323013305664062e+01,7.513207674492150545e-05,-2.838134532794356346e-03,0.000000000000000000e+00,-4.505968376200542025e-10,4.580109802532206231e-08,-1.130297096096910536e-04,9.117248822576584644e-08,5.659789508172252681e-07,1.467945799231529236e-02,1.910315040731802583e-05,2.524471369724778924e-07,-1.111249092744515110e-09,0.000000000000000000e+00,-3.760669787880033255e-04,1.000000000000000000e+00
2.839093208312988281e-01,-1.583664855957031250e+02,4.546323013305664062e+01,4.546323013305664062e+01,7.513207674492150545e-05,-2.838134532794356346e-03,0.000000000000000000e+00,-4.505968376200542025e-10,4.580109802532206231e-08,-1.130297096096910536e-04,9.117248822576584644e-08,5.659789508172252681e-07,1.467945799231529236e-02,1.910315040731802583e-05,2.524471369724778924e-07,-1.111249092744515110e-09,0.000000000000000000e+00,-3.760669787880033255e-04,1.000000000000000000e+00
2.839093208312988281e-01,-1.583664855957031250e+02,4.546323013305664062e+01,4.546323013305664062e+01,7.513207674492150545e-05,-2.838134532794356346e-03,0.000000000000000000e+00,-4.505968376200542025e-10,4.580109802532206231e-08,-1.130297096096910536e-04,9.117248822576584644e-08,5.659789508172252681e-07,1.467945799231529236e-02,1.910315040731802583e-05,2.524471369724778924e-07,-1.111249092744515110e-09,0.000000000000000000e+00,-3.760669787880033255e-04,1.000000000000000000e+00
3.569011688232421875e-01,-1.583664855957031250e+02,4.546323013305664062e+01,4.546323013305664062e+01,7.513207674492150545e-05,-2.838134532794356346e-03,0.000000000000000000e+00,-5.124871083062032540e-10,2.850325664383035473e-08,1.129143987782299519e-03,-8.479066337940821541e-10,-2.369831975101988064e-07,1.701797917485237122e-02,1.714189056656323373e-05,2.522268403026828310e-07,-1.566328955426854463e-09,0.000000000000000000e+00,-3.760669787880033255e-04,1.000000000000000000e+00
3.569011688232421875e-01,-1.583664855957031250e+02,4.546323013305664062e+01,4.546323013305664062e+01,7.513207674492150545e-05,-2.838134532794356346e-03,0.000000000000000000e+00,-5.124871083062032540e-10,2.850325664383035473e-08,1.129143987782299519e-03,-8.479066337940821541e-10,-2.369831975101988064e-07,1.701797917485237122e-02,1.714189056656323373e-05,2.522268403026828310e-07,-1.566328955426854463e-09,0.000000000000000000e+00,-3.760669787880033255e-04,1.000000000000000000e+00
3.569011688232421875e-01,-1.583664855957031250e+02,4.546323013305664062e+01,4.546323013305664062e+01,7.513207674492150545e-05,-2.838134532794356346e-03,0.000000000000000000e+00,-5.124871083062032540e-10,2.850325664383035473e-08,1.129143987782299519e-03,-8.479066337940821541e-10,-2.369831975101988064e-07,1.701797917485237122e-02,1.714189056656323373e-05,2.522268403026828310e-07,-1.566328955426854463e-09,0.000000000000000000e+00,-3.760669787880033255e-04,1.000000000000000000e+00
3.569011688232421875e-01,-1.583664855957031250e+02,4.546323013305664062e+01,4.546323013305664062e+01,7.513207674492150545e-05,-2.838134532794356346e-03,0.000000000000000000e+00,-5.124871083062032540e-10,2.850325664383035473e-08,1.129143987782299519e-03,-8.479066337940821541e-10,-2.369831975101988064e-07,1.701797917485237122e-02,1.714189056656323373e-05,2.522268403026828310e-07,-1.566328955426854463e-09,0.000000000000000000e+00,-3.760669787880033255e-04,1.000000000000000000e+00
4.765405654907226562e-01,-1.583664855957031250e+02,4.546323013305664062e+01,4.546323013305664062e+01,7.513207674492150545e-05,-2.838134532794356346e-03,0.000000000000000000e+00,-2.363943174543692294e-08,-5.745966902281907096e-08,4.502592491917312145e-04,-1.933054250002896879e-07,-7.185169010881509166e-07,-5.674424581229686737e-03,-2.236761611129622906e-05,1.339584923698566854e-05,-2.820769839928516376e-09,0.000000000000000000e+00,-3.760669787880033255e-04,1.000000000000000000e+00
4.765405654907226562e-01,-1.583664855957031250e+02,4.546323013305664062e+01,4.546323013305664062e+01,7.513207674492150545e-05,-2.838134532794356346e-03,0.000000000000000000e+00,-2.363943174543692294e-08,-5.745966902281907096e-08,4.502592491917312145e-04,-1.933054250002896879e-07,-7.185169010881509166e-07,-5.674424581229686737e-03,-2.236761611129622906e-05,1.339584923698566854e-05,-2.820769839928516376e-09,0.000000000000000000e+00,-3.760669787880033255e-04,1.000000000000000000e+00
4.765405654907226562e-01,-1.583664855957031250e+02,4.546323013305664062e+01,4.546323013305664062e+01,7.513207674492150545e-05,-2.838134532794356346e-03,0.000000000000000000e+00,-2.363943174543692294e-08,-5.745966902281907096e-08,4.502592491917312145e-04,-1.933054250002896879e-07,-7.185169010881509166e-07,-5.674424581229686737e-03,-2.236761611129622906e-05,1.339584923698566854e-05,-2.820769839928516376e-09,0.000000000000000000e+00,-3.760669787880033255e-04,1.000000000000000000e+00
4.765405654907226562e-01,-1.583664855957031250e+02,4.546323013305664062e+01,4.546323013305664062e+01,7.513207674492150545e-05,-2.838134532794356346e-03,0.000000000000000000e+00,-2.363943174543692294e-08,-5.745966902281907096e-08,4.502592491917312145e-04,-1.933054250002896879e-07,-7.185169010881509166e-07,-5.674424581229686737e-03,-2.236761611129622906e-05,1.339584923698566854e-05,-2.820769839928516376e-09,0.000000000000000000e+00,-3.760669787880033255e-04,1.000000000000000000e+00
4.765405654907226562e-01,-1.583664855957031250e+02,4.546323013305664062e+01,4.546323013305664062e+01,7.513207674492150545e-05,-2.838134532794356346e-03,0.000000000000000000e+00,-2.363943174543692294e-08,-5.745966902281907096e-08,4.502592491917312145e-04,-1.933054250002896879e-07,-7.185169010881509166e-07,-5.674424581229686737e-03,-2.236761611129622906e-05,1.339584923698566854e-05,-2.820769839928516376e-09,0.000000000000000000e+00,-3.760669787880033255e-04,1.000000000000000000e+00
4.765405654907226562e-01,-1.583664855957031250e+02,4.546323013305664062e+01,4.546323013305664062e+01,7.513207674492150545e-05,-2.838134532794356346e-03,0.000000000000000000e+00,-2.363943174543692294e-08,-5.745966902281907096e-08,4.502592491917312145e-04,-1.933054250002896879e-07,-7.185169010881509166e-07,-5.674424581229686737e-03,-2.236761611129622906e-05,1.339584923698566854e-05,-2.820769839928516376e-09,0.000000000000000000e+00,-3.760669787880033255e-04,1.000000000000000000e+00
4.765405654907226562e-01,-1.583664855957031250e+02,4.546323013305664062e+01,4.546323013305664062e+01,7.513207674492150545e-05,-2.838134532794356346e-03,0.000000000000000000e+00,-2.363943174543692294e-08,-5.745966902281907096e-08,4.502592491917312145e-04,-1.933054250002896879e-07,-7.185169010881509166e-07,-5.674424581229686737e-03,-2.236761611129622906e-05,1.339584923698566854e-05,-2.820769839928516376e-09,0.000000000000000000e+00,-3.760669787880033255e-04,1.000000000000000000e+00
6.200885772705078125e-01,-1.583664855957031250e+02,4.546323013305664062e+01,4.546323013305664062e+01,7.513207674492150545e-05,-2.838134532794356346e-03,0.000000000000000000e+00,-2.354068273646703346e-09,-5.247678735997851618e-09,-1.133901416324079037e-03,1.482804492525247042e-07,3.637249506027728785e-07,-1.103575434535741806e-02,-2.122280420735478401e-06,1.209977767757663969e-06,-5.000631853047110553e-11,0.000000000000000000e+00,-3.760669787880033255e-04,1.000000000000000000e+00
6.200885772705078125e-01,-1.583664855957031250e+02,4.546323013305664062e+01,4.546323013305664062e+01,7.513207674492150545e-05,-2.838134532794356346e-03,0.000000000000000000e+00,-2.354068273646703346e-09,-5.247678735997851618e-09,-1.133901416324079037e-03,1.482804492525247042e-07,3.637249506027728785e-07,-1.103575434535741806e-02,-2.122280420735478401e-06,1.209977767757663969e-06,-5.000631853047110553e-11,0.000000000000000000e+00,-3.760669787880033255e-04,1.000000000000000000e+00
6.200885772705078125e-01,-1.583664855957031250e+02,4.546323013305664062e+01,4.546323013305664062e+01,7.513207674492150545e-05,-2.838134532794356346e-03,0.000000000000000000e+00,-2.354068273646703346e-09,-5.247678735997851618e-09,-1.133901416324079037e-03,1.482804492525247042e-07,3.637249506027728785e-07,-1.103575434535741806e-02,-2.122280420735478401e-06,1.209977767757663969e-06,-5.000631853047110553e-11,0.000000000000000000e+00,-3.760669787880033255e-04,1.000000000000000000e+00
6.200885772705078125e-01,-1.583664855957031250e+02,4.546323013305664062e+01,4.546323013305664062e+01,7.513207674492150545e-05,-2.838134532794356346e-03,0.000000000000000000e+00,-2.354068273646703346e-09,-5.247678735997851618e-09,-1.133901416324079037e-03,1.482804492525247042e-07,3.637249506027728785e-07,-1.103575434535741806e-02,-2.122280420735478401e-06,1.209977767757663969e-06,-5.000631853047110553e-11,0.000000000000000000e+00,-3.760669787880033255e-04,1.000000000000000000e+00
6.200885772705078125e-01,-1.583664855957031250e+02,4.546323013305664062e+01,4.546323013305664062e+01,7.513207674492150545e-05,-2.838134532794356346e-03,0.000000000000000000e+00,-2.354068273646703346e-09,-5.247678735997851618e-09,-1.133901416324079037e-03,1.482804492525247042e-07,3.637249506027728785e-07,-1.103575434535741806e-02,-2.122280420735478401e-06,1.209977767757663969e-06,-5.000631853047110553e-11,0.000000000000000000e+00,-3.760669787880033255e-04,1.000000000000000000e+00
6.200885772705078125e-01,-1.583664855957031250e+02,4.546323013305664062e+01,4.546323013305664062e+01,7.513207674492150545e-05,-2.838134532794356346e-03,0.000000000000000000e+00,-2.354068273646703346e-09,-5.247678735997851618e-09,-1.133901416324079037e-03,1.482804492525247042e-07,3.637249506027728785e-07,-1.103575434535741806e-02,-2.122280420735478401e-06,1.209977767757663969e-06,-5.000631853047110553e-11,0.000000000000000000e+00,-3.760669787880033255e-04,1.000000000000000000e+00
7.946169376373291016e-01,-1.583664855957031250e+02,4.546323013305664062e+01,4.546323013305664062e+01,7.513207674492150545e-05,-2.838134532794356346e-03,0.000000000000000000e+00,-2.710750068857237238e-09,-3.551226868125922920e-09,-2.824884722940623760e-04,-2.043689661945791158e-09,9.720207749808196240e-09,4.878364503383636475e-03,-1.419105046807089821e-06,1.427032316314580385e-06,-1.201131971662050546e-10,0.000000000000000000e+00,-3.760669787880033255e-04,1.000000000000000000e+00
7.946169376373291016e-01,-1.583664855957031250e+02,4.546323013305664062e+01,4.546323013305664062e+01,7.513207674492150545e-05,-2.838134532794356346e-03,0.000000000000000000e+00,-2.710750068857237238e-09,-3.551226868125922920e-09,-2.824884722940623760e-04,-2.043689661945791158e-09,9.720207749808196240e-09,4.878364503383636475e-03,-1.419105046807089821e-06,1.427032316314580385e-06,-1.201131971662050546e-10,0.000000000000000000e+00,-3.760669787880033255e-04,1.000000000000000000e+00
7.946169376373291016e-01,-1.583664855957031250e+02,4.546323013305664062e+01,4.546323013305664062e+01,7.513207674492150545e-05,-2.838134532794356346e-03,0.000000000000000000e+00,-2.710750068857237238e-09,-3.551226868125922920e-09,-2.824884722940623760e-04,-2.043689661945791158e-09,9.720207749808196240e-09,4.878364503383636475e-03,-1.419105046807089821e-06,1.427032316314580385e-06,-1.201131971662050546e-10,0.000000000000000000e+00,-3.760669787880033255e-04,1.000000000000000000e+00
7.946169376373291016e-01,-1.583664855957031250e+02,4.546323013305664062e+01,4.546323013305664062e+01,7.513207674492150545e-05,-2.838134532794356346e-03,0.000000000000000000e+00,-2.710750068857237238e-09,-3.551226868125922920e-09,-2.824884722940623760e-04,-2.043689661945791158e-09,9.720207749808196240e-09,4.878364503383636475e-03,-1.419105046807089821e-06,1.427032316314580385e-06,-1.201131971662050546e-10,0.000000000000000000e+00,-3.760669787880033255e-04,1.000000000000000000e+00
8.783230781555175781e-01,-1.583664855957031250e+02,4.546323013305664062e+01,4.546323013305664062e+01,7.513207674492150545e-05,-2.838134532794356346e-03,0.000000000000000000e+00,-1.215610390126187212e-09,-1.535514471129317826e-08,4.378542507765814662e-05,1.786176895279822929e-08,-1.410161587500624591e-07,3.897849237546324730e-03,2.154929461539722979e-07,6.504913585558824707e-07,-1.580883535190480416e-09,0.000000000000000000e+00,-3.760669787880033255e-04,1.000000000000000000e+00
8.783230781555175781e-01,-1.583664855957031250e+02,4.546323013305664062e+01,4.546323013305664062e+01,7.513207674492150545e-05,-2.838134532794356346e-03,0.000000000000000000e+00,-1.215610390126187212e-09,-1.535514471129317826e-08,4.378542507765814662e-05,1.786176895279822929e-08,-1.410161587500624591e-07,3.897849237546324730e-03,2.154929461539722979e-07,6.504913585558824707e-07,-1.580883535190480416e-09,0.000000000000000000e+00,-3.760669787880033255e-04,1.000000000000000000e+00
9.483780860900878906e-01,-1.583664855957031250e+02,4.546323013305664062e+01,4.546323013305664062e+01,7.513207674492150545e-05,-2.838134532794356346e-03,0.000000000000000000e+00,-2.836602952527300658e-08,3.900868961181913619e-08,1.644524862058460712e-03,-3.875585719015361974e-07,7.760164066894503776e-07,2.284974977374076843e-02,2.590567964944057167e-05,1.529106521047651768e-05,-3.777253620995679739e-09,0.000000000000000000e+00,-3.760669787880033255e-04,1.000000000000000000e+00
9.483780860900878906e-01,-1.583664855957031250e+02,4.546323013305664062e+01,4.546323013305664062e+01,7.513207674492150545e-05,-2.838134532794356346e-03,0.000000000000000000e+00,-2.836602952527300658e-08,3.900868961181913619e-08,1.644524862058460712e-03,-3.875585719015361974e-07,7.760164066894503776e-07,2.284974977374076843e-02,2.590567964944057167e-05,1.529106521047651768e-05,-3.777253620995679739e-09,0.000000000000000000e+00,-3.760669787880033255e-04,1.000000000000000000e+00
9.483780860900878906e-01,-1.583664855957031250e+02,4.546323013305664062e+01,4.546323013305664062e+01,7.513207674492150545e-05,-2.838134532794356346e-03,0.000000000000000000e+00,-2.836602952527300658e-08,3.900868961181913619e-08,1.644524862058460712e-03,-3.875585719015361974e-07,7.760164066894503776e-07,2.284974977374076843e-02,2.590567964944057167e-05,1.529106521047651768e-05,-3.777253620995679739e-09,0.000000000000000000e+00,-3.760669787880033255e-04,1.000000000000000000e+00
9.483780860900878906e-01,-1.583664855957031250e+02,4.546323013305664062e+01,4.546323013305664062e+01,7.513207674492150545e-05,-2.838134532794356346e-03,0.000000000000000000e+00,-2.836602952527300658e-08,3.900868961181913619e-08,1.644524862058460712e-03,-3.875585719015361974e-07,7.760164066894503776e-07,2.284974977374076843e-02,2.590567964944057167e-05,1.529106521047651768e-05,-3.777253620995679739e-09,0.000000000000000000e+00,-3.760669787880033255e-04,1.000000000000000000e+00
9.483780860900878906e-01,-1.583664855957031250e+02,4.546323013305664062e+01,4.546323013305664062e+01,7.513207674492150545e-05,-2.838134532794356346e-03,0.000000000000000000e+00,1.774106550556098227e-08,4.594801339408149943e-08,4.004203365184366703e-04,5.851227911080059130e-07,8.806358664514846168e-08,-1.578832603991031647e-02,2.900835715990979224e-05,-9.775036232895217836e-06,-6.757862047734874977e-10,0.000000000000000000e+00,-3.760669787880033255e-04,1.000000000000000000e+00
1.027177095413208008e+00,-1.583664855957031250e+02,4.546323013305664062e+01,4.546323013305664062e+01,7.513207674492150545e-05,-2.838134532794356346e-03,0.000000000000000000e+00,1.774106550556098227e-08,4.594801339408149943e-08,4.004203365184366703e-04,5.851227911080059130e-07,8.806358664514846168e-08,-1.578832603991031647e-02,2.900835715990979224e-05,-9.775036232895217836e-06,-6.757862047734874977e-10,0.000000000000000000e+00,-3.760669787880033255e-04,1.000000000000000000e+00
1.027177095413208008e+00,-1.583664855957031250e+02,4.546323013305664062e+01,4.546323013305664062e+01,7.513207674492150545e-05,-2.838134532794356346e-03,0.000000000000000000e+00,1.774106550556098227e-08,4.594801339408149943e-08,4.004203365184366703e-04,5.851227911080059130e-07,8.806358664514846168e-08,-1.578832603991031647e-02,2.900835715990979224e-05,-9.775036232895217836e-06,-6.757862047734874977e-10,0.000000000000000000e+00,-3.760669787880033255e-04,1.000000000000000000e+00
1.095043420791625977e+00,-1.583664855957031250e+02,4.546323013305664062e+01,4.546323013305664062e+01,7.513207674492150545e-05,-2.838134532794356346e-03,0.000000000000000000e+00,1.790536252599395084e-08,-3.088891276092908811e-08,-1.203633379191160202e-03,2.420891709320471819e-09,-1.132180386775871739e-06,-2.363548614084720612e-02,-2.825323826982639730e-05,-9.255411896447185427e-06,2.774974250385753294e-09,0.000000000000000000e+00,-3.760669787880033255e-04,1.000000000000000000e+00
1.095043420791625977e+00,-1.583664855957031250e+02,4.546323013305664062e+01,4.546323013305664062e+01,7.513207674492150545e-05,-2.838134532794356346e-03,0.000000000000000000e+00,1.790536252599395084e-08,-3.088891276092908811e-08,-1.203633379191160202e-03,2.420891709320471819e-09,-1.132180386775871739e-06,-2.363548614084720612e-02,-2.825323826982639730e-05,-9.255411896447185427e-06,2.774974250385753294e-09,0.000000000000000000e+00,-3.760669787880033255e-04,1.000000000000000000e+00
1.095043420791625977e+00,-1.583664855957031250e+02,4.546323013305664062e+01,4.546323013305664062e+01,7.513207674492150545e-05,-2.838134532794356346e-03,0.000000000000000000e+00,1.790536252599395084e-08,-3.088891276092908811e-08,-1.203633379191160202e-03,2.420891709320471819e-09,-1.132180386775871739e-06,-2.363548614084720612e-02,-2.825323826982639730e-05,-9.255411896447185427e-06,2.774974250385753294e-09,0.000000000000000000e+00,-3.760669787880033255e-04,1.000000000000000000e+00
1.095043420791625977e+00,-1.583664855957031250e+02,4.546323013305664062e+01,4.546323013305664062e+01,7.513207674492150545e-05,-2.838134532794356346e-03,0.000000000000000000e+00,1.790536252599395084e-08,-3.088891276092908811e-08,-1.203633379191160202e-03,2.420891709320471819e-09,-1.132180386775871739e-06,-2.363548614084720612e-02,-2.825323826982639730e-05,-9.255411896447185427e-06,2.774974250385753294e-09,0.000000000000000000e+00,-3.760669787880033255e-04,1.000000000000000000e+00
1.168572425842285156e+00,-1.583664855957031250e+02,4.546323013305664062e+01,4.546323013305664062e+01,7.513207674492150545e-05,-2.838134532794356346e-03,0.000000000000000000e+00,1.487502210295588156e-08,6.909263561283296440e-08,9.606869425624608994e-04,-4.121285712699318537e-08,1.359756538477085996e-06,2.943491749465465546e-02,3.334445864311419427e-05,-8.291841368190944195e-06,-3.916771351697434511e-10,0.000000000000000000e+00,-3.760669787880033255e-04,1.000000000000000000e+00
1.168572425842285156e+00,-1.583664855957031250e+02,4.546323013305664062e+01,4.546323013305664062e+01,7.513207674492150545e-05,-2.838134532794356346e-03,0.000000000000000000e+00,1.487502210295588156e-08,6.909263561283296440e-08,9.606869425624608994e-04,-4.121285712699318537e-08,1.359756538477085996e-06,2.943491749465465546e-02,3.334445864311419427e-05,-8.291841368190944195e-06,-3.916771351697434511e-10,0.000000000000000000e+00,-3.760669787880033255e-04,1.000000000000000000e+00
1.168572425842285156e+00,-1.583664855957031250e+02,4.546323013305664062e+01,4.546323013305664062e+01,7.513207674492150545e-05,-2.838134532794356346e-03,0.000000000000000000e+00,1.487502210295588156e-08,6.909263561283296440e-08,9.606869425624608994e-04,-4.121285712699318537e-08,1.359756538477085996e-06,2.943491749465465546e-02,3.334445864311419427e-05,-8.291841368190944195e-06,-3.916771351697434511e-10,0.000000000000000000e+00,-3.760669787880033255e-04,1.000000000000000000e+00
1.168572425842285156e+00,-1.583664855957031250e+02,4.546323013305664062e+01,4.546323013305664062e+01,7.513207674492150545e-05,-2.838134532794356346e-03,0.000000000000000000e+00,1.487502210295588156e-08,6.909263561283296440e-08,9.606869425624608994e-04,-4.121285712699318537e-08,1.359756538477085996e-06,2.943491749465465546e-02,3.334445864311419427e-05,-8.291841368190944195e-06,-3.916771351697434511e-10,0.000000000000000000e+00,-3.760669787880033255e-04,1.000000000000000000e+00
1.168572425842285156e+00,-1.583664855957031250e+02,4.546323013305664062e+01,4.546323013305664062e+01,7.513207674492150545e-05,-2.838134532794356346e-03,0.000000000000000000e+00,2.350949657170531282e-08,-6.939204411082755541e-08,-1.305102050537243485e-04,1.150520105852592678e-07,-1.845270389821962453e-06,-1.453990302979946136e-02,-3.796584496740251780e-05,-1.272222925763344392e-05,3.998470443633550531e-09,0.000000000000000000e+00,-3.760669787880033255e-04,1.000000000000000000e+00
1.243620872497558594e+00,-1.583664855957031250e+02,4.546323013305664062e+01,4.546323013305664062e+01,7.513207674492150545e-05,-2.838134532794356346e-03,0.000000000000000000e+00,2.350949657170531282e-08,-6.939204411082755541e-08,-1.305102050537243485e-04,1.150520105852592678e-07,-1.845270389821962453e-06,-1.453990302979946136e-02,-3.796584496740251780e-05,-1.272222925763344392e-05,3.998470443633550531e-09,0.000000000000000000e+00,-3.760669787880033255e-04,1.000000000000000000e+00
1.243620872497558594e+00,-1.583664855957031250e+02,4.546323013305664062e+01,4.546323013305664062e+01,7.513207674492150545e-05,-2.838134532794356346e-03,0.000000000000000000e+00,2.350949657170531282e-08,-6.939204411082755541e-08,-1.305102050537243485e-04,1.150520105852592678e-07,-1.845270389821962453e-06,-1.453990302979946136e-02,-3.796584496740251780e-05,-1.272222925763344392e-05,3.998470443633550531e-09,0.000000000000000000e+00,-3.760669787880033255e-04,1.000000000000000000e+00
1.243620872497558594e+00,-1.583664855957031250e+02,4.546323013305664062e+01,4.546323013305664062e+01,7.513207674492150545e-05,-2.838134532794356346e-03,0.000000000000000000e+00,2.350949657170531282e-08,-6.939204411082755541e-08,-1.305102050537243485e-04,1.150520105852592678e-07,-1.845270389821962453e-06,-1.453990302979946136e-02,-3.796584496740251780e-05,-1.272222925763344392e-05,3.998470443633550531e-09,0.000000000000000000e+00,-3.760669787880033255e-04,1.000000000000000000e+00
1.312042951583862305e+00,-1.583664855957031250e+02,4.546323013305664062e+01,4.546323013305664062e+01,7.513207674492150545e-05,-2.838134532794356346e-03,0.000000000000000000e+00,-2.763298567742822343e-08,5.684764659008578747e-08,-4.127359716221690178e-04,-7.474558287867694162e-07,1.845013912316062488e-06,-4.124776460230350494e-03,2.816516462189611048e-05,1.487512872699880973e-05,-2.966405121540560685e-09,0.000000000000000000e+00,-3.760669787880033255e-04,1.000000000000000000e+00
1.312042951583862305e+00,-1.583664855957031250e+02,4.546323013305664062e+01,4.546323013305664062e+01,7.513207674492150545e-05,-2.838134532794356346e-03,0.000000000000000000e+00,-2.763298567742822343e-08,5.684764659008578747e-08,-4.127359716221690178e-04,-7.474558287867694162e-07,1.845013912316062488e-06,-4.124776460230350494e-03,2.816516462189611048e-05,1.487512872699880973e-05,-2.966405121540560685e-09,0.000000000000000000e+00,-3.760669787880033255e-04,1.000000000000000000e+00
1.312042951583862305e+00,-1.583664855957031250e+02,4.546323013305664062e+01,4.546323013305664062e+01,7.513207674492150545e-05,-2.838134532794356346e-03,0.000000000000000000e+00,-4.877793724489265514e-09,1.431773366533661829e-08,6.265259580686688423e-04,3.201060678748035571e-07,-5.982847142149694264e-07,1.461969967931509018e-02,9.887017768051009625e-06,2.501298013157793321e-06,-1.948033956367112296e-10,0.000000000000000000e+00,-3.760669787880033255e-04,1.000000000000000000e+00
1.383129358291625977e+00,-1.583664855957031250e+02,4.546323013305664062e+01,4.546323013305664062e+01,7.513207674492150545e-05,-2.838134532794356346e-03,0.000000000000000000e+00,-4.877793724489265514e-09,1.431773366533661829e-08,6.265259580686688423e-04,3.201060678748035571e-07,-5.982847142149694264e-07,1.461969967931509018e-02,9.887017768051009625e-06,2.501298013157793321e-06,-1.948033956367112296e-10,0.000000000000000000e+00,-3.760669787880033255e-04,1.000000000000000000e+00
1.383129358291625977e+00,-1.583664855957031250e+02,4.546323013305664062e+01,4.546323013305664062e+01,7.513207674492150545e-05,-2.838134532794356346e-03,0.000000000000000000e+00,-4.877793724489265514e-09,1.431773366533661829e-08,6.265259580686688423e-04,3.201060678748035571e-07,-5.982847142149694264e-07,1.461969967931509018e-02,9.887017768051009625e-06,2.501298013157793321e-06,-1.948033956367112296e-10,0.000000000000000000e+00,-3.760669787880033255e-04,1.000000000000000000e+00
1.450951814651489258e+00,-1.583664855957031250e+02,4.546323013305664062e+01,4.546323013305664062e+01,7.513207674492150545e-05,-2.838134532794356346e-03,0.000000000000000000e+00,1.658949955185562430e-08,-2.318071778972807806e-08,-2.608119102660566568e-04,3.165219197853730293e-07,-5.528913789021316916e-07,-1.308324560523033142e-02,-2.503748874005395919e-05,-9.741959729581139982e-06,5.648232992427892896e-09,0.000000000000000000e+00,-3.760669787880033255e-04,1.000000000000000000e+00
1.450951814651489258e+00,-1.583664855957031250e+02,4.546323013305664062e+01,4.546323013305664062e+01,7.513207674492150545e-05,-2.838134532794356346e-03,0.000000000000000000e+00,1.658949955185562430e-08,-2.318071778972807806e-08,-2.608119102660566568e-04,3.165219197853730293e-07,-5.528913789021316916e-07,-1.308324560523033142e-02,-2.503748874005395919e-05,-9.741959729581139982e-06,5.648232992427892896e-09,0.000000000000000000e+00,-3.760669787880033255e-04,1.000000000000000000e+00
1.450951814651489258e+00,-1.583664855957031250e+02,4.546323013305664062e+01,4.546323013305664062e+01,7.513207674492150545e-05,-2.838134532794356346e-03,0.000000000000000000e+00,1.658949955185562430e-08,-2.318071778972807806e-08,-2.608119102660566568e-04,3.165219197853730293e-07,-5.528913789021316916e-07,-1.308324560523033142e-02,-2.503748874005395919e-05,-9.741959729581139982e-06,5.648232992427892896e-09,0.000000000000000000e+00,-3.760669787880033255e-04,1.000000000000000000e+00
1.527701377868652344e+00,-1.583664855957031250e+02,4.546323013305664062e+01,4.546323013305664062e+01,7.513207674492150545e-05,-2.838134532794356346e-03,0.000000000000000000e+00,1.563114793157183158e-08,9.441858139780379133e-08,1.908615522552281618e-04,-1.248673697773483582e-08,1.532247210889181588e-06,5.885029677301645279e-03,3.772917261812835932e-05,-9.273826435673981905e-06,1.920974934677133206e-09,0.000000000000000000e+00,-3.760669787880033255e-04,1.000000000000000000e+00
1.527701377868652344e+00,-1.583664855957031250e+02,4.546323013305664062e+01,4.546323013305664062e+01,7.513207674492150545e-05,-2.838134532794356346e-03,0.000000000000000000e+00,1.563114793157183158e-08,9.441858139780379133e-08,1.908615522552281618e-04,-1.248673697773483582e-08,1.532247210889181588e-06,5.885029677301645279e-03,3.772917261812835932e-05,-9.273826435673981905e-06,1.920974934677133206e-09,0.000000000000000000e+00,-3.760669787880033255e-04,1.000000000000000000e+00
1.527701377868652344e+00,-1.583664855957031250e+02,4.546323013305664062e+01,4.546323013305664062e+01,7.513207674492150545e-05,-2.838134532794356346e-03,0.000000000000000000e+00,1.563114793157183158e-08,9.441858139780379133e-08,1.908615522552281618e-04,-1.248673697773483582e-08,1.532247210889181588e-06,5.885029677301645279e-03,3.772917261812835932e-05,-9.273826435673981905e-06,1.920974934677133206e-09,0.000000000000000000e+00,-3.760669787880033255e-04,1.000000000000000000e+00
1.600134611129760742e+00,-1.583664855957031250e+02,4.546323013305664062e+01,4.546323013305664062e+01,7.513207674492150545e-05,-2.838134532794356346e-03,0.000000000000000000e+00,-2.951156297115176130e-08,5.326134910887958540e-08,-1.173430471681058407e-03,-6.232320401977631263e-07,-5.682092591996479314e-07,-1.883516646921634674e-02,3.758224193006753922e-05,1.636586057429667562e-05,-5.818382220468265587e-09,0.000000000000000000e+00,-3.760669787880033255e-04,1.000000000000000000e+00
1.600134611129760742e+00,-1.583664855957031250e+02,4.546323013305664062e+01,4.546323013305664062e+01,7.513207674492150545e-05,-2.838134532794356346e-03,0.000000000000000000e+00,-2.951156297115176130e-08,5.326134910887958540e-08,-1.173430471681058407e-03,-6.232320401977631263e-07,-5.682092591996479314e-07,-1.883516646921634674e-02,3.758224193006753922e-05,1.636586057429667562e-05,-5.818382220468265587e-09,0.000000000000000000e+00,-3.760669787880033255e-04,1.000000000000000000e+00
1.600134611129760742e+00,-1.583664855957031250e+02,4.546323013305664062e+01,4.546323013305664062e+01,7.513207674492150545e-05,-2.838134532794356346e-03,0.000000000000000000e+00,-2.951156297115176130e-08,5.326134910887958540e-08,-1.173430471681058407e-03,-6.232320401977631263e-07,-5.682092591996479314e-07,-1.883516646921634674e-02,3.758224193006753922e-05,1.636586057429667562e-05,-5.818382220468265587e-09,0.000000000000000000e+00,-3.760669787880033255e-04,1.000000000000000000e+00
1.600134611129760742e+00,-1.583664855957031250e+02,4.546323013305664062e+01,4.546323013305664062e+01,7.513207674492150545e-05,-2.838134532794356346e-03,0.000000000000000000e+00,-2.951156297115176130e-08,5.326134910887958540e-08,-1.173430471681058407e-03,-6.232320401977631263e-07,-5.682092591996479314e-07,-1.883516646921634674e-02,3.758224193006753922e-05,1.636586057429667562e-05,-5.818382220468265587e-09,0.000000000000000000e+00,-3.760669787880033255e-04,1.000000000000000000e+00
1.600134611129760742e+00,-1.583664855957031250e+02,4.546323013305664062e+01,4.546323013305664062e+01,7.513207674492150545e-05,-2.838134532794356346e-03,0.000000000000000000e+00,-2.951156297115176130e-08,5.326134910887958540e-08,-1.173430471681058407e-03,-6.232320401977631263e-07,-5.682092591996479314e-07,-1.883516646921634674e-02,3.758224193006753922e-05,1.636586057429667562e-05,-5.818382220468265587e-09,0.000000000000000000e+00,-3.760669787880033255e-04,1.000000000000000000e+00
1.600134611129760742e+00,-1.583664855957031250e+02,4.546323013305664062e+01,4.546323013305664062e+01,7.513207674492150545e-05,-2.838134532794356346e-03,0.000000000000000000e+00,1.195310295187823613e-09,-2.554247258146347122e-09,3.600552736315876245e-05,2.661394944425410358e-07,-4.837593223783187568e-07,1.048230100423097610e-02,-1.082337689695123117e-06,-6.280715751927345991e-07,7.772373716852243319e-11,0.000000000000000000e+00,-3.760669787880033255e-04,1.000000000000000000e+00
1.715513467788696289e+00,-1.583664855957031250e+02,4.546323013305664062e+01,4.546323013305664062e+01,7.513207674492150545e-05,-2.838134532794356346e-03,0.000000000000000000e+00,1.195310295187823613e-09,-2.554247258146347122e-09,3.600552736315876245e-05,2.661394944425410358e-07,-4.837593223783187568e-07,1.048230100423097610e-02,-1.082337689695123117e-06,-6.280715751927345991e-07,7.772373716852243319e-11,0.000000000000000000e+00,-3.760669787880033255e-04,1.000000000000000000e+00
1.715513467788696289e+00,-1.583664855957031250e+02,4.546323013305664062e+01,4.546323013305664062e+01,7.513207674492150545e-05,-2.838134532794356346e-03,0.000000000000000000e+00,1.195310295187823613e-09,-2.554247258146347122e-09,3.600552736315876245e-05,2.661394944425410358e-07,-4.837593223783187568e-07,1.048230100423097610e-02,-1.082337689695123117e-06,-6.280715751927345991e-07,7.772373716852243319e-11,0.000000000000000000e+00,-3.760669787880033255e-04,1.000000000000000000e+00
1.715513467788696289e+00,-1.583664855957031250e+02,4.546323013305664062e+01,4.546323013305664062e+01,7.513207674492150545e-05,-2.838134532794356346e-03,0.000000000000000000e+00,1.195310295187823613e-09,-2.554247258146347122e-09,3.600552736315876245e-05,2.661394944425410358e-07,-4.837593223783187568e-07,1.048230100423097610e-02,-1.082337689695123117e-06,-6.280715751927345991e-07,7.772373716852243319e-11,0.000000000000000000e+00,-3.760669787880033255e-04,1.000000000000000000e+00
1.813115119934082031e+00,-1.583664855957031250e+02,4.546323013305664062e+01,4.546323013305664062e+01,7.513207674492150545e-05,-2.838134532794356346e-03,0.000000000000000000e+00,4.696777189394651941e-09,-1.994992393505867767e-09,-9.826357709243893623e-04,3.587507890756569395e-08,5.729973384660524971e-09,-1.043672207742929459e-02,-6.347962425934383646e-06,-2.980922090500826016e-06,1.796687909561001106e-09,0.000000000000000000e+00,-3.760669787880033255e-04,1.000000000000000000e+00
1.813115119934082031e+00,-1.583664855957031250e+02,4.546323013305664062e+01,4.546323013305664062e+01,7.513207674492150545e-05,-2.838134532794356346e-03,0.000000000000000000e+00,4.696777189394651941e-09,-1.994992393505867767e-09,-9.826357709243893623e-04,3.587507890756569395e-08,5.729973384660524971e-09,-1.043672207742929459e-02,-6.347962425934383646e-06,-2.980922090500826016e-06,1.796687909561001106e-09,0.000000000000000000e+00,-3.760669787880033255e-04,1.000000000000000000e+00
1.813115119934082031e+00,-1.583664855957031250e+02,4.546323013305664062e+01,4.546323013305664062e+01,7.513207674492150545e-05,-2.838134532794356346e-03,0.000000000000000000e+00,4.696777189394651941e-09,-1.994992393505867767e-09,-9.826357709243893623e-04,3.587507890756569395e-08,5.729973384660524971e-09,-1.043672207742929459e-02,-6.347962425934383646e-06,-2.980922090500826016e-06,1.796687909561001106e-09,0.000000000000000000e+00,-3.760669787880033255e-04,1.000000000000000000e+00
1.813115119934082031e+00,-1.583664855957031250e+02,4.546323013305664062e+01,4.546323013305664062e+01,7.513207674492150545e-05,-2.838134532794356346e-03,0.000000000000000000e+00,4.696777189394651941e-09,-1.994992393505867767e-09,-9.826357709243893623e-04,3.587507890756569395e-08,5.729973384660524971e-09,-1.043672207742929459e-02,-6.347962425934383646e-06,-2.980922090500826016e-06,1.796687909561001106e-09,0.000000000000000000e+00,-3.760669787880033255e-04,1.000000000000000000e+00
1.896134853363037109e+00,-1.583664855957031250e+02,4.546323013305664062e+01,4.546323013305664062e+01,7.513207674492150545e-05,-2.838134532794356346e-03,0.000000000000000000e+00,8.612647484085300675e-09,-2.296366297116492206e-08,2.208541118307039142e-04,4.716794776982169424e-08,-2.525745230741449632e-07,1.449643075466156006e-02,-9.001651960716117173e-06,-4.456914666661759838e-06,7.316763861453523532e-11,0.000000000000000000e+00,-3.760669787880033255e-04,1.000000000000000000e+00
1.896134853363037109e+00,-1.583664855957031250e+02,4.546323013305664062e+01,4.546323013305664062e+01,7.513207674492150545e-05,-2.838134532794356346e-03,0.000000000000000000e+00,8.612647484085300675e-09,-2.296366297116492206e-08,2.208541118307039142e-04,4.716794776982169424e-08,-2.525745230741449632e-07,1.449643075466156006e-02,-9.001651960716117173e-06,-4.456914666661759838e-06,7.316763861453523532e-11,0.000000000000000000e+00,-3.760669787880033255e-04,1.000000000000000000e+00
1.896134853363037109e+00,-1.583664855957031250e+02,4.546323013305664062e+01,4.546323013305664062e+01,7.513207674492150545e-05,-2.838134532794356346e-03,0.000000000000000000e+00,8.612647484085300675e-09,-2.296366297116492206e-08,2.208541118307039142e-04,4.716794776982169424e-08,-2.525745230741449632e-07,1.449643075466156006e-02,-9.001651960716117173e-06,-4.456914666661759838e-06,7.316763861453523532e-11,0.000000000000000000e+00,-3.760669787880033255e-04,1.000000000000000000e+00
1.896134853363037109e+00,-1.583664855957031250e+02,4.546323013305664062e+01,4.546323013305664062e+01,7.513207674492150545e-05,-2.838134532794356346e-03,0.000000000000000000e+00,8.612647484085300675e-09,-2.296366297116492206e-08,2.208541118307039142e-04,4.716794776982169424e-08,-2.525745230741449632e-07,1.449643075466156006e-02,-9.001651960716117173e-06,-4.456914666661759838e-06,7.316763861453523532e-11,0.000000000000000000e+00,-3.760669787880033255e-04,1.000000000000000000e+00
1.896134853363037109e+00,-1.583664855957031250e+02,4.546323013305664062e+01,4.546323013305664062e+01,7.513207674492150545e-05,-2.838134532794356346e-03,0.000000000000000000e+00,8.612647484085300675e-09,-2.296366297116492206e-08,2.208541118307039142e-04,4.716794776982169424e-08,-2.525745230741449632e-07,1.449643075466156006e-02,-9.001651960716117173e-06,-4.456914666661759838e-06,7.316763861453523532e-11,0.000000000000000000e+00,-3.760669787880033255e-04,1.000000000000000000e+00
1.896134853363037109e+00,-1.583664855957031250e+02,4.546323013305664062e+01,4.546323013305664062e+01,7.513207674492150545e-05,-2.838134532794356346e-03,0.000000000000000000e+00,8.612647484085300675e-09,-2.296366297116492206e-08,2.208541118307039142e-04,4.716794776982169424e-08,-2.525745230741449632e-07,1.449643075466156006e-02,-9.001651960716117173e-06,-4.456914666661759838e-06,7.316763861453523532e-11,0.000000000000000000e+00,-3.760669787880033255e-04,1.000000000000000000e+00
1.896134853363037109e+00,-1.583664855957031250e+02,4.546323013305664062e+01,4.546323013305664062e+01,7.513207674492150545e-05,-2.838134532794356346e-03,0.000000000000000000e+00,8.612647484085300675e-09,-2.296366297116492206e-08,2.208541118307039142e-04,4.716794776982169424e-08,-2.525745230741449632e-07,1.449643075466156006e-02,-9.001651960716117173e-06,-4.456914666661759838e-06,7.316763861453523532e-11,0.000000000000000000e+00,-3.760669787880033255e-04,1.000000000000000000e+00
2.195794820785522461e+00,-1.583664855957031250e+02,4.546323013305664062e+01,4.546323013305664062e+01,7.513207674492150545e-05,-2.838134532794356346e-03,0.000000000000000000e+00,2.524993769625893947e-09,1.830328955065851915e-08,5.702139460481703281e-04,7.543834499301738106e-07,8.626734029348881450e-07,7.197451312094926834e-03,1.812739537854213268e-05,-7.237198360598995350e-07,-3.377210511246175884e-09,0.000000000000000000e+00,-3.760669787880033255e-04,1.000000000000000000e+00
2.195794820785522461e+00,-1.583664855957031250e+02,4.546323013305664062e+01,4.546323013305664062e+01,7.513207674492150545e-05,-2.838134532794356346e-03,0.000000000000000000e+00,2.524993769625893947e-09,1.830328955065851915e-08,5.702139460481703281e-04,7.543834499301738106e-07,8.626734029348881450e-07,7.197451312094926834e-03,1.812739537854213268e-05,-7.237198360598995350e-07,-3.377210511246175884e-09,0.000000000000000000e+00,-3.760669787880033255e-04,1.000000000000000000e+00
2.195794820785522461e+00,-1.583664855957031250e+02,4.546323013305664062e+01,4.546323013305664062e+01,7.513207674492150545e-05,-2.838134532794356346e-03,0.000000000000000000e+00,2.524993769625893947e-09,1.830328955065851915e-08,5.702139460481703281e-04,7.543834499301738106e-07,8.626734029348881450e-07,7.197451312094926834e-03,1.812739537854213268e-05,-7.237198360598995350e-07,-3.377210511246175884e-09,0.000000000000000000e+00,-3.760669787880033255e-04,1.000000000000000000e+00
2.195794820785522461e+00,-1.583664855957031250e+02,4.546323013305664062e+01,4.546323013305664062e+01,7.513207674492150545e-05,-2.838134532794356346e-03,0.000000000000000000e+00,2.524993769625893947e-09,1.830328955065851915e-08,5.702139460481703281e-04,7.543834499301738106e-07,8.626734029348881450e-07,7.197451312094926834e-03,1.812739537854213268e-05,-7.237198360598995350e-07,-3.377210511246175884e-09,0.000000000000000000e+00,-3.760669787880033255e-04,1.000000000000000000e+00
2.195794820785522461e+00,-1.583664855957031250e+02,4.546323013305664062e+01,4.546323013305664062e+01,7.513207674492150545e-05,-2.838134532794356346e-03,0.000000000000000000e+00,2.524993769625893947e-09,1.830328955065851915e-08,5.702139460481703281e-04,7.543834499301738106e-07,8.626734029348881450e-07,7.197451312094926834e-03,1.812739537854213268e-05,-7.237198360598995350e-07,-3.377210511246175884e-09,0.000000000000000000e+00,-3.760669787880033255e-04,1.000000000000000000e+00
2.195794820785522461e+00,-1.583664855957031250e+02,4.546323013305664062e+01,4.546323013305664062e+01,7.513207674492150545e-05,-2.838134532794356346e-03,0.000000000000000000e+00,2.524993769625893947e-09,1.830328955065851915e-08,5.702139460481703281e-04,7.543834499301738106e-07,8.626734029348881450e-07,7.197451312094926834e-03,1.812739537854213268e-05,-7.237198360598995350e-07,-3.377210511246175884e-09,0.000000000000000000e+00,-3.760669787880033255e-04,1.000000000000000000e+00
2.195794820785522461e+00,-1.583664855957031250e+02,4.546323013305664062e+01,4.546323013305664062e+01,7.513207674492150545e-05,-2.838134532794356346e-03,0.000000000000000000e+00,2.524993769625893947e-09,1.830328955065851915e-08,5.702139460481703281e-04,7.543834499301738106e-07,8.626734029348881450e-07,7.197451312094926834e-03,1.812739537854213268e-05,-7.237198360598995350e-07,-3.377210511246175884e-09,0.000000000000000000e+00,-3.760669787880033255e-04,1.000000000000000000e+00
2.195794820785522461e+00,-1.583664855957031250e+02,4.546323013305664062e+01,4.546323013305664062e+01,7.513207674492150545e-05,-2.838134532794356346e-03,0.000000000000000000e+00,2.524993769625893947e-09,1.830328955065851915e-08,5.702139460481703281e-04,7.543834499301738106e-07,8.626734029348881450e-07,7.197451312094926834e-03,1.812739537854213268e-05,-7.237198360598995350e-07,-3.377210511246175884e-09,0.000000000000000000e+00,-3.760669787880033255e-04,1.000000000000000000e+00
2.195794820785522461e+00,-1.583664855957031250e+02,4.546323013305664062e+01,4.546323013305664062e+01,7.513207674492150545e-05,-2.838134532794356346e-03,0.000000000000000000e+00,2.524993769625893947e-09,1.830328955065851915e-08,5.702139460481703281e-04,7.543834499301738106e-07,8.626734029348881450e-07,7.197451312094926834e-03,1.812739537854213268e-05,-7.237198360598995350e-07,-3.377210511246175884e-09,0.000000000000000000e+00,-3.760669787880033255e-04,1.000000000000000000e+00
2.195794820785522461e+00,-1.583664855957031250e+02,4.546323013305664062e+01,4.546323013305664062e+01,7.513207674492150545e-05,-2.838134532794356346e-03,0.000000000000000000e+00,2.524993769625893947e-09,1.830328955065851915e-08,5.702139460481703281e-04,7.543834499301738106e-07,8.626734029348881450e-07,7.197451312094926834e-03,1.812739537854213268e-05,-7.237198360598995350e-07,-3.377210511246175884e-09,0.000000000000000000e+00,-3.760669787880033255e-04,1.000000000000000000e+00
2.374083757400512695e+00,-1.583664855957031250e+02,4.546323013305664062e+01,4.546323013305664062e+01,7.513207674492150545e-05,-2.838134532794356346e-03,0.000000000000000000e+00,-2.793194564532086588e-10,-3.259581715653325773e-09,1.601283205673098564e-03,-1.572903585156382178e-08,-1.209433975191132049e-07,5.783136934041976929e-03,-8.950743790592241567e-07,1.925278780845474103e-07,-7.169587146194089655e-10,0.000000000000000000e+00,-3.760669787880033255e-04,1.000000000000000000e+00
2.374083757400512695e+00,-1.583664855957031250e+02,4.546323013305664062e+01,4.546323013305664062e+01,7.513207674492150545e-05,-2.838134532794356346e-03,0.000000000000000000e+00,-2.793194564532086588e-10,-3.259581715653325773e-09,1.601283205673098564e-03,-1.572903585156382178e-08,-1.209433975191132049e-07,5.783136934041976929e-03,-8.950743790592241567e-07,1.925278780845474103e-07,-7.169587146194089655e-10,0.000000000000000000e+00,-3.760669787880033255e-04,1.000000000000000000e+00
2.374083757400512695e+00,-1.583664855957031250e+02,4.546323013305664062e+01,4.546323013305664062e+01,7.513207674492150545e-05,-2.838134532794356346e-03,0.000000000000000000e+00,-2.793194564532086588e-10,-3.259581715653325773e-09,1.601283205673098564e-03,-1.572903585156382178e-08,-1.209433975191132049e-07,5.783136934041976929e-03,-8.950743790592241567e-07,1.925278780845474103e-07,-7.169587146194089655e-10,0.000000000000000000e+00,-3.760669787880033255e-04,1.000000000000000000e+00
2.447860002517700195e+00,-1.583664855957031250e+02,4.546323013305664062e+01,4.546323013305664062e+01,7.513207674492150545e-05,-2.838134532794356346e-03,0.000000000000000000e+00,-1.472812982683535665e-09,-9.746528029097589751e-09,-9.558419696986675262e-04,-1.617720712943082617e-08,-8.792730454842967447e-08,-3.466054797172546387e-02,3.705099800299649360e-07,1.280405513170990162e-06,-7.746300267896799596e-10,0.000000000000000000e+00,-3.760669787880033255e-04,1.000000000000000000e+00
2.447860002517700195e+00,-1.583664855957031250e+02,4.546323013305664062e+01,4.546323013305664062e+01,7.513207674492150545e-05,-2.838134532794356346e-03,0.000000000000000000e+00,-1.472812982683535665e-09,-9.746528029097589751e-09,-9.558419696986675262e-04,-1.617720712943082617e-08,-8.792730454842967447e-08,-3.466054797172546387e-02,3.705099800299649360e-07,1.280405513170990162e-06,-7.746300267896799596e-10,0.000000000000000000e+00,-3.760669787880033255e-04,1.000000000000000000e+00
2.500878810882568359e+00,-1.583664855957031250e+02,4.546323013305664062e+01,4.546323013305664062e+01,7.513207674492150545e-05,-2.838134532794356346e-03,0.000000000000000000e+00,1.890051848363327736e-08,-1.600127497169978597e-08,1.323990989476442337e-03,3.842661158159899060e-07,-1.179722275423955580e-07,4.300045594573020935e-02,-1.612950654816813767e-05,-1.033845364872831851e-05,2.680160759993555075e-09,0.000000000000000000e+00,-3.760669787880033255e-04,1.000000000000000000e+00
2.500878810882568359e+00,-1.583664855957031250e+02,4.546323013305664062e+01,4.546323013305664062e+01,7.513207674492150545e-05,-2.838134532794356346e-03,0.000000000000000000e+00,1.890051848363327736e-08,-1.600127497169978597e-08,1.323990989476442337e-03,3.842661158159899060e-07,-1.179722275423955580e-07,4.300045594573020935e-02,-1.612950654816813767e-05,-1.033845364872831851e-05,2.680160759993555075e-09,0.000000000000000000e+00,-3.760669787880033255e-04,1.000000000000000000e+00
2.500878810882568359e+00,-1.583664855957031250e+02,4.546323013305664062e+01,4.546323013305664062e+01,7.513207674492150545e-05,-2.838134532794356346e-03,0.000000000000000000e+00,1.890051848363327736e-08,-1.600127497169978597e-08,1.323990989476442337e-03,3.842661158159899060e-07,-1.179722275423955580e-07,4.300045594573020935e-02,-1.612950654816813767e-05,-1.033845364872831851e-05,2.680160759993555075e-09,0.000000000000000000e+00,-3.760669787880033255e-04,1.000000000000000000e+00
2.560195446014404297e+00,-1.583664855957031250e+02,4.546323013305664062e+01,4.546323013305664062e+01,7.513207674492150545e-05,-2.838134532794356346e-03,0.000000000000000000e+00,-3.945037629904390997e-09,3.354973898694879608e-08,2.020034007728099823e-03,-3.851458529879892012e-07,8.353645171155221760e-07,1.173436455428600311e-02,2.254243190691340715e-05,2.656916876730974764e-06,-2.925766295902576530e-09,0.000000000000000000e+00,-3.760669787880033255e-04,1.000000000000000000e+00
2.560195446014404297e+00,-1.583664855957031250e+02,4.546323013305664062e+01,4.546323013305664062e+01,7.513207674492150545e-05,-2.838134532794356346e-03,0.000000000000000000e+00,-3.945037629904390997e-09,3.354973898694879608e-08,2.020034007728099823e-03,-3.851458529879892012e-07,8.353645171155221760e-07,1.173436455428600311e-02,2.254243190691340715e-05,2.656916876730974764e-06,-2.925766295902576530e-09,0.000000000000000000e+00,-3.760669787880033255e-04,1.000000000000000000e+00
2.560195446014404297e+00,-1.583664855957031250e+02,4.546323013305664062e+01,4.546323013305664062e+01,7.513207674492150545e-05,-2.838134532794356346e-03,0.000000000000000000e+00,-6.392557150292077495e-09,5.874230524227641581e-08,-2.595897822175174952e-04,-4.181285362392372917e-08,4.303839205022086389e-07,-3.894456475973129272e-02,2.413011861790437251e-05,3.326645810375339352e-06,-1.389138359897401642e-09,0.000000000000000000e+00,-3.760669787880033255e-04,1.000000000000000000e+00
2.618730545043945312e+00,-1.583664855957031250e+02,4.546323013305664062e+01,4.546323013305664062e+01,7.513207674492150545e-05,-2.838134532794356346e-03,0.000000000000000000e+00,-6.392557150292077495e-09,5.874230524227641581e-08,-2.595897822175174952e-04,-4.181285362392372917e-08,4.303839205022086389e-07,-3.894456475973129272e-02,2.413011861790437251e-05,3.326645810375339352e-06,-1.389138359897401642e-09,0.000000000000000000e+00,-3.760669787880033255e-04,1.000000000000000000e+00
2.618730545043945312e+00,-1.583664855957031250e+02,4.546323013305664062e+01,4.546323013305664062e+01,7.513207674492150545e-05,-2.838134532794356346e-03,0.000000000000000000e+00,-4.279900045478512993e-10,-2.493161410654920473e-08,1.322552634519524872e-05,1.017782977896786178e-07,-1.427796632924582809e-06,4.655271302908658981e-03,1.233661464539181907e-06,7.980212899383332115e-07,-3.169331463936941873e-09,0.000000000000000000e+00,-3.760669787880033255e-04,1.000000000000000000e+00
2.677334070205688477e+00,-1.583664855957031250e+02,4.546323013305664062e+01,4.546323013305664062e+01,7.513207674492150545e-05,-2.838134532794356346e-03,0.000000000000000000e+00,-4.279900045478512993e-10,-2.493161410654920473e-08,1.322552634519524872e-05,1.017782977896786178e-07,-1.427796632924582809e-06,4.655271302908658981e-03,1.233661464539181907e-06,7.980212899383332115e-07,-3.169331463936941873e-09,0.000000000000000000e+00,-3.760669787880033255e-04,1.000000000000000000e+00
2.677334070205688477e+00,-1.583664855957031250e+02,4.546323013305664062e+01,4.546323013305664062e+01,7.513207674492150545e-05,-2.838134532794356346e-03,0.000000000000000000e+00,-4.279900045478512993e-10,-2.493161410654920473e-08,1.322552634519524872e-05,1.017782977896786178e-07,-1.427796632924582809e-06,4.655271302908658981e-03,1.233661464539181907e-06,7.980212899383332115e-07,-3.169331463936941873e-09,0.000000000000000000e+00,-3.760669787880033255e-04,1.000000000000000000e+00
2.677334070205688477e+00,-1.583664855957031250e+02,4.546323013305664062e+01,4.546323013305664062e+01,7.513207674492150545e-05,-2.838134532794356346e-03,0.000000000000000000e+00,-4.279900045478512993e-10,-2.493161410654920473e-08,1.322552634519524872e-05,1.017782977896786178e-07,-1.427796632924582809e-06,4.655271302908658981e-03,1.233661464539181907e-06,7.980212899383332115e-07,-3.169331463936941873e-09,0.000000000000000000e+00,-3.760669787880033255e-04,1.000000000000000000e+00
2.755024909973144531e+00,-1.583664855957031250e+02,4.546323013305664062e+01,4.546323013305664062e+01,7.513207674492150545e-05,-2.838134532794356346e-03,0.000000000000000000e+00,1.873133825824879750e-08,5.591654073100471578e-08,1.621008749452812481e-07,2.466098862896615174e-07,1.040639517668751068e-06,-1.681462745182216167e-04,2.316200152563396841e-05,-1.080890251614619046e-05,1.521641701529574675e-09,0.000000000000000000e+00,-3.760669787880033255e-04,1.000000000000000000e+00
2.755024909973144531e+00,-1.583664855957031250e+02,4.546323013305664062e+01,4.546323013305664062e+01,7.513207674492150545e-05,-2.838134532794356346e-03,0.000000000000000000e+00,1.873133825824879750e-08,5.591654073100471578e-08,1.621008749452812481e-07,2.466098862896615174e-07,1.040639517668751068e-06,-1.681462745182216167e-04,2.316200152563396841e-05,-1.080890251614619046e-05,1.521641701529574675e-09,0.000000000000000000e+00,-3.760669787880033255e-04,1.000000000000000000e+00
2.755024909973144531e+00,-1.583664855957031250e+02,4.546323013305664062e+01,4.546323013305664062e+01,7.513207674492150545e-05,-2.838134532794356346e-03,0.000000000000000000e+00,1.873133825824879750e-08,5.591654073100471578e-08,1.621008749452812481e-07,2.466098862896615174e-07,1.040639517668751068e-06,-1.681462745182216167e-04,2.316200152563396841e-05,-1.080890251614619046e-05,1.521641701529574675e-09,0.000000000000000000e+00,-3.760669787880033255e-04,1.000000000000000000e+00
2.830169916152954102e+00,-1.583664855957031250e+02,4.546323013305664062e+01,4.546323013305664062e+01,7.513207674492150545e-05,-2.838134532794356346e-03,0.000000000000000000e+00,-5.527099222746301166e-09,4.694091781942688613e-09,-5.534646916203200817e-04,-3.228216769457503688e-07,-6.816480890847742558e-07,-7.367446087300777435e-03,6.722082162013975903e-06,2.841830337274586782e-06,-6.215921666274937252e-10,0.000000000000000000e+00,-3.760669787880033255e-04,1.000000000000000000e+00
2.830169916152954102e+00,-1.583664855957031250e+02,4.546323013305664062e+01,4.546323013305664062e+01,7.513207674492150545e-05,-2.838134532794356346e-03,0.000000000000000000e+00,-5.527099222746301166e-09,4.694091781942688613e-09,-5.534646916203200817e-04,-3.228216769457503688e-07,-6.816480890847742558e-07,-7.367446087300777435e-03,6.722082162013975903e-06,2.841830337274586782e-06,-6.215921666274937252e-10,0.000000000000000000e+00,-3.760669787880033255e-04,1.000000000000000000e+00
2.830169916152954102e+00,-1.583664855957031250e+02,4.546323013305664062e+01,4.546323013305664062e+01,7.513207674492150545e-05,-2.838134532794356346e-03,0.000000000000000000e+00,-5.527099222746301166e-09,4.694091781942688613e-09,-5.534646916203200817e-04,-3.228216769457503688e-07,-6.816480890847742558e-07,-7.367446087300777435e-03,6.722082162013975903e-06,2.841830337274586782e-06,-6.215921666274937252e-10,0.000000000000000000e+00,-3.760669787880033255e-04,1.000000000000000000e+00
2.830169916152954102e+00,-1.583664855957031250e+02,4.546323013305664062e+01,4.546323013305664062e+01,7.513207674492150545e-05,-2.838134532794356346e-03,0.000000000000000000e+00,-5.527099222746301166e-09,4.694091781942688613e-09,-5.534646916203200817e-04,-3.228216769457503688e-07,-6.816480890847742558e-07,-7.367446087300777435e-03,6.722082162013975903e-06,2.841830337274586782e-06,-6.215921666274937252e-10,0.000000000000000000e+00,-3.760669787880033255e-04,1.000000000000000000e+00
2.830169916152954102e+00,-1.583664855957031250e+02,4.546323013305664062e+01,4.546323013305664062e+01,7.513207674492150545e-05,-2.838134532794356346e-03,0.000000000000000000e+00,-5.527099222746301166e-09,4.694091781942688613e-09,-5.534646916203200817e-04,-3.228216769457503688e-07,-6.816480890847742558e-07,-7.367446087300777435e-03,6.722082162013975903e-06,2.841830337274586782e-06,-6.215921666274937252e-10,0.000000000000000000e+00,-3.760669787880033255e-04,1.000000000000000000e+00
2.917726278305053711e+00,-1.583664855957031250e+02,4.546323013305664062e+01,4.546323013305664062e+01,7.513207674492150545e-05,-2.838134532794356346e-03,0.000000000000000000e+00,1.656162140761807677e-08,-7.030745052816200769e-08,2.214671112596988678e-04,2.522799888993176864e-07,-8.566087217332096770e-07,8.850662037730216980e-03,-2.803650750138331205e-05,-8.558664376323577017e-06,1.189057852180042119e-09,0.000000000000000000e+00,-3.760669787880033255e-04,1.000000000000000000e+00
