# Time,X,Y,Z,Roll,Pitch,Yaw,Vx,Vy,Vz,Ax,Ay,Az,Wx,Wy,Wz,Throttle,Steer,Brake
0.000000000000000000e+00,5.233509521484375000e+02,1.520746612548828125e+02,1.520746612548828125e+02,4.047569930553436279e-01,2.396115362644195557e-01,-1.141357235610485077e-02,1.475221252441406250e+01,6.131063401699066162e-02,1.058428779288078658e-06,-1.596542149782180786e-01,-5.341662093997001648e-03,-3.555534476618049666e-06,2.463077427819371223e-03,1.580465771257877350e-02,-2.401300147175788879e-02,5.000000000000000000e-01,-1.088557473849505186e-04,0.000000000000000000e+00
1.045818328857421875e-01,5.233509521484375000e+02,1.520746612548828125e+02,1.520746612548828125e+02,4.047569930553436279e-01,2.396115362644195557e-01,-1.141357235610485077e-02,1.475221252441406250e+01,6.131063401699066162e-02,1.058428779288078658e-06,-1.596542149782180786e-01,-5.341662093997001648e-03,-3.555534476618049666e-06,2.463077427819371223e-03,1.580465771257877350e-02,-2.401300147175788879e-02,5.000000000000000000e-01,-1.088557473849505186e-04,0.000000000000000000e+00
1.045818328857421875e-01,5.233509521484375000e+02,1.520746612548828125e+02,1.520746612548828125e+02,4.047569930553436279e-01,2.396115362644195557e-01,-1.141357235610485077e-02,1.475221252441406250e+01,6.131063401699066162e-02,1.058428779288078658e-06,-1.596542149782180786e-01,-5.341662093997001648e-03,-3.555534476618049666e-06,2.463077427819371223e-03,1.580465771257877350e-02,-2.401300147175788879e-02,5.000000000000000000e-01,-1.088557473849505186e-04,0.000000000000000000e+00
1.045818328857421875e-01,5.233509521484375000e+02,1.520746612548828125e+02,1.520746612548828125e+02,4.047569930553436279e-01,2.396115362644195557e-01,-1.141357235610485077e-02,1.475221252441406250e+01,6.131063401699066162e-02,1.058428779288078658e-06,-1.596542149782180786e-01,-5.341662093997001648e-03,-3.555534476618049666e-06,2.463077427819371223e-03,1.580465771257877350e-02,-2.401300147175788879e-02,5.000000000000000000e-01,-1.088557473849505186e-04,0.000000000000000000e+00
1.045818328857421875e-01,5.233509521484375000e+02,1.520746612548828125e+02,1.520746612548828125e+02,4.047569930553436279e-01,2.396115362644195557e-01,-1.141357235610485077e-02,1.475221252441406250e+01,6.131063401699066162e-02,1.058428779288078658e-06,-1.596542149782180786e-01,-5.341662093997001648e-03,-3.555534476618049666e-06,2.463077427819371223e-03,1.580465771257877350e-02,-2.401300147175788879e-02,5.000000000000000000e-01,-1.088557473849505186e-04,0.000000000000000000e+00
1.045818328857421875e-01,5.233509521484375000e+02,1.520746612548828125e+02,1.520746612548828125e+02,4.047569930553436279e-01,2.396115362644195557e-01,-1.141357235610485077e-02,1.475221252441406250e+01,6.131063401699066162e-02,1.058428779288078658e-06,-1.596542149782180786e-01,-5.341662093997001648e-03,-3.555534476618049666e-06,2.463077427819371223e-03,1.580465771257877350e-02,-2.401300147175788879e-02,5.000000000000000000e-01,-1.088557473849505186e-04,0.000000000000000000e+00
1.045818328857421875e-01,5.248251342773437500e+02,1.520807647705078125e+02,1.520807647705078125e+02,4.034250974655151367e-01,2.372279018163681030e-01,-1.162719633430242538e-02,1.473311233520507812e+01,6.071824580430984497e-02,1.849819796007068362e-06,-1.824122518301010132e-01,-5.657476373016834259e-03,7.558010111097246408e-06,1.786431646905839443e-03,1.119318325072526932e-02,-2.364205569028854370e-02,5.000000000000000000e-01,-9.586704982211813331e-05,0.000000000000000000e+00
2.092907428741455078e-01,5.248251342773437500e+02,1.520807647705078125e+02,1.520807647705078125e+02,4.034250974655151367e-01,2.372279018163681030e-01,-1.162719633430242538e-02,1.473311233520507812e+01,6.071824580430984497e-02,1.849819796007068362e-06,-1.824122518301010132e-01,-5.657476373016834259e-03,7.558010111097246408e-06,1.786431646905839443e-03,1.119318325072526932e-02,-2.364205569028854370e-02,5.000000000000000000e-01,-9.586704982211813331e-05,0.000000000000000000e+00
2.092907428741455078e-01,5.248251342773437500e+02,1.520807647705078125e+02,1.520807647705078125e+02,4.034250974655151367e-01,2.372279018163681030e-01,-1.162719633430242538e-02,1.473311233520507812e+01,6.071824580430984497e-02,1.849819796007068362e-06,-1.824122518301010132e-01,-5.657476373016834259e-03,7.558010111097246408e-06,1.786431646905839443e-03,1.119318325072526932e-02,-2.364205569028854370e-02,5.000000000000000000e-01,-9.586704982211813331e-05,0.000000000000000000e+00
2.092907428741455078e-01,5.248251342773437500e+02,1.520807647705078125e+02,1.520807647705078125e+02,4.034250974655151367e-01,2.372279018163681030e-01,-1.162719633430242538e-02,1.473311233520507812e+01,6.071824580430984497e-02,1.849819796007068362e-06,-1.824122518301010132e-01,-5.657476373016834259e-03,7.558010111097246408e-06,1.786431646905839443e-03,1.119318325072526932e-02,-2.364205569028854370e-02,5.000000000000000000e-01,-9.586704982211813331e-05,0.000000000000000000e+00
2.092907428741455078e-01,5.248251342773437500e+02,1.520807647705078125e+02,1.520807647705078125e+02,4.034250974655151367e-01,2.372279018163681030e-01,-1.162719633430242538e-02,1.473311233520507812e+01,6.071824580430984497e-02,1.849819796007068362e-06,-1.824122518301010132e-01,-5.657476373016834259e-03,7.558010111097246408e-06,1.786431646905839443e-03,1.119318325072526932e-02,-2.364205569028854370e-02,5.000000000000000000e-01,-9.586704982211813331e-05,0.000000000000000000e+00
2.092907428741455078e-01,5.262973632812500000e+02,1.520868225097656250e+02,1.520868225097656250e+02,4.025166928768157959e-01,2.351174503564834595e-01,-1.174926664680242538e-02,1.471444988250732422e+01,6.018267199397087097e-02,6.674607675449806266e-07,-2.501046359539031982e-01,-7.177486084401607513e-03,-1.584537130838725716e-05,9.890130022540688515e-04,7.698127068579196930e-03,-1.992840133607387543e-02,5.000000000000000000e-01,-7.926118996692821383e-05,0.000000000000000000e+00
2.839093208312988281e-01,5.262973632812500000e+02,1.520868225097656250e+02,1.520868225097656250e+02,4.025166928768157959e-01,2.351174503564834595e-01,-1.174926664680242538e-02,1.471444988250732422e+01,6.018267199397087097e-02,6.674607675449806266e-07,-2.501046359539031982e-01,-7.177486084401607513e-03,-1.584537130838725716e-05,9.890130022540688515e-04,7.698127068579196930e-03,-1.992840133607387543e-02,5.000000000000000000e-01,-7.926118996692821383e-05,0.000000000000000000e+00
2.839093208312988281e-01,5.262973632812500000e+02,1.520868225097656250e+02,1.520868225097656250e+02,4.025166928768157959e-01,2.351174503564834595e-01,-1.174926664680242538e-02,1.471444988250732422e+01,6.018267199397087097e-02,6.674607675449806266e-07,-2.501046359539031982e-01,-7.177486084401607513e-03,-1.584537130838725716e-05,9.890130022540688515e-04,7.698127068579196930e-03,-1.992840133607387543e-02,5.000000000000000000e-01,-7.926118996692821383e-05,0.000000000000000000e+00
2.839093208312988281e-01,5.262973632812500000e+02,1.520868225097656250e+02,1.520868225097656250e+02,4.025166928768157959e-01,2.351174503564834595e-01,-1.174926664680242538e-02,1.471444988250732422e+01,6.018267199397087097e-02,6.674607675449806266e-07,-2.501046359539031982e-01,-7.177486084401607513e-03,-1.584537130838725716e-05,9.890130022540688515e-04,7.698127068579196930e-03,-1.992840133607387543e-02,5.000000000000000000e-01,-7.926118996692821383e-05,0.000000000000000000e+00
2.839093208312988281e-01,5.262973632812500000e+02,1.520868225097656250e+02,1.520868225097656250e+02,4.025166928768157959e-01,2.351174503564834595e-01,-1.174926664680242538e-02,1.471444988250732422e+01,6.018267199397087097e-02,6.674607675449806266e-07,-2.501046359539031982e-01,-7.177486084401607513e-03,-1.584537130838725716e-05,9.890130022540688515e-04,7.698127068579196930e-03,-1.992840133607387543e-02,5.000000000000000000e-01,-7.926118996692821383e-05,0.000000000000000000e+00
3.569011688232421875e-01,5.273947143554687500e+02,1.520913238525390625e+02,1.520913238525390625e+02,4.020453989505767822e-01,2.341296076774597168e-01,-1.171875000000000000e-02,1.470074081420898438e+01,6.004301458597183228e-02,2.708030706344288774e-06,-1.878164261579513550e-01,-1.913328887894749641e-03,2.795613545458763838e-05,-3.954551357310265303e-04,5.829571746289730072e-03,-1.013729907572269440e-02,5.000000000000000000e-01,-2.666520231286995113e-05,0.000000000000000000e+00
3.569011688232421875e-01,5.273947143554687500e+02,1.520913238525390625e+02,1.520913238525390625e+02,4.020453989505767822e-01,2.341296076774597168e-01,-1.171875000000000000e-02,1.470074081420898438e+01,6.004301458597183228e-02,2.708030706344288774e-06,-1.878164261579513550e-01,-1.913328887894749641e-03,2.795613545458763838e-05,-3.954551357310265303e-04,5.829571746289730072e-03,-1.013729907572269440e-02,5.000000000000000000e-01,-2.666520231286995113e-05,0.000000000000000000e+00
3.569011688232421875e-01,5.273947143554687500e+02,1.520913238525390625e+02,1.520913238525390625e+02,4.020453989505767822e-01,2.341296076774597168e-01,-1.171875000000000000e-02,1.470074081420898438e+01,6.004301458597183228e-02,2.708030706344288774e-06,-1.878164261579513550e-01,-1.913328887894749641e-03,2.795613545458763838e-05,-3.954551357310265303e-04,5.829571746289730072e-03,-1.013729907572269440e-02,5.000000000000000000e-01,-2.666520231286995113e-05,0.000000000000000000e+00
3.569011688232421875e-01,5.273947143554687500e+02,1.520913238525390625e+02,1.520913238525390625e+02,4.020453989505767822e-01,2.341296076774597168e-01,-1.171875000000000000e-02,1.470074081420898438e+01,6.004301458597183228e-02,2.708030706344288774e-06,-1.878164261579513550e-01,-1.913328887894749641e-03,2.795613545458763838e-05,-3.954551357310265303e-04,5.829571746289730072e-03,-1.013729907572269440e-02,5.000000000000000000e-01,-2.666520231286995113e-05,0.000000000000000000e+00
4.765405654907226562e-01,5.284671630859375000e+02,1.520957183837890625e+02,1.520957183837890625e+02,4.016833901405334473e-01,2.337583303451538086e-01,-1.168823335319757462e-02,1.468748474121093750e+01,5.997479707002639771e-02,4.004847369287745096e-07,-1.108002364635467529e-01,-5.701927584595978260e-04,-1.928750862134620547e-05,-7.691744831390678883e-04,4.511300008744001389e-03,-2.729906933382153511e-03,5.000000000000000000e-01,-2.623881528052152134e-06,0.000000000000000000e+00
4.765405654907226562e-01,5.284671630859375000e+02,1.520957183837890625e+02,1.520957183837890625e+02,4.016833901405334473e-01,2.337583303451538086e-01,-1.168823335319757462e-02,1.468748474121093750e+01,5.997479707002639771e-02,4.004847369287745096e-07,-1.108002364635467529e-01,-5.701927584595978260e-04,-1.928750862134620547e-05,-7.691744831390678883e-04,4.511300008744001389e-03,-2.729906933382153511e-03,5.000000000000000000e-01,-2.623881528052152134e-06,0.000000000000000000e+00
4.765405654907226562e-01,5.284671630859375000e+02,1.520957183837890625e+02,1.520957183837890625e+02,4.016833901405334473e-01,2.337583303451538086e-01,-1.168823335319757462e-02,1.468748474121093750e+01,5.997479707002639771e-02,4.004847369287745096e-07,-1.108002364635467529e-01,-5.701927584595978260e-04,-1.928750862134620547e-05,-7.691744831390678883e-04,4.511300008744001389e-03,-2.729906933382153511e-03,5.000000000000000000e-01,-2.623881528052152134e-06,0.000000000000000000e+00
4.765405654907226562e-01,5.284671630859375000e+02,1.520957183837890625e+02,1.520957183837890625e+02,4.016833901405334473e-01,2.337583303451538086e-01,-1.168823335319757462e-02,1.468748474121093750e+01,5.997479707002639771e-02,4.004847369287745096e-07,-1.108002364635467529e-01,-5.701927584595978260e-04,-1.928750862134620547e-05,-7.691744831390678883e-04,4.511300008744001389e-03,-2.729906933382153511e-03,5.000000000000000000e-01,-2.623881528052152134e-06,0.000000000000000000e+00
4.765405654907226562e-01,5.284671630859375000e+02,1.520957183837890625e+02,1.520957183837890625e+02,4.016833901405334473e-01,2.337583303451538086e-01,-1.168823335319757462e-02,1.468748474121093750e+01,5.997479707002639771e-02,4.004847369287745096e-07,-1.108002364635467529e-01,-5.701927584595978260e-04,-1.928750862134620547e-05,-7.691744831390678883e-04,4.511300008744001389e-03,-2.729906933382153511e-03,5.000000000000000000e-01,-2.623881528052152134e-06,0.000000000000000000e+00
4.765405654907226562e-01,5.284671630859375000e+02,1.520957183837890625e+02,1.520957183837890625e+02,4.016833901405334473e-01,2.337583303451538086e-01,-1.168823335319757462e-02,1.468748474121093750e+01,5.997479707002639771e-02,4.004847369287745096e-07,-1.108002364635467529e-01,-5.701927584595978260e-04,-1.928750862134620547e-05,-7.691744831390678883e-04,4.511300008744001389e-03,-2.729906933382153511e-03,5.000000000000000000e-01,-2.623881528052152134e-06,0.000000000000000000e+00
4.765405654907226562e-01,5.284671630859375000e+02,1.520957183837890625e+02,1.520957183837890625e+02,4.016833901405334473e-01,2.337583303451538086e-01,-1.168823335319757462e-02,1.468748474121093750e+01,5.997479707002639771e-02,4.004847369287745096e-07,-1.108002364635467529e-01,-5.701927584595978260e-04,-1.928750862134620547e-05,-7.691744831390678883e-04,4.511300008744001389e-03,-2.729906933382153511e-03,5.000000000000000000e-01,-2.623881528052152134e-06,0.000000000000000000e+00
6.200885772705078125e-01,5.299349365234375000e+02,1.521016998291015625e+02,1.521016998291015625e+02,4.013009071350097656e-01,2.337579876184463501e-01,-1.159667968750000000e-02,1.466954708099365234e+01,5.988394469022750854e-02,6.674607675449806266e-07,-1.249593123793601990e-01,-6.329058669507503510e-04,1.859837880147097167e-06,-7.440098561346530914e-04,3.230247879400849342e-03,1.205387408845126629e-03,5.000000000000000000e-01,1.050106106958992314e-06,0.000000000000000000e+00
6.200885772705078125e-01,5.299349365234375000e+02,1.521016998291015625e+02,1.521016998291015625e+02,4.013009071350097656e-01,2.337579876184463501e-01,-1.159667968750000000e-02,1.466954708099365234e+01,5.988394469022750854e-02,6.674607675449806266e-07,-1.249593123793601990e-01,-6.329058669507503510e-04,1.859837880147097167e-06,-7.440098561346530914e-04,3.230247879400849342e-03,1.205387408845126629e-03,5.000000000000000000e-01,1.050106106958992314e-06,0.000000000000000000e+00
6.200885772705078125e-01,5.299349365234375000e+02,1.521016998291015625e+02,1.521016998291015625e+02,4.013009071350097656e-01,2.337579876184463501e-01,-1.159667968750000000e-02,1.466954708099365234e+01,5.988394469022750854e-02,6.674607675449806266e-07,-1.249593123793601990e-01,-6.329058669507503510e-04,1.859837880147097167e-06,-7.440098561346530914e-04,3.230247879400849342e-03,1.205387408845126629e-03,5.000000000000000000e-01,1.050106106958992314e-06,0.000000000000000000e+00
6.200885772705078125e-01,5.299349365234375000e+02,1.521016998291015625e+02,1.521016998291015625e+02,4.013009071350097656e-01,2.337579876184463501e-01,-1.159667968750000000e-02,1.466954708099365234e+01,5.988394469022750854e-02,6.674607675449806266e-07,-1.249593123793601990e-01,-6.329058669507503510e-04,1.859837880147097167e-06,-7.440098561346530914e-04,3.230247879400849342e-03,1.205387408845126629e-03,5.000000000000000000e-01,1.050106106958992314e-06,0.000000000000000000e+00
6.200885772705078125e-01,5.299349365234375000e+02,1.521016998291015625e+02,1.521016998291015625e+02,4.013009071350097656e-01,2.337579876184463501e-01,-1.159667968750000000e-02,1.466954708099365234e+01,5.988394469022750854e-02,6.674607675449806266e-07,-1.249593123793601990e-01,-6.329058669507503510e-04,1.859837880147097167e-06,-7.440098561346530914e-04,3.230247879400849342e-03,1.205387408845126629e-03,5.000000000000000000e-01,1.050106106958992314e-06,0.000000000000000000e+00
6.200885772705078125e-01,5.299349365234375000e+02,1.521016998291015625e+02,1.521016998291015625e+02,4.013009071350097656e-01,2.337579876184463501e-01,-1.159667968750000000e-02,1.466954708099365234e+01,5.988394469022750854e-02,6.674607675449806266e-07,-1.249593123793601990e-01,-6.329058669507503510e-04,1.859837880147097167e-06,-7.440098561346530914e-04,3.230247879400849342e-03,1.205387408845126629e-03,5.000000000000000000e-01,1.050106106958992314e-06,0.000000000000000000e+00
7.946169376373291016e-01,5.314008789062500000e+02,1.521076660156250000e+02,1.521076660156250000e+02,4.010345339775085449e-01,2.340932786464691162e-01,-1.150512509047985077e-02,1.465184402465820312e+01,5.989725142717361450e-02,4.386170644465892110e-07,-1.014336943626403809e-01,7.624398131156340241e-05,-1.311212145083118230e-06,-8.538215188309550285e-04,2.316462341696023941e-03,4.304430447518825531e-03,5.000000000000000000e-01,1.139662072091596201e-05,0.000000000000000000e+00
7.946169376373291016e-01,5.314008789062500000e+02,1.521076660156250000e+02,1.521076660156250000e+02,4.010345339775085449e-01,2.340932786464691162e-01,-1.150512509047985077e-02,1.465184402465820312e+01,5.989725142717361450e-02,4.386170644465892110e-07,-1.014336943626403809e-01,7.624398131156340241e-05,-1.311212145083118230e-06,-8.538215188309550285e-04,2.316462341696023941e-03,4.304430447518825531e-03,5.000000000000000000e-01,1.139662072091596201e-05,0.000000000000000000e+00
7.946169376373291016e-01,5.314008789062500000e+02,1.521076660156250000e+02,1.521076660156250000e+02,4.010345339775085449e-01,2.340932786464691162e-01,-1.150512509047985077e-02,1.465184402465820312e+01,5.989725142717361450e-02,4.386170644465892110e-07,-1.014336943626403809e-01,7.624398131156340241e-05,-1.311212145083118230e-06,-8.538215188309550285e-04,2.316462341696023941e-03,4.304430447518825531e-03,5.000000000000000000e-01,1.139662072091596201e-05,0.000000000000000000e+00
8.783230781555175781e-01,5.328648681640625000e+02,1.521136322021484375e+02,1.521136322021484375e+02,4.011301696300506592e-01,2.343618720769882202e-01,-1.144409086555242538e-02,1.462993240356445312e+01,5.990007147192955017e-02,4.958279760103323497e-07,-2.617684006690979004e-01,3.368981924722902477e-05,6.834733312643948011e-07,-5.341973737813532352e-04,-3.816221142187714577e-03,5.311406566761434078e-04,5.000000000000000000e-01,1.157649967353790998e-05,0.000000000000000000e+00
8.783230781555175781e-01,5.328648681640625000e+02,1.521136322021484375e+02,1.521136322021484375e+02,4.011301696300506592e-01,2.343618720769882202e-01,-1.144409086555242538e-02,1.462993240356445312e+01,5.990007147192955017e-02,4.958279760103323497e-07,-2.617684006690979004e-01,3.368981924722902477e-05,6.834733312643948011e-07,-5.341973737813532352e-04,-3.816221142187714577e-03,5.311406566761434078e-04,5.000000000000000000e-01,1.157649967353790998e-05,0.000000000000000000e+00
8.783230781555175781e-01,5.328648681640625000e+02,1.521136322021484375e+02,1.521136322021484375e+02,4.011301696300506592e-01,2.343618720769882202e-01,-1.144409086555242538e-02,1.462993240356445312e+01,5.990007147192955017e-02,4.958279760103323497e-07,-2.617684006690979004e-01,3.368981924722902477e-05,6.834733312643948011e-07,-5.341973737813532352e-04,-3.816221142187714577e-03,5.311406566761434078e-04,5.000000000000000000e-01,1.157649967353790998e-05,0.000000000000000000e+00
9.483780860900878906e-01,5.340885009765625000e+02,1.521186828613281250e+02,1.521186828613281250e+02,4.014716744422912598e-01,2.343790978193283081e-01,-1.141357235610485077e-02,1.460994815826416016e+01,5.989295989274978638e-02,1.249139018000278156e-06,-2.852650582790374756e-01,-1.015142188407480717e-04,1.075313593901228160e-05,-1.714219106361269951e-04,-4.022720269858837128e-03,4.972076203557662666e-05,5.000000000000000000e-01,1.806744512578006834e-05,0.000000000000000000e+00
9.483780860900878906e-01,5.340885009765625000e+02,1.521186828613281250e+02,1.521186828613281250e+02,4.014716744422912598e-01,2.343790978193283081e-01,-1.141357235610485077e-02,1.460994815826416016e+01,5.989295989274978638e-02,1.249139018000278156e-06,-2.852650582790374756e-01,-1.015142188407480717e-04,1.075313593901228160e-05,-1.714219106361269951e-04,-4.022720269858837128e-03,4.972076203557662666e-05,5.000000000000000000e-01,1.806744512578006834e-05,0.000000000000000000e+00
9.483780860900878906e-01,5.340885009765625000e+02,1.521186828613281250e+02,1.521186828613281250e+02,4.014716744422912598e-01,2.343790978193283081e-01,-1.141357235610485077e-02,1.460994815826416016e+01,5.989295989274978638e-02,1.249139018000278156e-06,-2.852650582790374756e-01,-1.015142188407480717e-04,1.075313593901228160e-05,-1.714219106361269951e-04,-4.022720269858837128e-03,4.972076203557662666e-05,5.000000000000000000e-01,1.806744512578006834e-05,0.000000000000000000e+00
9.483780860900878906e-01,5.340885009765625000e+02,1.521186828613281250e+02,1.521186828613281250e+02,4.014716744422912598e-01,2.343790978193283081e-01,-1.141357235610485077e-02,1.460994815826416016e+01,5.989295989274978638e-02,1.249139018000278156e-06,-2.852650582790374756e-01,-1.015142188407480717e-04,1.075313593901228160e-05,-1.714219106361269951e-04,-4.022720269858837128e-03,4.972076203557662666e-05,5.000000000000000000e-01,1.806744512578006834e-05,0.000000000000000000e+00
9.483780860900878906e-01,5.351113281250000000e+02,1.521228790283203125e+02,1.521228790283203125e+02,4.017243981361389160e-01,2.343308180570602417e-01,-1.141357328742742538e-02,1.459325122833251953e+01,5.982055515050888062e-02,8.009741350178956054e-07,-2.118926346302032471e-01,-9.188534459099173546e-04,-5.687442808266496286e-06,1.480739738326519728e-04,-3.265864914283156395e-03,-1.033502165228128433e-03,5.000000000000000000e-01,1.211081234941957518e-05,0.000000000000000000e+00
1.027177095413208008e+00,5.351113281250000000e+02,1.521228790283203125e+02,1.521228790283203125e+02,4.017243981361389160e-01,2.343308180570602417e-01,-1.141357328742742538e-02,1.459325122833251953e+01,5.982055515050888062e-02,8.009741350178956054e-07,-2.118926346302032471e-01,-9.188534459099173546e-04,-5.687442808266496286e-06,1.480739738326519728e-04,-3.265864914283156395e-03,-1.033502165228128433e-03,5.000000000000000000e-01,1.211081234941957518e-05,0.000000000000000000e+00
1.027177095413208008e+00,5.351113281250000000e+02,1.521228790283203125e+02,1.521228790283203125e+02,4.017243981361389160e-01,2.343308180570602417e-01,-1.141357328742742538e-02,1.459325122833251953e+01,5.982055515050888062e-02,8.009741350178956054e-07,-2.118926346302032471e-01,-9.188534459099173546e-04,-5.687442808266496286e-06,1.480739738326519728e-04,-3.265864914283156395e-03,-1.033502165228128433e-03,5.000000000000000000e-01,1.211081234941957518e-05,0.000000000000000000e+00
1.095043420791625977e+00,5.362603759765625000e+02,1.521275787353515625e+02,1.521275787353515625e+02,4.019497931003570557e-01,2.341925501823425293e-01,-1.144409179687500000e-02,1.457449626922607422e+01,5.970913916826248169e-02,6.102553697928669862e-07,-2.763514816761016846e-01,-1.641697599552571774e-03,-2.810211981341126375e-06,3.337539383210241795e-04,-2.435039496049284935e-03,-2.072633709758520126e-03,5.000000000000000000e-01,8.510265615768730640e-06,0.000000000000000000e+00
1.095043420791625977e+00,5.362603759765625000e+02,1.521275787353515625e+02,1.521275787353515625e+02,4.019497931003570557e-01,2.341925501823425293e-01,-1.144409179687500000e-02,1.457449626922607422e+01,5.970913916826248169e-02,6.102553697928669862e-07,-2.763514816761016846e-01,-1.641697599552571774e-03,-2.810211981341126375e-06,3.337539383210241795e-04,-2.435039496049284935e-03,-2.072633709758520126e-03,5.000000000000000000e-01,8.510265615768730640e-06,0.000000000000000000e+00
1.095043420791625977e+00,5.362603759765625000e+02,1.521275787353515625e+02,1.521275787353515625e+02,4.019497931003570557e-01,2.341925501823425293e-01,-1.144409179687500000e-02,1.457449626922607422e+01,5.970913916826248169e-02,6.102553697928669862e-07,-2.763514816761016846e-01,-1.641697599552571774e-03,-2.810211981341126375e-06,3.337539383210241795e-04,-2.435039496049284935e-03,-2.072633709758520126e-03,5.000000000000000000e-01,8.510265615768730640e-06,0.000000000000000000e+00
1.095043420791625977e+00,5.362603759765625000e+02,1.521275787353515625e+02,1.521275787353515625e+02,4.019497931003570557e-01,2.341925501823425293e-01,-1.144409179687500000e-02,1.457449626922607422e+01,5.970913916826248169e-02,6.102553697928669862e-07,-2.763514816761016846e-01,-1.641697599552571774e-03,-2.810211981341126375e-06,3.337539383210241795e-04,-2.435039496049284935e-03,-2.072633709758520126e-03,5.000000000000000000e-01,8.510265615768730640e-06,0.000000000000000000e+00
1.168572425842285156e+00,5.372488403320312500e+02,1.521316223144531250e+02,1.521316223144531250e+02,4.020727276802062988e-01,2.340921610593795776e-01,-1.144409179687500000e-02,1.455837154388427734e+01,5.964688956737518311e-02,1.153789298768970184e-06,-2.192974686622619629e-01,-8.465992286801338196e-04,7.392101906589232385e-06,1.068256678991019726e-04,-1.767617184668779373e-03,-1.194662414491176605e-03,5.000000000000000000e-01,1.589911335031501949e-05,0.000000000000000000e+00
1.168572425842285156e+00,5.372488403320312500e+02,1.521316223144531250e+02,1.521316223144531250e+02,4.020727276802062988e-01,2.340921610593795776e-01,-1.144409179687500000e-02,1.455837154388427734e+01,5.964688956737518311e-02,1.153789298768970184e-06,-2.192974686622619629e-01,-8.465992286801338196e-04,7.392101906589232385e-06,1.068256678991019726e-04,-1.767617184668779373e-03,-1.194662414491176605e-03,5.000000000000000000e-01,1.589911335031501949e-05,0.000000000000000000e+00
1.168572425842285156e+00,5.372488403320312500e+02,1.521316223144531250e+02,1.521316223144531250e+02,4.020727276802062988e-01,2.340921610593795776e-01,-1.144409179687500000e-02,1.455837154388427734e+01,5.964688956737518311e-02,1.153789298768970184e-06,-2.192974686622619629e-01,-8.465992286801338196e-04,7.392101906589232385e-06,1.068256678991019726e-04,-1.767617184668779373e-03,-1.194662414491176605e-03,5.000000000000000000e-01,1.589911335031501949e-05,0.000000000000000000e+00
1.168572425842285156e+00,5.372488403320312500e+02,1.521316223144531250e+02,1.521316223144531250e+02,4.020727276802062988e-01,2.340921610593795776e-01,-1.144409179687500000e-02,1.455837154388427734e+01,5.964688956737518311e-02,1.153789298768970184e-06,-2.192974686622619629e-01,-8.465992286801338196e-04,7.392101906589232385e-06,1.068256678991019726e-04,-1.767617184668779373e-03,-1.194662414491176605e-03,5.000000000000000000e-01,1.589911335031501949e-05,0.000000000000000000e+00
1.168572425842285156e+00,5.383185424804687500e+02,1.521360321044921875e+02,1.521360321044921875e+02,4.021888375282287598e-01,2.340176701545715332e-01,-1.144409179687500000e-02,1.454092216491699219e+01,5.956295505166053772e-02,8.105039910333289299e-07,-2.325081974267959595e-01,-1.118404441513121128e-03,-4.574182639771606773e-06,5.883304038434289396e-05,-1.305664656683802605e-03,-9.283248800784349442e-04,5.000000000000000000e-01,1.539375080028548837e-05,0.000000000000000000e+00
1.243620872497558594e+00,5.383185424804687500e+02,1.521360321044921875e+02,1.521360321044921875e+02,4.021888375282287598e-01,2.340176701545715332e-01,-1.144409179687500000e-02,1.454092216491699219e+01,5.956295505166053772e-02,8.105039910333289299e-07,-2.325081974267959595e-01,-1.118404441513121128e-03,-4.574182639771606773e-06,5.883304038434289396e-05,-1.305664656683802605e-03,-9.283248800784349442e-04,5.000000000000000000e-01,1.539375080028548837e-05,0.000000000000000000e+00
1.243620872497558594e+00,5.383185424804687500e+02,1.521360321044921875e+02,1.521360321044921875e+02,4.021888375282287598e-01,2.340176701545715332e-01,-1.144409179687500000e-02,1.454092216491699219e+01,5.956295505166053772e-02,8.105039910333289299e-07,-2.325081974267959595e-01,-1.118404441513121128e-03,-4.574182639771606773e-06,5.883304038434289396e-05,-1.305664656683802605e-03,-9.283248800784349442e-04,5.000000000000000000e-01,1.539375080028548837e-05,0.000000000000000000e+00
1.243620872497558594e+00,5.383185424804687500e+02,1.521360321044921875e+02,1.521360321044921875e+02,4.021888375282287598e-01,2.340176701545715332e-01,-1.144409179687500000e-02,1.454092216491699219e+01,5.956295505166053772e-02,8.105039910333289299e-07,-2.325081974267959595e-01,-1.118404441513121128e-03,-4.574182639771606773e-06,5.883304038434289396e-05,-1.305664656683802605e-03,-9.283248800784349442e-04,5.000000000000000000e-01,1.539375080028548837e-05,0.000000000000000000e+00
1.312042951583862305e+00,5.394081420898437500e+02,1.521404876708984375e+02,1.521404876708984375e+02,4.042105674743652344e-01,2.327166646718978882e-01,-1.141357421875000000e-02,1.446548271179199219e+01,5.922539532184600830e-02,1.239590460500039626e-06,-1.102560162544250488e+00,-4.933491349220275879e-03,6.271169695537537336e-06,-1.657621818594634533e-03,-1.299988329410552979e-01,-8.214942365884780884e-02,5.000000000000000000e-01,1.279967182199470699e-05,0.000000000000000000e+00
1.312042951583862305e+00,5.394081420898437500e+02,1.521404876708984375e+02,1.521404876708984375e+02,4.042105674743652344e-01,2.327166646718978882e-01,-1.141357421875000000e-02,1.446548271179199219e+01,5.922539532184600830e-02,1.239590460500039626e-06,-1.102560162544250488e+00,-4.933491349220275879e-03,6.271169695537537336e-06,-1.657621818594634533e-03,-1.299988329410552979e-01,-8.214942365884780884e-02,5.000000000000000000e-01,1.279967182199470699e-05,0.000000000000000000e+00
1.312042951583862305e+00,5.403878173828125000e+02,1.521445922851562500e+02,1.521445922851562500e+02,4.214704632759094238e-01,2.184318006038665771e-01,-1.168823335319757462e-02,1.422903060913085938e+01,5.745618790388107300e-02,-5.692656031897058710e-06,-3.326263189315795898e+00,-2.488812431693077087e-02,-9.751859033713117242e-05,1.118401531130075455e-02,-2.716065347194671631e-01,-2.560696601867675781e-01,5.000000000000000000e-01,3.235148687963373959e-05,0.000000000000000000e+00
1.383129358291625977e+00,5.403878173828125000e+02,1.521445922851562500e+02,1.521445922851562500e+02,4.214704632759094238e-01,2.184318006038665771e-01,-1.168823335319757462e-02,1.422903060913085938e+01,5.745618790388107300e-02,-5.692656031897058710e-06,-3.326263189315795898e+00,-2.488812431693077087e-02,-9.751859033713117242e-05,1.118401531130075455e-02,-2.716065347194671631e-01,-2.560696601867675781e-01,5.000000000000000000e-01,3.235148687963373959e-05,0.000000000000000000e+00
1.383129358291625977e+00,5.403878173828125000e+02,1.521445922851562500e+02,1.521445922851562500e+02,4.214704632759094238e-01,2.184318006038665771e-01,-1.168823335319757462e-02,1.422903060913085938e+01,5.745618790388107300e-02,-5.692656031897058710e-06,-3.326263189315795898e+00,-2.488812431693077087e-02,-9.751859033713117242e-05,1.118401531130075455e-02,-2.716065347194671631e-01,-2.560696601867675781e-01,5.000000000000000000e-01,3.235148687963373959e-05,0.000000000000000000e+00
1.450951814651489258e+00,5.413912963867187500e+02,1.521487426757812500e+02,1.521487426757812500e+02,4.370979368686676025e-01,2.019728571176528931e-01,-1.260376069694757462e-02,1.404623031616210938e+01,5.546063184738159180e-02,-1.038403661368647590e-05,-2.695276737213134766e+00,-2.942323498427867889e-02,-6.917149585206061602e-05,1.642527058720588684e-02,-1.738338023424148560e-01,-2.088026404380798340e-01,5.000000000000000000e-01,3.286908904556185007e-04,0.000000000000000000e+00
1.450951814651489258e+00,5.413912963867187500e+02,1.521487426757812500e+02,1.521487426757812500e+02,4.370979368686676025e-01,2.019728571176528931e-01,-1.260376069694757462e-02,1.404623031616210938e+01,5.546063184738159180e-02,-1.038403661368647590e-05,-2.695276737213134766e+00,-2.942323498427867889e-02,-6.917149585206061602e-05,1.642527058720588684e-02,-1.738338023424148560e-01,-2.088026404380798340e-01,5.000000000000000000e-01,3.286908904556185007e-04,0.000000000000000000e+00
1.450951814651489258e+00,5.413912963867187500e+02,1.521487426757812500e+02,1.521487426757812500e+02,4.370979368686676025e-01,2.019728571176528931e-01,-1.260376069694757462e-02,1.404623031616210938e+01,5.546063184738159180e-02,-1.038403661368647590e-05,-2.695276737213134766e+00,-2.942323498427867889e-02,-6.917149585206061602e-05,1.642527058720588684e-02,-1.738338023424148560e-01,-2.088026404380798340e-01,5.000000000000000000e-01,3.286908904556185007e-04,0.000000000000000000e+00
1.527701377868652344e+00,5.423384399414062500e+02,1.521525421142578125e+02,1.521525421142578125e+02,4.444950222969055176e-01,1.925760358572006226e-01,-1.336669735610485077e-02,1.391449546813964844e+01,5.404892191290855408e-02,-8.963322216004598886e-06,-1.716424703598022461e+00,-1.839371956884860992e-02,1.851104207162279636e-05,1.035897713154554367e-02,-7.119850814342498779e-02,-9.822118282318115234e-02,5.000000000000000000e-01,6.437165429815649986e-04,0.000000000000000000e+00
1.527701377868652344e+00,5.423384399414062500e+02,1.521525421142578125e+02,1.521525421142578125e+02,4.444950222969055176e-01,1.925760358572006226e-01,-1.336669735610485077e-02,1.391449546813964844e+01,5.404892191290855408e-02,-8.963322216004598886e-06,-1.716424703598022461e+00,-1.839371956884860992e-02,1.851104207162279636e-05,1.035897713154554367e-02,-7.119850814342498779e-02,-9.822118282318115234e-02,5.000000000000000000e-01,6.437165429815649986e-04,0.000000000000000000e+00
1.527701377868652344e+00,5.423384399414062500e+02,1.521525421142578125e+02,1.521525421142578125e+02,4.444950222969055176e-01,1.925760358572006226e-01,-1.336669735610485077e-02,1.391449546813964844e+01,5.404892191290855408e-02,-8.963322216004598886e-06,-1.716424703598022461e+00,-1.839371956884860992e-02,1.851104207162279636e-05,1.035897713154554367e-02,-7.119850814342498779e-02,-9.822118282318115234e-02,5.000000000000000000e-01,6.437165429815649986e-04,0.000000000000000000e+00
1.600134611129760742e+00,5.434008789062500000e+02,1.521566925048828125e+02,1.521566925048828125e+02,4.463186860084533691e-01,1.918146461248397827e-01,-1.348876859992742538e-02,1.379986095428466797e+01,5.398690700531005859e-02,-2.517313532734988257e-06,-1.582623243331909180e+00,-8.561665308661758900e-04,8.899241947801783681e-05,-1.282706158235669136e-03,3.907583188265562057e-03,3.550807014107704163e-02,5.000000000000000000e-01,9.727699216455221176e-04,0.000000000000000000e+00
1.600134611129760742e+00,5.434008789062500000e+02,1.521566925048828125e+02,1.521566925048828125e+02,4.463186860084533691e-01,1.918146461248397827e-01,-1.348876859992742538e-02,1.379986095428466797e+01,5.398690700531005859e-02,-2.517313532734988257e-06,-1.582623243331909180e+00,-8.561665308661758900e-04,8.899241947801783681e-05,-1.282706158235669136e-03,3.907583188265562057e-03,3.550807014107704163e-02,5.000000000000000000e-01,9.727699216455221176e-04,0.000000000000000000e+00
1.600134611129760742e+00,5.434008789062500000e+02,1.521566925048828125e+02,1.521566925048828125e+02,4.463186860084533691e-01,1.918146461248397827e-01,-1.348876859992742538e-02,1.379986095428466797e+01,5.398690700531005859e-02,-2.517313532734988257e-06,-1.582623243331909180e+00,-8.561665308661758900e-04,8.899241947801783681e-05,-1.282706158235669136e-03,3.907583188265562057e-03,3.550807014107704163e-02,5.000000000000000000e-01,9.727699216455221176e-04,0.000000000000000000e+00
1.600134611129760742e+00,5.434008789062500000e+02,1.521566925048828125e+02,1.521566925048828125e+02,4.463186860084533691e-01,1.918146461248397827e-01,-1.348876859992742538e-02,1.379986095428466797e+01,5.398690700531005859e-02,-2.517313532734988257e-06,-1.582623243331909180e+00,-8.561665308661758900e-04,8.899241947801783681e-05,-1.282706158235669136e-03,3.907583188265562057e-03,3.550807014107704163e-02,5.000000000000000000e-01,9.727699216455221176e-04,0.000000000000000000e+00
1.600134611129760742e+00,5.434008789062500000e+02,1.521566925048828125e+02,1.521566925048828125e+02,4.463186860084533691e-01,1.918146461248397827e-01,-1.348876859992742538e-02,1.379986095428466797e+01,5.398690700531005859e-02,-2.517313532734988257e-06,-1.582623243331909180e+00,-8.561665308661758900e-04,8.899241947801783681e-05,-1.282706158235669136e-03,3.907583188265562057e-03,3.550807014107704163e-02,5.000000000000000000e-01,9.727699216455221176e-04,0.000000000000000000e+00
1.600134611129760742e+00,5.443969726562500000e+02,1.521605529785156250e+02,1.521605529785156250e+02,4.436617493629455566e-01,1.975376158952713013e-01,-1.324462704360485077e-02,1.372728824615478516e+01,5.409650504589080811e-02,5.053742029303975869e-07,-6.289948225021362305e-01,9.498970466665923595e-04,2.619793303892947733e-05,-5.343155469745397568e-03,6.326934695243835449e-02,1.098961755633354187e-01,1.000000000000000000e+00,9.445639443583786488e-04,0.000000000000000000e+00
1.715513467788696289e+00,5.443969726562500000e+02,1.521605529785156250e+02,1.521605529785156250e+02,4.436617493629455566e-01,1.975376158952713013e-01,-1.324462704360485077e-02,1.372728824615478516e+01,5.409650504589080811e-02,5.053742029303975869e-07,-6.289948225021362305e-01,9.498970466665923595e-04,2.619793303892947733e-05,-5.343155469745397568e-03,6.326934695243835449e-02,1.098961755633354187e-01,1.000000000000000000e+00,9.445639443583786488e-04,0.000000000000000000e+00
1.715513467788696289e+00,5.443969726562500000e+02,1.521605529785156250e+02,1.521605529785156250e+02,4.436617493629455566e-01,1.975376158952713013e-01,-1.324462704360485077e-02,1.372728824615478516e+01,5.409650504589080811e-02,5.053742029303975869e-07,-6.289948225021362305e-01,9.498970466665923595e-04,2.619793303892947733e-05,-5.343155469745397568e-03,6.326934695243835449e-02,1.098961755633354187e-01,1.000000000000000000e+00,9.445639443583786488e-04,0.000000000000000000e+00
1.715513467788696289e+00,5.443969726562500000e+02,1.521605529785156250e+02,1.521605529785156250e+02,4.436617493629455566e-01,1.975376158952713013e-01,-1.324462704360485077e-02,1.372728824615478516e+01,5.409650504589080811e-02,5.053742029303975869e-07,-6.289948225021362305e-01,9.498970466665923595e-04,2.619793303892947733e-05,-5.343155469745397568e-03,6.326934695243835449e-02,1.098961755633354187e-01,1.000000000000000000e+00,9.445639443583786488e-04,0.000000000000000000e+00
1.813115119934082031e+00,5.457699584960937500e+02,1.521659393310546875e+02,1.521659393310546875e+02,4.296188652515411377e-01,2.178664952516555786e-01,-1.205444335937500000e-02,1.375243091583251953e+01,5.691445246338844299e-02,4.977350272383773699e-06,2.576049566268920898e-01,2.887192368507385254e-02,4.581865141517482698e-05,-1.699566654860973358e-02,1.889857798814773560e-01,2.689224183559417725e-01,1.000000000000000000e+00,1.015319372527301311e-03,0.000000000000000000e+00
1.813115119934082031e+00,5.457699584960937500e+02,1.521659393310546875e+02,1.521659393310546875e+02,4.296188652515411377e-01,2.178664952516555786e-01,-1.205444335937500000e-02,1.375243091583251953e+01,5.691445246338844299e-02,4.977350272383773699e-06,2.576049566268920898e-01,2.887192368507385254e-02,4.581865141517482698e-05,-1.699566654860973358e-02,1.889857798814773560e-01,2.689224183559417725e-01,1.000000000000000000e+00,1.015319372527301311e-03,0.000000000000000000e+00
1.813115119934082031e+00,5.457699584960937500e+02,1.521659393310546875e+02,1.521659393310546875e+02,4.296188652515411377e-01,2.178664952516555786e-01,-1.205444335937500000e-02,1.375243091583251953e+01,5.691445246338844299e-02,4.977350272383773699e-06,2.576049566268920898e-01,2.887192368507385254e-02,4.581865141517482698e-05,-1.699566654860973358e-02,1.889857798814773560e-01,2.689224183559417725e-01,1.000000000000000000e+00,1.015319372527301311e-03,0.000000000000000000e+00
1.813115119934082031e+00,5.471190185546875000e+02,1.521713867187500000e+02,1.521713867187500000e+02,4.079603552818298340e-01,2.453711777925491333e-01,-1.074218750000000000e-02,1.388307380676269531e+01,5.973479151725769043e-02,1.114663882617605850e-05,1.573636651039123535e+00,3.397191315889358521e-02,7.431110861944034696e-05,-1.855999231338500977e-02,2.353662550449371338e-01,3.022505939006805420e-01,1.000000000000000000e+00,5.554346134886145592e-04,0.000000000000000000e+00
1.896134853363037109e+00,5.471190185546875000e+02,1.521713867187500000e+02,1.521713867187500000e+02,4.079603552818298340e-01,2.453711777925491333e-01,-1.074218750000000000e-02,1.388307380676269531e+01,5.973479151725769043e-02,1.114663882617605850e-05,1.573636651039123535e+00,3.397191315889358521e-02,7.431110861944034696e-05,-1.855999231338500977e-02,2.353662550449371338e-01,3.022505939006805420e-01,1.000000000000000000e+00,5.554346134886145592e-04,0.000000000000000000e+00
1.896134853363037109e+00,5.471190185546875000e+02,1.521713867187500000e+02,1.521713867187500000e+02,4.079603552818298340e-01,2.453711777925491333e-01,-1.074218750000000000e-02,1.388307380676269531e+01,5.973479151725769043e-02,1.114663882617605850e-05,1.573636651039123535e+00,3.397191315889358521e-02,7.431110861944034696e-05,-1.855999231338500977e-02,2.353662550449371338e-01,3.022505939006805420e-01,1.000000000000000000e+00,5.554346134886145592e-04,0.000000000000000000e+00
1.896134853363037109e+00,5.471190185546875000e+02,1.521713867187500000e+02,1.521713867187500000e+02,4.079603552818298340e-01,2.453711777925491333e-01,-1.074218750000000000e-02,1.388307380676269531e+01,5.973479151725769043e-02,1.114663882617605850e-05,1.573636651039123535e+00,3.397191315889358521e-02,7.431110861944034696e-05,-1.855999231338500977e-02,2.353662550449371338e-01,3.022505939006805420e-01,1.000000000000000000e+00,5.554346134886145592e-04,0.000000000000000000e+00
1.896134853363037109e+00,5.471190185546875000e+02,1.521713867187500000e+02,1.521713867187500000e+02,4.079603552818298340e-01,2.453711777925491333e-01,-1.074218750000000000e-02,1.388307380676269531e+01,5.973479151725769043e-02,1.114663882617605850e-05,1.573636651039123535e+00,3.397191315889358521e-02,7.431110861944034696e-05,-1.855999231338500977e-02,2.353662550449371338e-01,3.022505939006805420e-01,1.000000000000000000e+00,5.554346134886145592e-04,0.000000000000000000e+00
1.896134853363037109e+00,5.471190185546875000e+02,1.521713867187500000e+02,1.521713867187500000e+02,4.079603552818298340e-01,2.453711777925491333e-01,-1.074218750000000000e-02,1.388307380676269531e+01,5.973479151725769043e-02,1.114663882617605850e-05,1.573636651039123535e+00,3.397191315889358521e-02,7.431110861944034696e-05,-1.855999231338500977e-02,2.353662550449371338e-01,3.022505939006805420e-01,1.000000000000000000e+00,5.554346134886145592e-04,0.000000000000000000e+00
1.896134853363037109e+00,5.471190185546875000e+02,1.521713867187500000e+02,1.521713867187500000e+02,4.079603552818298340e-01,2.453711777925491333e-01,-1.074218750000000000e-02,1.388307380676269531e+01,5.973479151725769043e-02,1.114663882617605850e-05,1.573636651039123535e+00,3.397191315889358521e-02,7.431110861944034696e-05,-1.855999231338500977e-02,2.353662550449371338e-01,3.022505939006805420e-01,1.000000000000000000e+00,5.554346134886145592e-04,0.000000000000000000e+00
1.896134853363037109e+00,5.471190185546875000e+02,1.521713867187500000e+02,1.521713867187500000e+02,4.079603552818298340e-01,2.453711777925491333e-01,-1.074218750000000000e-02,1.388307380676269531e+01,5.973479151725769043e-02,1.114663882617605850e-05,1.573636651039123535e+00,3.397191315889358521e-02,7.431110861944034696e-05,-1.855999231338500977e-02,2.353662550449371338e-01,3.022505939006805420e-01,1.000000000000000000e+00,5.554346134886145592e-04,0.000000000000000000e+00
2.195794820785522461e+00,5.509461059570312500e+02,1.521879119873046875e+02,1.521879119873046875e+02,3.657019734382629395e-01,2.844061851501464844e-01,-9.155272506177425385e-03,1.430449295043945312e+01,6.320910155773162842e-02,6.569855941052082926e-06,1.489426851272583008e+00,-6.691725458949804306e-03,-8.426277781836688519e-05,3.619548166170716286e-03,4.536406137049198151e-03,-6.298664212226867676e-02,5.000000000000000000e-01,-9.861182188615202904e-04,0.000000000000000000e+00
2.195794820785522461e+00,5.509461059570312500e+02,1.521879119873046875e+02,1.521879119873046875e+02,3.657019734382629395e-01,2.844061851501464844e-01,-9.155272506177425385e-03,1.430449295043945312e+01,6.320910155773162842e-02,6.569855941052082926e-06,1.489426851272583008e+00,-6.691725458949804306e-03,-8.426277781836688519e-05,3.619548166170716286e-03,4.536406137049198151e-03,-6.298664212226867676e-02,5.000000000000000000e-01,-9.861182188615202904e-04,0.000000000000000000e+00
2.195794820785522461e+00,5.509461059570312500e+02,1.521879119873046875e+02,1.521879119873046875e+02,3.657019734382629395e-01,2.844061851501464844e-01,-9.155272506177425385e-03,1.430449295043945312e+01,6.320910155773162842e-02,6.569855941052082926e-06,1.489426851272583008e+00,-6.691725458949804306e-03,-8.426277781836688519e-05,3.619548166170716286e-03,4.536406137049198151e-03,-6.298664212226867676e-02,5.000000000000000000e-01,-9.861182188615202904e-04,0.000000000000000000e+00
2.195794820785522461e+00,5.509461059570312500e+02,1.521879119873046875e+02,1.521879119873046875e+02,3.657019734382629395e-01,2.844061851501464844e-01,-9.155272506177425385e-03,1.430449295043945312e+01,6.320910155773162842e-02,6.569855941052082926e-06,1.489426851272583008e+00,-6.691725458949804306e-03,-8.426277781836688519e-05,3.619548166170716286e-03,4.536406137049198151e-03,-6.298664212226867676e-02,5.000000000000000000e-01,-9.861182188615202904e-04,0.000000000000000000e+00
2.195794820785522461e+00,5.509461059570312500e+02,1.521879119873046875e+02,1.521879119873046875e+02,3.657019734382629395e-01,2.844061851501464844e-01,-9.155272506177425385e-03,1.430449295043945312e+01,6.320910155773162842e-02,6.569855941052082926e-06,1.489426851272583008e+00,-6.691725458949804306e-03,-8.426277781836688519e-05,3.619548166170716286e-03,4.536406137049198151e-03,-6.298664212226867676e-02,5.000000000000000000e-01,-9.861182188615202904e-04,0.000000000000000000e+00
2.195794820785522461e+00,5.509461059570312500e+02,1.521879119873046875e+02,1.521879119873046875e+02,3.657019734382629395e-01,2.844061851501464844e-01,-9.155272506177425385e-03,1.430449295043945312e+01,6.320910155773162842e-02,6.569855941052082926e-06,1.489426851272583008e+00,-6.691725458949804306e-03,-8.426277781836688519e-05,3.619548166170716286e-03,4.536406137049198151e-03,-6.298664212226867676e-02,5.000000000000000000e-01,-9.861182188615202904e-04,0.000000000000000000e+00
2.195794820785522461e+00,5.509461059570312500e+02,1.521879119873046875e+02,1.521879119873046875e+02,3.657019734382629395e-01,2.844061851501464844e-01,-9.155272506177425385e-03,1.430449295043945312e+01,6.320910155773162842e-02,6.569855941052082926e-06,1.489426851272583008e+00,-6.691725458949804306e-03,-8.426277781836688519e-05,3.619548166170716286e-03,4.536406137049198151e-03,-6.298664212226867676e-02,5.000000000000000000e-01,-9.861182188615202904e-04,0.000000000000000000e+00
2.195794820785522461e+00,5.509461059570312500e+02,1.521879119873046875e+02,1.521879119873046875e+02,3.657019734382629395e-01,2.844061851501464844e-01,-9.155272506177425385e-03,1.430449295043945312e+01,6.320910155773162842e-02,6.569855941052082926e-06,1.489426851272583008e+00,-6.691725458949804306e-03,-8.426277781836688519e-05,3.619548166170716286e-03,4.536406137049198151e-03,-6.298664212226867676e-02,5.000000000000000000e-01,-9.861182188615202904e-04,0.000000000000000000e+00
2.195794820785522461e+00,5.509461059570312500e+02,1.521879119873046875e+02,1.521879119873046875e+02,3.657019734382629395e-01,2.844061851501464844e-01,-9.155272506177425385e-03,1.430449295043945312e+01,6.320910155773162842e-02,6.569855941052082926e-06,1.489426851272583008e+00,-6.691725458949804306e-03,-8.426277781836688519e-05,3.619548166170716286e-03,4.536406137049198151e-03,-6.298664212226867676e-02,5.000000000000000000e-01,-9.861182188615202904e-04,0.000000000000000000e+00
2.195794820785522461e+00,5.509461059570312500e+02,1.521879119873046875e+02,1.521879119873046875e+02,3.657019734382629395e-01,2.844061851501464844e-01,-9.155272506177425385e-03,1.430449295043945312e+01,6.320910155773162842e-02,6.569855941052082926e-06,1.489426851272583008e+00,-6.691725458949804306e-03,-8.426277781836688519e-05,3.619548166170716286e-03,4.536406137049198151e-03,-6.298664212226867676e-02,5.000000000000000000e-01,-9.861182188615202904e-04,0.000000000000000000e+00
2.374083757400512695e+00,5.517059936523437500e+02,1.521912689208984375e+02,1.521912689208984375e+02,3.671090006828308105e-01,2.768722474575042725e-01,-9.826661087572574615e-03,1.432500839233398438e+01,6.117128580808639526e-02,1.296824848395772278e-06,1.150685027241706848e-01,-1.142984908074140549e-02,-2.957576180051546544e-05,1.589962840080261230e-02,-4.265839979052543640e-02,-1.812055557966232300e-01,5.000000000000000000e-01,-1.375388703308999538e-03,0.000000000000000000e+00
2.374083757400512695e+00,5.517059936523437500e+02,1.521912689208984375e+02,1.521912689208984375e+02,3.671090006828308105e-01,2.768722474575042725e-01,-9.826661087572574615e-03,1.432500839233398438e+01,6.117128580808639526e-02,1.296824848395772278e-06,1.150685027241706848e-01,-1.142984908074140549e-02,-2.957576180051546544e-05,1.589962840080261230e-02,-4.265839979052543640e-02,-1.812055557966232300e-01,5.000000000000000000e-01,-1.375388703308999538e-03,0.000000000000000000e+00
2.374083757400512695e+00,5.517059936523437500e+02,1.521912689208984375e+02,1.521912689208984375e+02,3.671090006828308105e-01,2.768722474575042725e-01,-9.826661087572574615e-03,1.432500839233398438e+01,6.117128580808639526e-02,1.296824848395772278e-06,1.150685027241706848e-01,-1.142984908074140549e-02,-2.957576180051546544e-05,1.589962840080261230e-02,-4.265839979052543640e-02,-1.812055557966232300e-01,5.000000000000000000e-01,-1.375388703308999538e-03,0.000000000000000000e+00
2.447860002517700195e+00,5.531390380859375000e+02,1.521974334716796875e+02,1.521974334716796875e+02,3.744787573814392090e-01,2.559643983840942383e-01,-1.113891601562500000e-02,1.432683086395263672e+01,5.878765881061553955e-02,-2.326577487110625952e-06,2.470268867909908295e-02,-3.230886906385421753e-02,-4.911340147373266518e-05,1.508060656487941742e-02,-8.628490567207336426e-02,-2.282659262418746948e-01,5.000000000000000000e-01,-1.038629445247352123e-03,0.000000000000000000e+00
2.447860002517700195e+00,5.531390380859375000e+02,1.521974334716796875e+02,1.521974334716796875e+02,3.744787573814392090e-01,2.559643983840942383e-01,-1.113891601562500000e-02,1.432683086395263672e+01,5.878765881061553955e-02,-2.326577487110625952e-06,2.470268867909908295e-02,-3.230886906385421753e-02,-4.911340147373266518e-05,1.508060656487941742e-02,-8.628490567207336426e-02,-2.282659262418746948e-01,5.000000000000000000e-01,-1.038629445247352123e-03,0.000000000000000000e+00
2.500878810882568359e+00,5.541951904296875000e+02,1.522018585205078125e+02,1.522018585205078125e+02,3.810152411460876465e-01,2.415092885494232178e-01,-1.177978422492742538e-02,1.430739116668701172e+01,5.768698453903198242e-02,-4.433930826053256169e-06,-3.666566312313079834e-01,-2.076007239520549774e-02,-3.974727951572276652e-05,9.449843317270278931e-03,-9.056505560874938965e-02,-1.834828704595565796e-01,5.000000000000000000e-01,-6.072139949537813663e-04,0.000000000000000000e+00
2.500878810882568359e+00,5.541951904296875000e+02,1.522018585205078125e+02,1.522018585205078125e+02,3.810152411460876465e-01,2.415092885494232178e-01,-1.177978422492742538e-02,1.430739116668701172e+01,5.768698453903198242e-02,-4.433930826053256169e-06,-3.666566312313079834e-01,-2.076007239520549774e-02,-3.974727951572276652e-05,9.449843317270278931e-03,-9.056505560874938965e-02,-1.834828704595565796e-01,5.000000000000000000e-01,-6.072139949537813663e-04,0.000000000000000000e+00
2.500878810882568359e+00,5.549531250000000000e+02,1.522049560546875000e+02,1.522049560546875000e+02,3.856529593467712402e-01,2.329443842172622681e-01,-1.214599516242742538e-02,1.428656196594238281e+01,5.675239488482475281e-02,-4.853558493778109550e-06,-3.511527776718139648e-01,-1.575594581663608551e-02,-7.074367204040754586e-06,7.738207001239061356e-03,-8.670400083065032959e-02,-1.522318422794342041e-01,5.000000000000000000e-01,-4.136585630476474762e-04,0.000000000000000000e+00
2.560195446014404297e+00,5.549531250000000000e+02,1.522049560546875000e+02,1.522049560546875000e+02,3.856529593467712402e-01,2.329443842172622681e-01,-1.214599516242742538e-02,1.428656196594238281e+01,5.675239488482475281e-02,-4.853558493778109550e-06,-3.511527776718139648e-01,-1.575594581663608551e-02,-7.074367204040754586e-06,7.738207001239061356e-03,-8.670400083065032959e-02,-1.522318422794342041e-01,5.000000000000000000e-01,-4.136585630476474762e-04,0.000000000000000000e+00
2.560195446014404297e+00,5.549531250000000000e+02,1.522049560546875000e+02,1.522049560546875000e+02,3.856529593467712402e-01,2.329443842172622681e-01,-1.214599516242742538e-02,1.428656196594238281e+01,5.675239488482475281e-02,-4.853558493778109550e-06,-3.511527776718139648e-01,-1.575594581663608551e-02,-7.074367204040754586e-06,7.738207001239061356e-03,-8.670400083065032959e-02,-1.522318422794342041e-01,5.000000000000000000e-01,-4.136585630476474762e-04,0.000000000000000000e+00
2.618730545043945312e+00,5.557994995117187500e+02,1.522083435058593750e+02,1.522083435058593750e+02,3.906731307506561279e-01,2.250458151102066040e-01,-1.254272274672985077e-02,1.425864982604980469e+01,5.558821558952331543e-02,-5.091865659778704867e-06,-4.768444895744323730e-01,-1.988856866955757141e-02,-4.071183866471983492e-06,6.960733793675899506e-03,-8.104733377695083618e-02,-1.254036873579025269e-01,5.000000000000000000e-01,-3.025991609320044518e-04,0.000000000000000000e+00
2.618730545043945312e+00,5.557994995117187500e+02,1.522083435058593750e+02,1.522083435058593750e+02,3.906731307506561279e-01,2.250458151102066040e-01,-1.254272274672985077e-02,1.425864982604980469e+01,5.558821558952331543e-02,-5.091865659778704867e-06,-4.768444895744323730e-01,-1.988856866955757141e-02,-4.071183866471983492e-06,6.960733793675899506e-03,-8.104733377695083618e-02,-1.254036873579025269e-01,5.000000000000000000e-01,-3.025991609320044518e-04,0.000000000000000000e+00
2.677334070205688477e+00,5.566330566406250000e+02,1.522116241455078125e+02,1.522116241455078125e+02,3.950376212596893311e-01,2.198906242847442627e-01,-1.260375976562500000e-02,1.422770500183105469e+01,5.544255301356315613e-02,-3.671108743219519965e-06,-5.280368924140930176e-01,-2.485560020431876183e-03,2.424353988317307085e-05,5.905651487410068512e-04,-7.084171473979949951e-02,-7.199290394783020020e-02,5.000000000000000000e-01,1.602108932274859399e-05,0.000000000000000000e+00
2.677334070205688477e+00,5.566330566406250000e+02,1.522116241455078125e+02,1.522116241455078125e+02,3.950376212596893311e-01,2.198906242847442627e-01,-1.260375976562500000e-02,1.422770500183105469e+01,5.544255301356315613e-02,-3.671108743219519965e-06,-5.280368924140930176e-01,-2.485560020431876183e-03,2.424353988317307085e-05,5.905651487410068512e-04,-7.084171473979949951e-02,-7.199290394783020020e-02,5.000000000000000000e-01,1.602108932274859399e-05,0.000000000000000000e+00
2.677334070205688477e+00,5.566330566406250000e+02,1.522116241455078125e+02,1.522116241455078125e+02,3.950376212596893311e-01,2.198906242847442627e-01,-1.260375976562500000e-02,1.422770500183105469e+01,5.544255301356315613e-02,-3.671108743219519965e-06,-5.280368924140930176e-01,-2.485560020431876183e-03,2.424353988317307085e-05,5.905651487410068512e-04,-7.084171473979949951e-02,-7.199290394783020020e-02,5.000000000000000000e-01,1.602108932274859399e-05,0.000000000000000000e+00
2.677334070205688477e+00,5.566330566406250000e+02,1.522116241455078125e+02,1.522116241455078125e+02,3.950376212596893311e-01,2.198906242847442627e-01,-1.260375976562500000e-02,1.422770500183105469e+01,5.544255301356315613e-02,-3.671108743219519965e-06,-5.280368924140930176e-01,-2.485560020431876183e-03,2.424353988317307085e-05,5.905651487410068512e-04,-7.084171473979949951e-02,-7.199290394783020020e-02,5.000000000000000000e-01,1.602108932274859399e-05,0.000000000000000000e+00
2.755024909973144531e+00,5.574656372070312500e+02,1.522148895263671875e+02,1.522148895263671875e+02,3.988283872604370117e-01,2.173088192939758301e-01,-1.251220609992742538e-02,1.419442749023437500e+01,5.540838465094566345e-02,-5.330258318281266838e-06,-4.283325076103210449e-01,-4.397991287987679243e-04,-2.135579416062682867e-05,-1.591000473126769066e-03,-6.079774349927902222e-02,-3.201650828123092651e-02,5.000000000000000000e-01,1.550753222545608878e-04,0.000000000000000000e+00
2.755024909973144531e+00,5.574656372070312500e+02,1.522148895263671875e+02,1.522148895263671875e+02,3.988283872604370117e-01,2.173088192939758301e-01,-1.251220609992742538e-02,1.419442749023437500e+01,5.540838465094566345e-02,-5.330258318281266838e-06,-4.283325076103210449e-01,-4.397991287987679243e-04,-2.135579416062682867e-05,-1.591000473126769066e-03,-6.079774349927902222e-02,-3.201650828123092651e-02,5.000000000000000000e-01,1.550753222545608878e-04,0.000000000000000000e+00
2.755024909973144531e+00,5.574656372070312500e+02,1.522148895263671875e+02,1.522148895263671875e+02,3.988283872604370117e-01,2.173088192939758301e-01,-1.251220609992742538e-02,1.419442749023437500e+01,5.540838465094566345e-02,-5.330258318281266838e-06,-4.283325076103210449e-01,-4.397991287987679243e-04,-2.135579416062682867e-05,-1.591000473126769066e-03,-6.079774349927902222e-02,-3.201650828123092651e-02,5.000000000000000000e-01,1.550753222545608878e-04,0.000000000000000000e+00
2.830169916152954102e+00,5.585663452148437500e+02,1.522191925048828125e+02,1.522191925048828125e+02,4.029879570007324219e-01,2.168179899454116821e-01,-1.226806454360485077e-02,1.414804077148437500e+01,5.560936778783798218e-02,-2.355209517190814950e-06,-6.172960996627807617e-01,2.674604067578911781e-03,3.959077002946287394e-05,-2.840574830770492554e-03,-4.831235483288764954e-02,4.718337208032608032e-03,5.000000000000000000e-01,2.684544306248426437e-04,0.000000000000000000e+00
2.830169916152954102e+00,5.585663452148437500e+02,1.522191925048828125e+02,1.522191925048828125e+02,4.029879570007324219e-01,2.168179899454116821e-01,-1.226806454360485077e-02,1.414804077148437500e+01,5.560936778783798218e-02,-2.355209517190814950e-06,-6.172960996627807617e-01,2.674604067578911781e-03,3.959077002946287394e-05,-2.840574830770492554e-03,-4.831235483288764954e-02,4.718337208032608032e-03,5.000000000000000000e-01,2.684544306248426437e-04,0.000000000000000000e+00
2.830169916152954102e+00,5.585663452148437500e+02,1.522191925048828125e+02,1.522191925048828125e+02,4.029879570007324219e-01,2.168179899454116821e-01,-1.226806454360485077e-02,1.414804077148437500e+01,5.560936778783798218e-02,-2.355209517190814950e-06,-6.172960996627807617e-01,2.674604067578911781e-03,3.959077002946287394e-05,-2.840574830770492554e-03,-4.831235483288764954e-02,4.718337208032608032e-03,5.000000000000000000e-01,2.684544306248426437e-04,0.000000000000000000e+00
2.830169916152954102e+00,5.585663452148437500e+02,1.522191925048828125e+02,1.522191925048828125e+02,4.029879570007324219e-01,2.168179899454116821e-01,-1.226806454360485077e-02,1.414804077148437500e+01,5.560936778783798218e-02,-2.355209517190814950e-06,-6.172960996627807617e-01,2.674604067578911781e-03,3.959077002946287394e-05,-2.840574830770492554e-03,-4.831235483288764954e-02,4.718337208032608032e-03,5.000000000000000000e-01,2.684544306248426437e-04,0.000000000000000000e+00
2.830169916152954102e+00,5.585663452148437500e+02,1.522191925048828125e+02,1.522191925048828125e+02,4.029879570007324219e-01,2.168179899454116821e-01,-1.226806454360485077e-02,1.414804077148437500e+01,5.560936778783798218e-02,-2.355209517190814950e-06,-6.172960996627807617e-01,2.674604067578911781e-03,3.959077002946287394e-05,-2.840574830770492554e-03,-4.831235483288764954e-02,4.718337208032608032e-03,5.000000000000000000e-01,2.684544306248426437e-04,0.000000000000000000e+00
2.917726278305053711e+00,5.596273803710937500e+02,1.522233581542968750e+02,1.522233581542968750e+02,4.061025381088256836e-01,2.185000032186508179e-01,-1.193237304687500000e-02,1.410172462463378906e+01,5.612953007221221924e-02,-3.604347284635878168e-06,-5.289866328239440918e-01,5.940884817391633987e-03,-1.426666949555510655e-05,-4.041716456413269043e-03,-3.734410926699638367e-02,3.011529706418514252e-02,5.000000000000000000e-01,3.624771197792142630e-04,0.000000000000000000e+00
