# Time,X,Y,Z,Roll,Pitch,Yaw,Vx,Vy,Vz,Ax,Ay,Az,Wx,Wy,Wz,Throttle,Steer,Brake
0.000000000000000000e+00,-2.436416168212890625e+02,1.350063629150390625e+02,1.350063629150390625e+02,-1.726330220699310303e-01,-1.798700714111328125e+02,-4.882811626885086298e-04,-1.478309631347656250e+01,-3.435322642326354980e-02,-3.718804180152801564e-07,7.733216881752014160e-01,-1.638842630200088024e-03,1.012023494695313275e-05,1.072206669050501660e-05,-3.391920402646064758e-02,7.054554298520088196e-03,5.000000000000000000e-01,1.719156862236559391e-04,0.000000000000000000e+00
1.045818328857421875e-01,-2.436416168212890625e+02,1.350063629150390625e+02,1.350063629150390625e+02,-1.726330220699310303e-01,-1.798700714111328125e+02,-4.882811626885086298e-04,-1.478309631347656250e+01,-3.435322642326354980e-02,-3.718804180152801564e-07,7.733216881752014160e-01,-1.638842630200088024e-03,1.012023494695313275e-05,1.072206669050501660e-05,-3.391920402646064758e-02,7.054554298520088196e-03,5.000000000000000000e-01,1.719156862236559391e-04,0.000000000000000000e+00
1.045818328857421875e-01,-2.436416168212890625e+02,1.350063629150390625e+02,1.350063629150390625e+02,-1.726330220699310303e-01,-1.798700714111328125e+02,-4.882811626885086298e-04,-1.478309631347656250e+01,-3.435322642326354980e-02,-3.718804180152801564e-07,7.733216881752014160e-01,-1.638842630200088024e-03,1.012023494695313275e-05,1.072206669050501660e-05,-3.391920402646064758e-02,7.054554298520088196e-03,5.000000000000000000e-01,1.719156862236559391e-04,0.000000000000000000e+00
1.045818328857421875e-01,-2.436416168212890625e+02,1.350063629150390625e+02,1.350063629150390625e+02,-1.726330220699310303e-01,-1.798700714111328125e+02,-4.882811626885086298e-04,-1.478309631347656250e+01,-3.435322642326354980e-02,-3.718804180152801564e-07,7.733216881752014160e-01,-1.638842630200088024e-03,1.012023494695313275e-05,1.072206669050501660e-05,-3.391920402646064758e-02,7.054554298520088196e-03,5.000000000000000000e-01,1.719156862236559391e-04,0.000000000000000000e+00
1.045818328857421875e-01,-2.436416168212890625e+02,1.350063629150390625e+02,1.350063629150390625e+02,-1.726330220699310303e-01,-1.798700714111328125e+02,-4.882811626885086298e-04,-1.478309631347656250e+01,-3.435322642326354980e-02,-3.718804180152801564e-07,7.733216881752014160e-01,-1.638842630200088024e-03,1.012023494695313275e-05,1.072206669050501660e-05,-3.391920402646064758e-02,7.054554298520088196e-03,5.000000000000000000e-01,1.719156862236559391e-04,0.000000000000000000e+00
1.045818328857421875e-01,-2.436416168212890625e+02,1.350063629150390625e+02,1.350063629150390625e+02,-1.726330220699310303e-01,-1.798700714111328125e+02,-4.882811626885086298e-04,-1.478309631347656250e+01,-3.435322642326354980e-02,-3.718804180152801564e-07,7.733216881752014160e-01,-1.638842630200088024e-03,1.012023494695313275e-05,1.072206669050501660e-05,-3.391920402646064758e-02,7.054554298520088196e-03,5.000000000000000000e-01,1.719156862236559391e-04,0.000000000000000000e+00
1.045818328857421875e-01,-2.451138610839843750e+02,1.350029144287109375e+02,1.350029144287109375e+02,-1.756587922573089600e-01,-1.798694763183593750e+02,-4.882812208961695433e-04,-1.467762279510498047e+01,-3.430891036987304688e-02,8.390935590796289034e-07,1.007302165031433105e+00,4.232309584040194750e-04,1.156514736067038029e-05,1.676360261626541615e-04,-2.680082619190216064e-02,4.683352541178464890e-03,5.000000000000000000e-01,1.586914004292339087e-04,0.000000000000000000e+00
2.092907428741455078e-01,-2.451138610839843750e+02,1.350029144287109375e+02,1.350029144287109375e+02,-1.756587922573089600e-01,-1.798694763183593750e+02,-4.882812208961695433e-04,-1.467762279510498047e+01,-3.430891036987304688e-02,8.390935590796289034e-07,1.007302165031433105e+00,4.232309584040194750e-04,1.156514736067038029e-05,1.676360261626541615e-04,-2.680082619190216064e-02,4.683352541178464890e-03,5.000000000000000000e-01,1.586914004292339087e-04,0.000000000000000000e+00
2.092907428741455078e-01,-2.451138610839843750e+02,1.350029144287109375e+02,1.350029144287109375e+02,-1.756587922573089600e-01,-1.798694763183593750e+02,-4.882812208961695433e-04,-1.467762279510498047e+01,-3.430891036987304688e-02,8.390935590796289034e-07,1.007302165031433105e+00,4.232309584040194750e-04,1.156514736067038029e-05,1.676360261626541615e-04,-2.680082619190216064e-02,4.683352541178464890e-03,5.000000000000000000e-01,1.586914004292339087e-04,0.000000000000000000e+00
2.092907428741455078e-01,-2.451138610839843750e+02,1.350029144287109375e+02,1.350029144287109375e+02,-1.756587922573089600e-01,-1.798694763183593750e+02,-4.882812208961695433e-04,-1.467762279510498047e+01,-3.430891036987304688e-02,8.390935590796289034e-07,1.007302165031433105e+00,4.232309584040194750e-04,1.156514736067038029e-05,1.676360261626541615e-04,-2.680082619190216064e-02,4.683352541178464890e-03,5.000000000000000000e-01,1.586914004292339087e-04,0.000000000000000000e+00
2.092907428741455078e-01,-2.451138610839843750e+02,1.350029144287109375e+02,1.350029144287109375e+02,-1.756587922573089600e-01,-1.798694763183593750e+02,-4.882812208961695433e-04,-1.467762279510498047e+01,-3.430891036987304688e-02,8.390935590796289034e-07,1.007302165031433105e+00,4.232309584040194750e-04,1.156514736067038029e-05,1.676360261626541615e-04,-2.680082619190216064e-02,4.683352541178464890e-03,5.000000000000000000e-01,1.586914004292339087e-04,0.000000000000000000e+00
2.092907428741455078e-01,-2.465751190185546875e+02,1.349995117187500000e+02,1.349995117187500000e+02,-1.779469102621078491e-01,-1.798694763183593750e+02,-4.882812208961695433e-04,-1.456496715545654297e+01,-3.404863178730010986e-02,-4.386170644465892110e-07,1.509753227233886719e+00,3.488120390102267265e-03,-1.712322409730404615e-05,2.213659172412008047e-04,-2.006039954721927643e-02,-1.811323687434196472e-03,5.000000000000000000e-01,1.312255917582660913e-04,0.000000000000000000e+00
2.839093208312988281e-01,-2.465751190185546875e+02,1.349995117187500000e+02,1.349995117187500000e+02,-1.779469102621078491e-01,-1.798694763183593750e+02,-4.882812208961695433e-04,-1.456496715545654297e+01,-3.404863178730010986e-02,-4.386170644465892110e-07,1.509753227233886719e+00,3.488120390102267265e-03,-1.712322409730404615e-05,2.213659172412008047e-04,-2.006039954721927643e-02,-1.811323687434196472e-03,5.000000000000000000e-01,1.312255917582660913e-04,0.000000000000000000e+00
2.839093208312988281e-01,-2.465751190185546875e+02,1.349995117187500000e+02,1.349995117187500000e+02,-1.779469102621078491e-01,-1.798694763183593750e+02,-4.882812208961695433e-04,-1.456496715545654297e+01,-3.404863178730010986e-02,-4.386170644465892110e-07,1.509753227233886719e+00,3.488120390102267265e-03,-1.712322409730404615e-05,2.213659172412008047e-04,-2.006039954721927643e-02,-1.811323687434196472e-03,5.000000000000000000e-01,1.312255917582660913e-04,0.000000000000000000e+00
2.839093208312988281e-01,-2.465751190185546875e+02,1.349995117187500000e+02,1.349995117187500000e+02,-1.779469102621078491e-01,-1.798694763183593750e+02,-4.882812208961695433e-04,-1.456496715545654297e+01,-3.404863178730010986e-02,-4.386170644465892110e-07,1.509753227233886719e+00,3.488120390102267265e-03,-1.712322409730404615e-05,2.213659172412008047e-04,-2.006039954721927643e-02,-1.811323687434196472e-03,5.000000000000000000e-01,1.312255917582660913e-04,0.000000000000000000e+00
2.839093208312988281e-01,-2.465751190185546875e+02,1.349995117187500000e+02,1.349995117187500000e+02,-1.779469102621078491e-01,-1.798694763183593750e+02,-4.882812208961695433e-04,-1.456496715545654297e+01,-3.404863178730010986e-02,-4.386170644465892110e-07,1.509753227233886719e+00,3.488120390102267265e-03,-1.712322409730404615e-05,2.213659172412008047e-04,-2.006039954721927643e-02,-1.811323687434196472e-03,5.000000000000000000e-01,1.312255917582660913e-04,0.000000000000000000e+00
3.569011688232421875e-01,-2.476580352783203125e+02,1.349969635009765625e+02,1.349969635009765625e+02,-1.792309880256652832e-01,-1.798693542480468750e+02,-4.577637009788304567e-04,-1.447801494598388672e+01,-3.401663154363632202e-02,-4.004834295301407110e-07,1.191259145736694336e+00,4.384084604680538177e-04,5.224368919698463287e-07,4.260661808075383306e-05,-1.584521308541297913e-02,2.274367259815335274e-03,5.000000000000000000e-01,1.786973734851926565e-04,0.000000000000000000e+00
3.569011688232421875e-01,-2.476580352783203125e+02,1.349969635009765625e+02,1.349969635009765625e+02,-1.792309880256652832e-01,-1.798693542480468750e+02,-4.577637009788304567e-04,-1.447801494598388672e+01,-3.401663154363632202e-02,-4.004834295301407110e-07,1.191259145736694336e+00,4.384084604680538177e-04,5.224368919698463287e-07,4.260661808075383306e-05,-1.584521308541297913e-02,2.274367259815335274e-03,5.000000000000000000e-01,1.786973734851926565e-04,0.000000000000000000e+00
3.569011688232421875e-01,-2.476580352783203125e+02,1.349969635009765625e+02,1.349969635009765625e+02,-1.792309880256652832e-01,-1.798693542480468750e+02,-4.577637009788304567e-04,-1.447801494598388672e+01,-3.401663154363632202e-02,-4.004834295301407110e-07,1.191259145736694336e+00,4.384084604680538177e-04,5.224368919698463287e-07,4.260661808075383306e-05,-1.584521308541297913e-02,2.274367259815335274e-03,5.000000000000000000e-01,1.786973734851926565e-04,0.000000000000000000e+00
3.569011688232421875e-01,-2.476580352783203125e+02,1.349969635009765625e+02,1.349969635009765625e+02,-1.792309880256652832e-01,-1.798693542480468750e+02,-4.577637009788304567e-04,-1.447801494598388672e+01,-3.401663154363632202e-02,-4.004834295301407110e-07,1.191259145736694336e+00,4.384084604680538177e-04,5.224368919698463287e-07,4.260661808075383306e-05,-1.584521308541297913e-02,2.274367259815335274e-03,5.000000000000000000e-01,1.786973734851926565e-04,0.000000000000000000e+00
4.765405654907226562e-01,-2.487110748291015625e+02,1.349944763183593750e+02,1.349944763183593750e+02,-1.802418529987335205e-01,-1.798693542480468750e+02,-4.577636136673390865e-04,-1.439158153533935547e+01,-3.381074219942092896e-02,7.628280940252807341e-08,7.224494218826293945e-01,1.720916014164686203e-03,3.985027433373034000e-06,1.068071505869738758e-04,-1.261677592992782593e-02,1.896561298053711653e-05,5.000000000000000000e-01,1.529269793536514044e-04,0.000000000000000000e+00
4.765405654907226562e-01,-2.487110748291015625e+02,1.349944763183593750e+02,1.349944763183593750e+02,-1.802418529987335205e-01,-1.798693542480468750e+02,-4.577636136673390865e-04,-1.439158153533935547e+01,-3.381074219942092896e-02,7.628280940252807341e-08,7.224494218826293945e-01,1.720916014164686203e-03,3.985027433373034000e-06,1.068071505869738758e-04,-1.261677592992782593e-02,1.896561298053711653e-05,5.000000000000000000e-01,1.529269793536514044e-04,0.000000000000000000e+00
4.765405654907226562e-01,-2.487110748291015625e+02,1.349944763183593750e+02,1.349944763183593750e+02,-1.802418529987335205e-01,-1.798693542480468750e+02,-4.577636136673390865e-04,-1.439158153533935547e+01,-3.381074219942092896e-02,7.628280940252807341e-08,7.224494218826293945e-01,1.720916014164686203e-03,3.985027433373034000e-06,1.068071505869738758e-04,-1.261677592992782593e-02,1.896561298053711653e-05,5.000000000000000000e-01,1.529269793536514044e-04,0.000000000000000000e+00
4.765405654907226562e-01,-2.487110748291015625e+02,1.349944763183593750e+02,1.349944763183593750e+02,-1.802418529987335205e-01,-1.798693542480468750e+02,-4.577636136673390865e-04,-1.439158153533935547e+01,-3.381074219942092896e-02,7.628280940252807341e-08,7.224494218826293945e-01,1.720916014164686203e-03,3.985027433373034000e-06,1.068071505869738758e-04,-1.261677592992782593e-02,1.896561298053711653e-05,5.000000000000000000e-01,1.529269793536514044e-04,0.000000000000000000e+00
4.765405654907226562e-01,-2.487110748291015625e+02,1.349944763183593750e+02,1.349944763183593750e+02,-1.802418529987335205e-01,-1.798693542480468750e+02,-4.577636136673390865e-04,-1.439158153533935547e+01,-3.381074219942092896e-02,7.628280940252807341e-08,7.224494218826293945e-01,1.720916014164686203e-03,3.985027433373034000e-06,1.068071505869738758e-04,-1.261677592992782593e-02,1.896561298053711653e-05,5.000000000000000000e-01,1.529269793536514044e-04,0.000000000000000000e+00
4.765405654907226562e-01,-2.487110748291015625e+02,1.349944763183593750e+02,1.349944763183593750e+02,-1.802418529987335205e-01,-1.798693542480468750e+02,-4.577636136673390865e-04,-1.439158153533935547e+01,-3.381074219942092896e-02,7.628280940252807341e-08,7.224494218826293945e-01,1.720916014164686203e-03,3.985027433373034000e-06,1.068071505869738758e-04,-1.261677592992782593e-02,1.896561298053711653e-05,5.000000000000000000e-01,1.529269793536514044e-04,0.000000000000000000e+00
4.765405654907226562e-01,-2.487110748291015625e+02,1.349944763183593750e+02,1.349944763183593750e+02,-1.802418529987335205e-01,-1.798693542480468750e+02,-4.577636136673390865e-04,-1.439158153533935547e+01,-3.381074219942092896e-02,7.628280940252807341e-08,7.224494218826293945e-01,1.720916014164686203e-03,3.985027433373034000e-06,1.068071505869738758e-04,-1.261677592992782593e-02,1.896561298053711653e-05,5.000000000000000000e-01,1.529269793536514044e-04,0.000000000000000000e+00
6.200885772705078125e-01,-2.501432800292968750e+02,1.349911346435546875e+02,1.349911346435546875e+02,-1.813073605298995972e-01,-1.798696594238281250e+02,-4.577636718750000000e-04,-1.427212047576904297e+01,-3.340640291571617126e-02,7.628123199765468598e-08,8.322028517723083496e-01,2.816752996295690536e-03,-1.098869172738714539e-11,1.553302427055314183e-04,-8.959942497313022614e-03,-4.773485939949750900e-03,5.000000000000000000e-01,1.291910739382728934e-04,0.000000000000000000e+00
6.200885772705078125e-01,-2.501432800292968750e+02,1.349911346435546875e+02,1.349911346435546875e+02,-1.813073605298995972e-01,-1.798696594238281250e+02,-4.577636718750000000e-04,-1.427212047576904297e+01,-3.340640291571617126e-02,7.628123199765468598e-08,8.322028517723083496e-01,2.816752996295690536e-03,-1.098869172738714539e-11,1.553302427055314183e-04,-8.959942497313022614e-03,-4.773485939949750900e-03,5.000000000000000000e-01,1.291910739382728934e-04,0.000000000000000000e+00
6.200885772705078125e-01,-2.501432800292968750e+02,1.349911346435546875e+02,1.349911346435546875e+02,-1.813073605298995972e-01,-1.798696594238281250e+02,-4.577636718750000000e-04,-1.427212047576904297e+01,-3.340640291571617126e-02,7.628123199765468598e-08,8.322028517723083496e-01,2.816752996295690536e-03,-1.098869172738714539e-11,1.553302427055314183e-04,-8.959942497313022614e-03,-4.773485939949750900e-03,5.000000000000000000e-01,1.291910739382728934e-04,0.000000000000000000e+00
6.200885772705078125e-01,-2.501432800292968750e+02,1.349911346435546875e+02,1.349911346435546875e+02,-1.813073605298995972e-01,-1.798696594238281250e+02,-4.577636718750000000e-04,-1.427212047576904297e+01,-3.340640291571617126e-02,7.628123199765468598e-08,8.322028517723083496e-01,2.816752996295690536e-03,-1.098869172738714539e-11,1.553302427055314183e-04,-8.959942497313022614e-03,-4.773485939949750900e-03,5.000000000000000000e-01,1.291910739382728934e-04,0.000000000000000000e+00
6.200885772705078125e-01,-2.501432800292968750e+02,1.349911346435546875e+02,1.349911346435546875e+02,-1.813073605298995972e-01,-1.798696594238281250e+02,-4.577636718750000000e-04,-1.427212047576904297e+01,-3.340640291571617126e-02,7.628123199765468598e-08,8.322028517723083496e-01,2.816752996295690536e-03,-1.098869172738714539e-11,1.553302427055314183e-04,-8.959942497313022614e-03,-4.773485939949750900e-03,5.000000000000000000e-01,1.291910739382728934e-04,0.000000000000000000e+00
6.200885772705078125e-01,-2.501432800292968750e+02,1.349911346435546875e+02,1.349911346435546875e+02,-1.813073605298995972e-01,-1.798696594238281250e+02,-4.577636718750000000e-04,-1.427212047576904297e+01,-3.340640291571617126e-02,7.628123199765468598e-08,8.322028517723083496e-01,2.816752996295690536e-03,-1.098869172738714539e-11,1.553302427055314183e-04,-8.959942497313022614e-03,-4.773485939949750900e-03,5.000000000000000000e-01,1.291910739382728934e-04,0.000000000000000000e+00
7.946169376373291016e-01,-2.515635070800781250e+02,1.349877929687500000e+02,1.349877929687500000e+02,-1.820108741521835327e-01,-1.798698577880859375e+02,-4.577636718750000000e-04,-1.415243053436279297e+01,-3.318212553858757019e-02,-3.432655262258776929e-07,6.857907772064208984e-01,1.285048318095505238e-03,-2.403888629487482831e-06,6.392360228346660733e-05,-5.981290712952613831e-03,-7.174407946877181530e-04,5.000000000000000000e-01,1.637776731513440609e-04,0.000000000000000000e+00
7.946169376373291016e-01,-2.515635070800781250e+02,1.349877929687500000e+02,1.349877929687500000e+02,-1.820108741521835327e-01,-1.798698577880859375e+02,-4.577636718750000000e-04,-1.415243053436279297e+01,-3.318212553858757019e-02,-3.432655262258776929e-07,6.857907772064208984e-01,1.285048318095505238e-03,-2.403888629487482831e-06,6.392360228346660733e-05,-5.981290712952613831e-03,-7.174407946877181530e-04,5.000000000000000000e-01,1.637776731513440609e-04,0.000000000000000000e+00
7.946169376373291016e-01,-2.515635070800781250e+02,1.349877929687500000e+02,1.349877929687500000e+02,-1.820108741521835327e-01,-1.798698577880859375e+02,-4.577636718750000000e-04,-1.415243053436279297e+01,-3.318212553858757019e-02,-3.432655262258776929e-07,6.857907772064208984e-01,1.285048318095505238e-03,-2.403888629487482831e-06,6.392360228346660733e-05,-5.981290712952613831e-03,-7.174407946877181530e-04,5.000000000000000000e-01,1.637776731513440609e-04,0.000000000000000000e+00
8.783230781555175781e-01,-2.529774017333984375e+02,1.349844665527343750e+02,1.349844665527343750e+02,-1.802623420953750610e-01,-1.798681793212890625e+02,-4.577636136673390865e-04,-1.412703132629394531e+01,-3.323388844728469849e-02,1.907030799941367150e-08,3.034330308437347412e-01,-6.183884688653051853e-04,4.328664999775355682e-06,-2.064454165520146489e-04,2.277979813516139984e-02,2.314900979399681091e-02,5.000000000000000000e-01,1.593695778865367174e-04,0.000000000000000000e+00
8.783230781555175781e-01,-2.529774017333984375e+02,1.349844665527343750e+02,1.349844665527343750e+02,-1.802623420953750610e-01,-1.798681793212890625e+02,-4.577636136673390865e-04,-1.412703132629394531e+01,-3.323388844728469849e-02,1.907030799941367150e-08,3.034330308437347412e-01,-6.183884688653051853e-04,4.328664999775355682e-06,-2.064454165520146489e-04,2.277979813516139984e-02,2.314900979399681091e-02,5.000000000000000000e-01,1.593695778865367174e-04,0.000000000000000000e+00
8.783230781555175781e-01,-2.529774017333984375e+02,1.349844665527343750e+02,1.349844665527343750e+02,-1.802623420953750610e-01,-1.798681793212890625e+02,-4.577636136673390865e-04,-1.412703132629394531e+01,-3.323388844728469849e-02,1.907030799941367150e-08,3.034330308437347412e-01,-6.183884688653051853e-04,4.328664999775355682e-06,-2.064454165520146489e-04,2.277979813516139984e-02,2.314900979399681091e-02,5.000000000000000000e-01,1.593695778865367174e-04,0.000000000000000000e+00
9.483780860900878906e-01,-2.541587829589843750e+02,1.349817199707031250e+02,1.349817199707031250e+02,-1.785274744033813477e-01,-1.798664855957031250e+02,-4.577636136673390865e-04,-1.410401439666748047e+01,-3.325227275490760803e-02,1.420776357008435298e-06,3.285551071166992188e-01,-2.624267362989485264e-04,2.000864878937136382e-05,-2.899089886341243982e-04,1.947573386132717133e-02,1.919941045343875885e-02,5.000000000000000000e-01,9.901258454192429781e-05,0.000000000000000000e+00
9.483780860900878906e-01,-2.541587829589843750e+02,1.349817199707031250e+02,1.349817199707031250e+02,-1.785274744033813477e-01,-1.798664855957031250e+02,-4.577636136673390865e-04,-1.410401439666748047e+01,-3.325227275490760803e-02,1.420776357008435298e-06,3.285551071166992188e-01,-2.624267362989485264e-04,2.000864878937136382e-05,-2.899089886341243982e-04,1.947573386132717133e-02,1.919941045343875885e-02,5.000000000000000000e-01,9.901258454192429781e-05,0.000000000000000000e+00
9.483780860900878906e-01,-2.541587829589843750e+02,1.349817199707031250e+02,1.349817199707031250e+02,-1.785274744033813477e-01,-1.798664855957031250e+02,-4.577636136673390865e-04,-1.410401439666748047e+01,-3.325227275490760803e-02,1.420776357008435298e-06,3.285551071166992188e-01,-2.624267362989485264e-04,2.000864878937136382e-05,-2.899089886341243982e-04,1.947573386132717133e-02,1.919941045343875885e-02,5.000000000000000000e-01,9.901258454192429781e-05,0.000000000000000000e+00
9.483780860900878906e-01,-2.541587829589843750e+02,1.349817199707031250e+02,1.349817199707031250e+02,-1.785274744033813477e-01,-1.798664855957031250e+02,-4.577636136673390865e-04,-1.410401439666748047e+01,-3.325227275490760803e-02,1.420776357008435298e-06,3.285551071166992188e-01,-2.624267362989485264e-04,2.000864878937136382e-05,-2.899089886341243982e-04,1.947573386132717133e-02,1.919941045343875885e-02,5.000000000000000000e-01,9.901258454192429781e-05,0.000000000000000000e+00
9.483780860900878906e-01,-2.551460418701171875e+02,1.349793853759765625e+02,1.349793853759765625e+02,-1.773390173912048340e-01,-1.798653106689453125e+02,-4.577636136673390865e-04,-1.408478736877441406e+01,-3.334689885377883911e-02,-1.239602909208770143e-07,2.440008819103240967e-01,-1.200853846967220306e-03,-1.960350346053019166e-05,-2.767773112282156944e-04,1.538521889597177505e-02,1.536868978291749954e-02,5.000000000000000000e-01,7.798936712788417935e-05,0.000000000000000000e+00
1.027177095413208008e+00,-2.551460418701171875e+02,1.349793853759765625e+02,1.349793853759765625e+02,-1.773390173912048340e-01,-1.798653106689453125e+02,-4.577636136673390865e-04,-1.408478736877441406e+01,-3.334689885377883911e-02,-1.239602909208770143e-07,2.440008819103240967e-01,-1.200853846967220306e-03,-1.960350346053019166e-05,-2.767773112282156944e-04,1.538521889597177505e-02,1.536868978291749954e-02,5.000000000000000000e-01,7.798936712788417935e-05,0.000000000000000000e+00
1.027177095413208008e+00,-2.551460418701171875e+02,1.349793853759765625e+02,1.349793853759765625e+02,-1.773390173912048340e-01,-1.798653106689453125e+02,-4.577636136673390865e-04,-1.408478736877441406e+01,-3.334689885377883911e-02,-1.239602909208770143e-07,2.440008819103240967e-01,-1.200853846967220306e-03,-1.960350346053019166e-05,-2.767773112282156944e-04,1.538521889597177505e-02,1.536868978291749954e-02,5.000000000000000000e-01,7.798936712788417935e-05,0.000000000000000000e+00
1.095043420791625977e+00,-2.562549133300781250e+02,1.349767608642578125e+02,1.349767608642578125e+02,-1.763008385896682739e-01,-1.798646545410156250e+02,-4.882811044808477163e-04,-1.406320190429687500e+01,-3.327974304556846619e-02,3.718743641911714803e-07,3.180585503578186035e-01,9.895305847749114037e-04,7.306048701138934121e-06,-8.655218698550015688e-05,1.130664255470037460e-02,5.768846254795789719e-03,5.000000000000000000e-01,1.864963087427895516e-05,0.000000000000000000e+00
1.095043420791625977e+00,-2.562549133300781250e+02,1.349767608642578125e+02,1.349767608642578125e+02,-1.763008385896682739e-01,-1.798646545410156250e+02,-4.882811044808477163e-04,-1.406320190429687500e+01,-3.327974304556846619e-02,3.718743641911714803e-07,3.180585503578186035e-01,9.895305847749114037e-04,7.306048701138934121e-06,-8.655218698550015688e-05,1.130664255470037460e-02,5.768846254795789719e-03,5.000000000000000000e-01,1.864963087427895516e-05,0.000000000000000000e+00
1.095043420791625977e+00,-2.562549133300781250e+02,1.349767608642578125e+02,1.349767608642578125e+02,-1.763008385896682739e-01,-1.798646545410156250e+02,-4.882811044808477163e-04,-1.406320190429687500e+01,-3.327974304556846619e-02,3.718743641911714803e-07,3.180585503578186035e-01,9.895305847749114037e-04,7.306048701138934121e-06,-8.655218698550015688e-05,1.130664255470037460e-02,5.768846254795789719e-03,5.000000000000000000e-01,1.864963087427895516e-05,0.000000000000000000e+00
1.095043420791625977e+00,-2.562549133300781250e+02,1.349767608642578125e+02,1.349767608642578125e+02,-1.763008385896682739e-01,-1.798646545410156250e+02,-4.882811044808477163e-04,-1.406320190429687500e+01,-3.327974304556846619e-02,3.718743641911714803e-07,3.180585503578186035e-01,9.895305847749114037e-04,7.306048701138934121e-06,-8.655218698550015688e-05,1.130664255470037460e-02,5.768846254795789719e-03,5.000000000000000000e-01,1.864963087427895516e-05,0.000000000000000000e+00
1.168572425842285156e+00,-2.572085571289062500e+02,1.349745025634765625e+02,1.349745025634765625e+02,-1.756861209869384766e-01,-1.798644866943359375e+02,-4.882811626885086298e-04,-1.404464340209960938e+01,-3.320554643869400024e-02,9.535448697306492249e-08,2.523970305919647217e-01,1.009079394862055779e-03,-3.760691015486372635e-06,-3.713961177709279582e-06,8.297865279018878937e-03,2.928072935901582241e-04,5.000000000000000000e-01,-3.390842039152630605e-06,0.000000000000000000e+00
1.168572425842285156e+00,-2.572085571289062500e+02,1.349745025634765625e+02,1.349745025634765625e+02,-1.756861209869384766e-01,-1.798644866943359375e+02,-4.882811626885086298e-04,-1.404464340209960938e+01,-3.320554643869400024e-02,9.535448697306492249e-08,2.523970305919647217e-01,1.009079394862055779e-03,-3.760691015486372635e-06,-3.713961177709279582e-06,8.297865279018878937e-03,2.928072935901582241e-04,5.000000000000000000e-01,-3.390842039152630605e-06,0.000000000000000000e+00
1.168572425842285156e+00,-2.572085571289062500e+02,1.349745025634765625e+02,1.349745025634765625e+02,-1.756861209869384766e-01,-1.798644866943359375e+02,-4.882811626885086298e-04,-1.404464340209960938e+01,-3.320554643869400024e-02,9.535448697306492249e-08,2.523970305919647217e-01,1.009079394862055779e-03,-3.760691015486372635e-06,-3.713961177709279582e-06,8.297865279018878937e-03,2.928072935901582241e-04,5.000000000000000000e-01,-3.390842039152630605e-06,0.000000000000000000e+00
1.168572425842285156e+00,-2.572085571289062500e+02,1.349745025634765625e+02,1.349745025634765625e+02,-1.756861209869384766e-01,-1.798644866943359375e+02,-4.882811626885086298e-04,-1.404464340209960938e+01,-3.320554643869400024e-02,9.535448697306492249e-08,2.523970305919647217e-01,1.009079394862055779e-03,-3.760691015486372635e-06,-3.713961177709279582e-06,8.297865279018878937e-03,2.928072935901582241e-04,5.000000000000000000e-01,-3.390842039152630605e-06,0.000000000000000000e+00
1.168572425842285156e+00,-2.582404174804687500e+02,1.349720611572265625e+02,1.349720611572265625e+02,-1.751738488674163818e-01,-1.798647155761718750e+02,-4.577636136673390865e-04,-1.402456855773925781e+01,-3.305031359195709229e-02,-1.220523586198396515e-06,2.674918174743652344e-01,2.068435074761509895e-03,-1.753371543600223958e-05,7.925740646896883845e-05,6.170074921101331711e-03,-4.935954231768846512e-03,5.000000000000000000e-01,-2.712673631322104484e-05,0.000000000000000000e+00
1.243620872497558594e+00,-2.582404174804687500e+02,1.349720611572265625e+02,1.349720611572265625e+02,-1.751738488674163818e-01,-1.798647155761718750e+02,-4.577636136673390865e-04,-1.402456855773925781e+01,-3.305031359195709229e-02,-1.220523586198396515e-06,2.674918174743652344e-01,2.068435074761509895e-03,-1.753371543600223958e-05,7.925740646896883845e-05,6.170074921101331711e-03,-4.935954231768846512e-03,5.000000000000000000e-01,-2.712673631322104484e-05,0.000000000000000000e+00
1.243620872497558594e+00,-2.582404174804687500e+02,1.349720611572265625e+02,1.349720611572265625e+02,-1.751738488674163818e-01,-1.798647155761718750e+02,-4.577636136673390865e-04,-1.402456855773925781e+01,-3.305031359195709229e-02,-1.220523586198396515e-06,2.674918174743652344e-01,2.068435074761509895e-03,-1.753371543600223958e-05,7.925740646896883845e-05,6.170074921101331711e-03,-4.935954231768846512e-03,5.000000000000000000e-01,-2.712673631322104484e-05,0.000000000000000000e+00
1.243620872497558594e+00,-2.582404174804687500e+02,1.349720611572265625e+02,1.349720611572265625e+02,-1.751738488674163818e-01,-1.798647155761718750e+02,-4.577636136673390865e-04,-1.402456855773925781e+01,-3.305031359195709229e-02,-1.220523586198396515e-06,2.674918174743652344e-01,2.068435074761509895e-03,-1.753371543600223958e-05,7.925740646896883845e-05,6.170074921101331711e-03,-4.935954231768846512e-03,5.000000000000000000e-01,-2.712673631322104484e-05,0.000000000000000000e+00
1.312042951583862305e+00,-2.592831726074218750e+02,1.349695739746093750e+02,1.349695739746093750e+02,-1.797432452440261841e-01,-1.798684234619140625e+02,-4.577636718750000000e-04,-1.371104621887207031e+01,-3.210126981139183044e-02,-7.628249250046792440e-07,4.582180976867675781e+00,1.387043204158544540e-02,6.689341716992203146e-06,4.138346412219107151e-04,-1.420601159334182739e-01,-1.067590638995170593e-01,5.000000000000000000e-01,-3.323025157442316413e-05,0.000000000000000000e+00
1.312042951583862305e+00,-2.592831726074218750e+02,1.349695739746093750e+02,1.349695739746093750e+02,-1.797432452440261841e-01,-1.798684234619140625e+02,-4.577636718750000000e-04,-1.371104621887207031e+01,-3.210126981139183044e-02,-7.628249250046792440e-07,4.582180976867675781e+00,1.387043204158544540e-02,6.689341716992203146e-06,4.138346412219107151e-04,-1.420601159334182739e-01,-1.067590638995170593e-01,5.000000000000000000e-01,-3.323025157442316413e-05,0.000000000000000000e+00
1.312042951583862305e+00,-2.602029724121093750e+02,1.349673461914062500e+02,1.349673461914062500e+02,-1.912862658500671387e-01,-1.798781738281250000e+02,-3.967284283135086298e-04,-1.327111816406250000e+01,-3.034093230962753296e-02,-5.406593572843121365e-06,6.188638210296630859e+00,2.476334758102893829e-02,-6.532568659167736769e-05,1.871720771305263042e-03,-1.720182299613952637e-01,-1.564220935106277466e-01,1.000000000000000000e+00,5.764431261923164129e-05,0.000000000000000000e+00
1.383129358291625977e+00,-2.602029724121093750e+02,1.349673461914062500e+02,1.349673461914062500e+02,-1.912862658500671387e-01,-1.798781738281250000e+02,-3.967284283135086298e-04,-1.327111816406250000e+01,-3.034093230962753296e-02,-5.406593572843121365e-06,6.188638210296630859e+00,2.476334758102893829e-02,-6.532568659167736769e-05,1.871720771305263042e-03,-1.720182299613952637e-01,-1.564220935106277466e-01,1.000000000000000000e+00,5.764431261923164129e-05,0.000000000000000000e+00
1.383129358291625977e+00,-2.602029724121093750e+02,1.349673461914062500e+02,1.349673461914062500e+02,-1.912862658500671387e-01,-1.798781738281250000e+02,-3.967284283135086298e-04,-1.327111816406250000e+01,-3.034093230962753296e-02,-5.406593572843121365e-06,6.188638210296630859e+00,2.476334758102893829e-02,-6.532568659167736769e-05,1.871720771305263042e-03,-1.720182299613952637e-01,-1.564220935106277466e-01,1.000000000000000000e+00,5.764431261923164129e-05,0.000000000000000000e+00
1.450951814651489258e+00,-2.611286621093750000e+02,1.349651794433593750e+02,1.349651794433593750e+02,-2.019003778696060181e-01,-1.798878784179687500e+02,-3.051758103538304567e-04,-1.286489868164062500e+01,-2.866163477301597595e-02,-4.166964117757743225e-06,5.989453792572021484e+00,2.476019971072673798e-02,1.827756568673066795e-05,1.709177740849554539e-03,-1.281456500291824341e-01,-1.232008486986160278e-01,1.000000000000000000e+00,3.350151819176971912e-04,0.000000000000000000e+00
1.450951814651489258e+00,-2.611286621093750000e+02,1.349651794433593750e+02,1.349651794433593750e+02,-2.019003778696060181e-01,-1.798878784179687500e+02,-3.051758103538304567e-04,-1.286489868164062500e+01,-2.866163477301597595e-02,-4.166964117757743225e-06,5.989453792572021484e+00,2.476019971072673798e-02,1.827756568673066795e-05,1.709177740849554539e-03,-1.281456500291824341e-01,-1.232008486986160278e-01,1.000000000000000000e+00,3.350151819176971912e-04,0.000000000000000000e+00
1.450951814651489258e+00,-2.611286621093750000e+02,1.349651794433593750e+02,1.349651794433593750e+02,-2.019003778696060181e-01,-1.798878784179687500e+02,-3.051758103538304567e-04,-1.286489868164062500e+01,-2.866163477301597595e-02,-4.166964117757743225e-06,5.989453792572021484e+00,2.476019971072673798e-02,1.827756568673066795e-05,1.709177740849554539e-03,-1.281456500291824341e-01,-1.232008486986160278e-01,1.000000000000000000e+00,3.350151819176971912e-04,0.000000000000000000e+00
1.527701377868652344e+00,-2.619873962402343750e+02,1.349632263183593750e+02,1.349632263183593750e+02,-2.083139270544052124e-01,-1.798936157226562500e+02,-2.441405813442543149e-04,-1.253473854064941406e+01,-2.751997672021389008e-02,-4.615157195075880736e-06,4.301785469055175781e+00,1.487510837614536285e-02,-5.839682671648915857e-06,8.436891948804259300e-04,-7.302502542734146118e-02,-6.223567947745323181e-02,1.000000000000000000e+00,6.049262010492384434e-04,0.000000000000000000e+00
1.527701377868652344e+00,-2.619873962402343750e+02,1.349632263183593750e+02,1.349632263183593750e+02,-2.083139270544052124e-01,-1.798936157226562500e+02,-2.441405813442543149e-04,-1.253473854064941406e+01,-2.751997672021389008e-02,-4.615157195075880736e-06,4.301785469055175781e+00,1.487510837614536285e-02,-5.839682671648915857e-06,8.436891948804259300e-04,-7.302502542734146118e-02,-6.223567947745323181e-02,1.000000000000000000e+00,6.049262010492384434e-04,0.000000000000000000e+00
1.527701377868652344e+00,-2.619873962402343750e+02,1.349632263183593750e+02,1.349632263183593750e+02,-2.083139270544052124e-01,-1.798936157226562500e+02,-2.441405813442543149e-04,-1.253473854064941406e+01,-2.751997672021389008e-02,-4.615157195075880736e-06,4.301785469055175781e+00,1.487510837614536285e-02,-5.839682671648915857e-06,8.436891948804259300e-04,-7.302502542734146118e-02,-6.223567947745323181e-02,1.000000000000000000e+00,6.049262010492384434e-04,0.000000000000000000e+00
1.600134611129760742e+00,-2.629347839355468750e+02,1.349611053466796875e+02,1.349611053466796875e+02,-2.114899605512619019e-01,-1.798946838378906250e+02,-2.441405813442543149e-04,-1.222685909271240234e+01,-2.707410976290702820e-02,-2.364749207117711194e-06,4.250527381896972656e+00,6.155557930469512939e-03,3.106872100033797324e-05,-1.296384143643081188e-04,-2.086103707551956177e-02,1.093788072466850281e-02,1.000000000000000000e+00,8.544921875000000000e-04,0.000000000000000000e+00
1.600134611129760742e+00,-2.629347839355468750e+02,1.349611053466796875e+02,1.349611053466796875e+02,-2.114899605512619019e-01,-1.798946838378906250e+02,-2.441405813442543149e-04,-1.222685909271240234e+01,-2.707410976290702820e-02,-2.364749207117711194e-06,4.250527381896972656e+00,6.155557930469512939e-03,3.106872100033797324e-05,-1.296384143643081188e-04,-2.086103707551956177e-02,1.093788072466850281e-02,1.000000000000000000e+00,8.544921875000000000e-04,0.000000000000000000e+00
1.600134611129760742e+00,-2.629347839355468750e+02,1.349611053466796875e+02,1.349611053466796875e+02,-2.114899605512619019e-01,-1.798946838378906250e+02,-2.441405813442543149e-04,-1.222685909271240234e+01,-2.707410976290702820e-02,-2.364749207117711194e-06,4.250527381896972656e+00,6.155557930469512939e-03,3.106872100033797324e-05,-1.296384143643081188e-04,-2.086103707551956177e-02,1.093788072466850281e-02,1.000000000000000000e+00,8.544921875000000000e-04,0.000000000000000000e+00
1.600134611129760742e+00,-2.629347839355468750e+02,1.349611053466796875e+02,1.349611053466796875e+02,-2.114899605512619019e-01,-1.798946838378906250e+02,-2.441405813442543149e-04,-1.222685909271240234e+01,-2.707410976290702820e-02,-2.364749207117711194e-06,4.250527381896972656e+00,6.155557930469512939e-03,3.106872100033797324e-05,-1.296384143643081188e-04,-2.086103707551956177e-02,1.093788072466850281e-02,1.000000000000000000e+00,8.544921875000000000e-04,0.000000000000000000e+00
1.600134611129760742e+00,-2.629347839355468750e+02,1.349611053466796875e+02,1.349611053466796875e+02,-2.114899605512619019e-01,-1.798946838378906250e+02,-2.441405813442543149e-04,-1.222685909271240234e+01,-2.707410976290702820e-02,-2.364749207117711194e-06,4.250527381896972656e+00,6.155557930469512939e-03,3.106872100033797324e-05,-1.296384143643081188e-04,-2.086103707551956177e-02,1.093788072466850281e-02,1.000000000000000000e+00,8.544921875000000000e-04,0.000000000000000000e+00
1.600134611129760742e+00,-2.638101806640625000e+02,1.349591827392578125e+02,1.349591827392578125e+02,-2.112440764904022217e-01,-1.798920593261718750e+02,-2.746581449173390865e-04,-1.199931144714355469e+01,-2.684841491281986237e-02,-7.342228514062298927e-07,1.972177982330322266e+00,1.956119667738676071e-03,1.413193422195035964e-05,-4.911510623060166836e-04,1.758878305554389954e-02,5.000801011919975281e-02,1.000000000000000000e+00,8.612738456577062607e-04,0.000000000000000000e+00
1.715513467788696289e+00,-2.638101806640625000e+02,1.349591827392578125e+02,1.349591827392578125e+02,-2.112440764904022217e-01,-1.798920593261718750e+02,-2.746581449173390865e-04,-1.199931144714355469e+01,-2.684841491281986237e-02,-7.342228514062298927e-07,1.972177982330322266e+00,1.956119667738676071e-03,1.413193422195035964e-05,-4.911510623060166836e-04,1.758878305554389954e-02,5.000801011919975281e-02,1.000000000000000000e+00,8.612738456577062607e-04,0.000000000000000000e+00
1.715513467788696289e+00,-2.638101806640625000e+02,1.349591827392578125e+02,1.349591827392578125e+02,-2.112440764904022217e-01,-1.798920593261718750e+02,-2.746581449173390865e-04,-1.199931144714355469e+01,-2.684841491281986237e-02,-7.342228514062298927e-07,1.972177982330322266e+00,1.956119667738676071e-03,1.413193422195035964e-05,-4.911510623060166836e-04,1.758878305554389954e-02,5.000801011919975281e-02,1.000000000000000000e+00,8.612738456577062607e-04,0.000000000000000000e+00
1.715513467788696289e+00,-2.638101806640625000e+02,1.349591827392578125e+02,1.349591827392578125e+02,-2.112440764904022217e-01,-1.798920593261718750e+02,-2.746581449173390865e-04,-1.199931144714355469e+01,-2.684841491281986237e-02,-7.342228514062298927e-07,1.972177982330322266e+00,1.956119667738676071e-03,1.413193422195035964e-05,-4.911510623060166836e-04,1.758878305554389954e-02,5.000801011919975281e-02,1.000000000000000000e+00,8.612738456577062607e-04,0.000000000000000000e+00
1.813115119934082031e+00,-2.649963989257812500e+02,1.349565277099609375e+02,1.349565277099609375e+02,-2.072757333517074585e-01,-1.798843536376953125e+02,-3.662109375000000000e-04,-1.177799415588378906e+01,-2.754829078912734985e-02,-8.963044706433720421e-07,2.267556905746459961e+00,-7.170738186687231064e-03,-1.660644215917272959e-06,-1.205581706017255783e-03,5.247222632169723511e-02,9.363502264022827148e-02,1.000000000000000000e+00,9.121365146711468697e-04,0.000000000000000000e+00
1.813115119934082031e+00,-2.649963989257812500e+02,1.349565277099609375e+02,1.349565277099609375e+02,-2.072757333517074585e-01,-1.798843536376953125e+02,-3.662109375000000000e-04,-1.177799415588378906e+01,-2.754829078912734985e-02,-8.963044706433720421e-07,2.267556905746459961e+00,-7.170738186687231064e-03,-1.660644215917272959e-06,-1.205581706017255783e-03,5.247222632169723511e-02,9.363502264022827148e-02,1.000000000000000000e+00,9.121365146711468697e-04,0.000000000000000000e+00
1.813115119934082031e+00,-2.649963989257812500e+02,1.349565277099609375e+02,1.349565277099609375e+02,-2.072757333517074585e-01,-1.798843536376953125e+02,-3.662109375000000000e-04,-1.177799415588378906e+01,-2.754829078912734985e-02,-8.963044706433720421e-07,2.267556905746459961e+00,-7.170738186687231064e-03,-1.660644215917272959e-06,-1.205581706017255783e-03,5.247222632169723511e-02,9.363502264022827148e-02,1.000000000000000000e+00,9.121365146711468697e-04,0.000000000000000000e+00
1.813115119934082031e+00,-2.661384277343750000e+02,1.349539184570312500e+02,1.349539184570312500e+02,-2.010534405708312988e-01,-1.798758544921875000e+02,-4.272460646461695433e-04,-1.165738964080810547e+01,-2.790584973990917206e-02,1.430278757652558852e-07,1.452721118927001953e+00,-4.306915216147899628e-03,1.251909998245537281e-05,-9.102534386329352856e-04,7.063298672437667847e-02,8.911459147930145264e-02,1.000000000000000000e+00,6.686740671284496784e-04,0.000000000000000000e+00
1.896134853363037109e+00,-2.661384277343750000e+02,1.349539184570312500e+02,1.349539184570312500e+02,-2.010534405708312988e-01,-1.798758544921875000e+02,-4.272460646461695433e-04,-1.165738964080810547e+01,-2.790584973990917206e-02,1.430278757652558852e-07,1.452721118927001953e+00,-4.306915216147899628e-03,1.251909998245537281e-05,-9.102534386329352856e-04,7.063298672437667847e-02,8.911459147930145264e-02,1.000000000000000000e+00,6.686740671284496784e-04,0.000000000000000000e+00
1.896134853363037109e+00,-2.661384277343750000e+02,1.349539184570312500e+02,1.349539184570312500e+02,-2.010534405708312988e-01,-1.798758544921875000e+02,-4.272460646461695433e-04,-1.165738964080810547e+01,-2.790584973990917206e-02,1.430278757652558852e-07,1.452721118927001953e+00,-4.306915216147899628e-03,1.251909998245537281e-05,-9.102534386329352856e-04,7.063298672437667847e-02,8.911459147930145264e-02,1.000000000000000000e+00,6.686740671284496784e-04,0.000000000000000000e+00
1.896134853363037109e+00,-2.661384277343750000e+02,1.349539184570312500e+02,1.349539184570312500e+02,-2.010534405708312988e-01,-1.798758544921875000e+02,-4.272460646461695433e-04,-1.165738964080810547e+01,-2.790584973990917206e-02,1.430278757652558852e-07,1.452721118927001953e+00,-4.306915216147899628e-03,1.251909998245537281e-05,-9.102534386329352856e-04,7.063298672437667847e-02,8.911459147930145264e-02,1.000000000000000000e+00,6.686740671284496784e-04,0.000000000000000000e+00
1.896134853363037109e+00,-2.661384277343750000e+02,1.349539184570312500e+02,1.349539184570312500e+02,-2.010534405708312988e-01,-1.798758544921875000e+02,-4.272460646461695433e-04,-1.165738964080810547e+01,-2.790584973990917206e-02,1.430278757652558852e-07,1.452721118927001953e+00,-4.306915216147899628e-03,1.251909998245537281e-05,-9.102534386329352856e-04,7.063298672437667847e-02,8.911459147930145264e-02,1.000000000000000000e+00,6.686740671284496784e-04,0.000000000000000000e+00
1.896134853363037109e+00,-2.661384277343750000e+02,1.349539184570312500e+02,1.349539184570312500e+02,-2.010534405708312988e-01,-1.798758544921875000e+02,-4.272460646461695433e-04,-1.165738964080810547e+01,-2.790584973990917206e-02,1.430278757652558852e-07,1.452721118927001953e+00,-4.306915216147899628e-03,1.251909998245537281e-05,-9.102534386329352856e-04,7.063298672437667847e-02,8.911459147930145264e-02,1.000000000000000000e+00,6.686740671284496784e-04,0.000000000000000000e+00
1.896134853363037109e+00,-2.661384277343750000e+02,1.349539184570312500e+02,1.349539184570312500e+02,-2.010534405708312988e-01,-1.798758544921875000e+02,-4.272460646461695433e-04,-1.165738964080810547e+01,-2.790584973990917206e-02,1.430278757652558852e-07,1.452721118927001953e+00,-4.306915216147899628e-03,1.251909998245537281e-05,-9.102534386329352856e-04,7.063298672437667847e-02,8.911459147930145264e-02,1.000000000000000000e+00,6.686740671284496784e-04,0.000000000000000000e+00
1.896134853363037109e+00,-2.661384277343750000e+02,1.349539184570312500e+02,1.349539184570312500e+02,-2.010534405708312988e-01,-1.798758544921875000e+02,-4.272460646461695433e-04,-1.165738964080810547e+01,-2.790584973990917206e-02,1.430278757652558852e-07,1.452721118927001953e+00,-4.306915216147899628e-03,1.251909998245537281e-05,-9.102534386329352856e-04,7.063298672437667847e-02,8.911459147930145264e-02,1.000000000000000000e+00,6.686740671284496784e-04,0.000000000000000000e+00
2.195794820785522461e+00,-2.692896118164062500e+02,1.349463500976562500e+02,1.349463500976562500e+02,-1.807199716567993164e-01,-1.798583984375000000e+02,-4.882811626885086298e-04,-1.170007705688476562e+01,-2.888935245573520660e-02,3.718786274475860409e-07,-1.158347249031066895e+00,-3.530967747792601585e-03,-2.533335646148771048e-05,-2.618817670736461878e-04,6.998026371002197266e-02,3.999745473265647888e-02,1.000000000000000000e+00,6.069607115932740271e-05,0.000000000000000000e+00
2.195794820785522461e+00,-2.692896118164062500e+02,1.349463500976562500e+02,1.349463500976562500e+02,-1.807199716567993164e-01,-1.798583984375000000e+02,-4.882811626885086298e-04,-1.170007705688476562e+01,-2.888935245573520660e-02,3.718786274475860409e-07,-1.158347249031066895e+00,-3.530967747792601585e-03,-2.533335646148771048e-05,-2.618817670736461878e-04,6.998026371002197266e-02,3.999745473265647888e-02,1.000000000000000000e+00,6.069607115932740271e-05,0.000000000000000000e+00
2.195794820785522461e+00,-2.692896118164062500e+02,1.349463500976562500e+02,1.349463500976562500e+02,-1.807199716567993164e-01,-1.798583984375000000e+02,-4.882811626885086298e-04,-1.170007705688476562e+01,-2.888935245573520660e-02,3.718786274475860409e-07,-1.158347249031066895e+00,-3.530967747792601585e-03,-2.533335646148771048e-05,-2.618817670736461878e-04,6.998026371002197266e-02,3.999745473265647888e-02,1.000000000000000000e+00,6.069607115932740271e-05,0.000000000000000000e+00
2.195794820785522461e+00,-2.692896118164062500e+02,1.349463500976562500e+02,1.349463500976562500e+02,-1.807199716567993164e-01,-1.798583984375000000e+02,-4.882811626885086298e-04,-1.170007705688476562e+01,-2.888935245573520660e-02,3.718786274475860409e-07,-1.158347249031066895e+00,-3.530967747792601585e-03,-2.533335646148771048e-05,-2.618817670736461878e-04,6.998026371002197266e-02,3.999745473265647888e-02,1.000000000000000000e+00,6.069607115932740271e-05,0.000000000000000000e+00
2.195794820785522461e+00,-2.692896118164062500e+02,1.349463500976562500e+02,1.349463500976562500e+02,-1.807199716567993164e-01,-1.798583984375000000e+02,-4.882811626885086298e-04,-1.170007705688476562e+01,-2.888935245573520660e-02,3.718786274475860409e-07,-1.158347249031066895e+00,-3.530967747792601585e-03,-2.533335646148771048e-05,-2.618817670736461878e-04,6.998026371002197266e-02,3.999745473265647888e-02,1.000000000000000000e+00,6.069607115932740271e-05,0.000000000000000000e+00
2.195794820785522461e+00,-2.692896118164062500e+02,1.349463500976562500e+02,1.349463500976562500e+02,-1.807199716567993164e-01,-1.798583984375000000e+02,-4.882811626885086298e-04,-1.170007705688476562e+01,-2.888935245573520660e-02,3.718786274475860409e-07,-1.158347249031066895e+00,-3.530967747792601585e-03,-2.533335646148771048e-05,-2.618817670736461878e-04,6.998026371002197266e-02,3.999745473265647888e-02,1.000000000000000000e+00,6.069607115932740271e-05,0.000000000000000000e+00
2.195794820785522461e+00,-2.692896118164062500e+02,1.349463500976562500e+02,1.349463500976562500e+02,-1.807199716567993164e-01,-1.798583984375000000e+02,-4.882811626885086298e-04,-1.170007705688476562e+01,-2.888935245573520660e-02,3.718786274475860409e-07,-1.158347249031066895e+00,-3.530967747792601585e-03,-2.533335646148771048e-05,-2.618817670736461878e-04,6.998026371002197266e-02,3.999745473265647888e-02,1.000000000000000000e+00,6.069607115932740271e-05,0.000000000000000000e+00
2.195794820785522461e+00,-2.692896118164062500e+02,1.349463500976562500e+02,1.349463500976562500e+02,-1.807199716567993164e-01,-1.798583984375000000e+02,-4.882811626885086298e-04,-1.170007705688476562e+01,-2.888935245573520660e-02,3.718786274475860409e-07,-1.158347249031066895e+00,-3.530967747792601585e-03,-2.533335646148771048e-05,-2.618817670736461878e-04,6.998026371002197266e-02,3.999745473265647888e-02,1.000000000000000000e+00,6.069607115932740271e-05,0.000000000000000000e+00
2.195794820785522461e+00,-2.692896118164062500e+02,1.349463500976562500e+02,1.349463500976562500e+02,-1.807199716567993164e-01,-1.798583984375000000e+02,-4.882811626885086298e-04,-1.170007705688476562e+01,-2.888935245573520660e-02,3.718786274475860409e-07,-1.158347249031066895e+00,-3.530967747792601585e-03,-2.533335646148771048e-05,-2.618817670736461878e-04,6.998026371002197266e-02,3.999745473265647888e-02,1.000000000000000000e+00,6.069607115932740271e-05,0.000000000000000000e+00
2.195794820785522461e+00,-2.692896118164062500e+02,1.349463500976562500e+02,1.349463500976562500e+02,-1.807199716567993164e-01,-1.798583984375000000e+02,-4.882811626885086298e-04,-1.170007705688476562e+01,-2.888935245573520660e-02,3.718786274475860409e-07,-1.158347249031066895e+00,-3.530967747792601585e-03,-2.533335646148771048e-05,-2.618817670736461878e-04,6.998026371002197266e-02,3.999745473265647888e-02,1.000000000000000000e+00,6.069607115932740271e-05,0.000000000000000000e+00
2.374083757400512695e+00,-2.699121704101562500e+02,1.349448394775390625e+02,1.349448394775390625e+02,-1.772775501012802124e-01,-1.798570098876953125e+02,-4.882812208961695433e-04,-1.174824428558349609e+01,-2.871512435376644135e-02,-4.863093749918334652e-07,-2.701638638973236084e-01,9.772232733666896820e-04,-4.813467512576607987e-06,-1.920038266689516604e-05,6.196944788098335266e-02,1.940192840993404388e-02,1.000000000000000000e+00,-1.346164208371192217e-04,0.000000000000000000e+00
2.374083757400512695e+00,-2.699121704101562500e+02,1.349448394775390625e+02,1.349448394775390625e+02,-1.772775501012802124e-01,-1.798570098876953125e+02,-4.882812208961695433e-04,-1.174824428558349609e+01,-2.871512435376644135e-02,-4.863093749918334652e-07,-2.701638638973236084e-01,9.772232733666896820e-04,-4.813467512576607987e-06,-1.920038266689516604e-05,6.196944788098335266e-02,1.940192840993404388e-02,1.000000000000000000e+00,-1.346164208371192217e-04,0.000000000000000000e+00
2.374083757400512695e+00,-2.699121704101562500e+02,1.349448394775390625e+02,1.349448394775390625e+02,-1.772775501012802124e-01,-1.798570098876953125e+02,-4.882812208961695433e-04,-1.174824428558349609e+01,-2.871512435376644135e-02,-4.863093749918334652e-07,-2.701638638973236084e-01,9.772232733666896820e-04,-4.813467512576607987e-06,-1.920038266689516604e-05,6.196944788098335266e-02,1.940192840993404388e-02,1.000000000000000000e+00,-1.346164208371192217e-04,0.000000000000000000e+00
2.447860002517700195e+00,-2.710921325683593750e+02,1.349419708251953125e+02,1.349419708251953125e+02,-1.720592826604843140e-01,-1.798567047119140625e+02,-4.882811626885086298e-04,-1.183433437347412109e+01,-2.858765237033367157e-02,2.002382188948104158e-06,-1.166908025741577148e+00,1.727818860672414303e-03,3.373296567588113248e-05,-1.720985310385003686e-04,4.230358079075813293e-02,-3.005075268447399139e-03,1.000000000000000000e+00,-2.017551014432683587e-04,0.000000000000000000e+00
2.447860002517700195e+00,-2.710921325683593750e+02,1.349419708251953125e+02,1.349419708251953125e+02,-1.720592826604843140e-01,-1.798567047119140625e+02,-4.882811626885086298e-04,-1.183433437347412109e+01,-2.858765237033367157e-02,2.002382188948104158e-06,-1.166908025741577148e+00,1.727818860672414303e-03,3.373296567588113248e-05,-1.720985310385003686e-04,4.230358079075813293e-02,-3.005075268447399139e-03,1.000000000000000000e+00,-2.017551014432683587e-04,0.000000000000000000e+00
2.500878810882568359e+00,-2.719678344726562500e+02,1.349397888183593750e+02,1.349397888183593750e+02,-1.696209013462066650e-01,-1.798540191650390625e+02,-5.798339261673390865e-04,-1.189254760742187500e+01,-3.049693442881107330e-02,-2.383833930252876598e-07,-1.097973227500915527e+00,-3.601140901446342468e-02,-4.226359669701196253e-05,-1.398110180161893368e-03,2.825744077563285828e-02,5.243656784296035767e-02,1.000000000000000000e+00,2.794053871184587479e-04,0.000000000000000000e+00
2.500878810882568359e+00,-2.719678344726562500e+02,1.349397888183593750e+02,1.349397888183593750e+02,-1.696209013462066650e-01,-1.798540191650390625e+02,-5.798339261673390865e-04,-1.189254760742187500e+01,-3.049693442881107330e-02,-2.383833930252876598e-07,-1.097973227500915527e+00,-3.601140901446342468e-02,-4.226359669701196253e-05,-1.398110180161893368e-03,2.825744077563285828e-02,5.243656784296035767e-02,1.000000000000000000e+00,2.794053871184587479e-04,0.000000000000000000e+00
2.500878810882568359e+00,-2.725996704101562500e+02,1.349381713867187500e+02,1.349381713867187500e+02,-1.684187948703765869e-01,-1.798507080078125000e+02,-6.408691988326609135e-04,-1.193158912658691406e+01,-3.152952715754508972e-02,1.048902689149144862e-07,-6.581883430480957031e-01,-1.740814745426177979e-02,5.787139798485441133e-06,-1.073341118171811104e-03,2.072499133646488190e-02,6.752312183380126953e-02,1.000000000000000000e+00,3.072102845180779696e-04,0.000000000000000000e+00
2.560195446014404297e+00,-2.725996704101562500e+02,1.349381713867187500e+02,1.349381713867187500e+02,-1.684187948703765869e-01,-1.798507080078125000e+02,-6.408691988326609135e-04,-1.193158912658691406e+01,-3.152952715754508972e-02,1.048902689149144862e-07,-6.581883430480957031e-01,-1.740814745426177979e-02,5.787139798485441133e-06,-1.073341118171811104e-03,2.072499133646488190e-02,6.752312183380126953e-02,1.000000000000000000e+00,3.072102845180779696e-04,0.000000000000000000e+00
2.560195446014404297e+00,-2.725996704101562500e+02,1.349381713867187500e+02,1.349381713867187500e+02,-1.684187948703765869e-01,-1.798507080078125000e+02,-6.408691988326609135e-04,-1.193158912658691406e+01,-3.152952715754508972e-02,1.048902689149144862e-07,-6.581883430480957031e-01,-1.740814745426177979e-02,5.787139798485441133e-06,-1.073341118171811104e-03,2.072499133646488190e-02,6.752312183380126953e-02,1.000000000000000000e+00,3.072102845180779696e-04,0.000000000000000000e+00
2.618730545043945312e+00,-2.733088378906250000e+02,1.349344329833984375e+02,1.349344329833984375e+02,-1.673874408006668091e-01,-1.797493896484375000e+02,-3.997802734375000000e-03,-1.197181606292724609e+01,-1.013964638113975525e-01,1.010744881568825804e-06,-6.872276067733764648e-01,-1.193590521812438965e+00,1.547540887258946896e-05,-6.277009844779968262e-02,1.452441327273845673e-02,2.401981353759765625e+00,1.000000000000000000e+00,2.143181674182415009e-02,0.000000000000000000e+00
2.618730545043945312e+00,-2.733088378906250000e+02,1.349344329833984375e+02,1.349344329833984375e+02,-1.673874408006668091e-01,-1.797493896484375000e+02,-3.997802734375000000e-03,-1.197181606292724609e+01,-1.013964638113975525e-01,1.010744881568825804e-06,-6.872276067733764648e-01,-1.193590521812438965e+00,1.547540887258946896e-05,-6.277009844779968262e-02,1.452441327273845673e-02,2.401981353759765625e+00,1.000000000000000000e+00,2.143181674182415009e-02,0.000000000000000000e+00
2.677334070205688477e+00,-2.740108032226562500e+02,1.349282073974609375e+02,1.349282073974609375e+02,-1.667180806398391724e-01,-1.795671997070312500e+02,-7.171629928052425385e-03,-1.200978279113769531e+01,-1.540430188179016113e-01,-1.153777020590496249e-06,-6.478574275970458984e-01,-8.983513116836547852e-01,-3.693501275847665966e-05,-4.700675979256629944e-02,9.728208184242248535e-03,3.417010307312011719e+00,1.000000000000000000e+00,2.288445457816123962e-02,0.000000000000000000e+00
2.677334070205688477e+00,-2.740108032226562500e+02,1.349282073974609375e+02,1.349282073974609375e+02,-1.667180806398391724e-01,-1.795671997070312500e+02,-7.171629928052425385e-03,-1.200978279113769531e+01,-1.540430188179016113e-01,-1.153777020590496249e-06,-6.478574275970458984e-01,-8.983513116836547852e-01,-3.693501275847665966e-05,-4.700675979256629944e-02,9.728208184242248535e-03,3.417010307312011719e+00,1.000000000000000000e+00,2.288445457816123962e-02,0.000000000000000000e+00
2.677334070205688477e+00,-2.740108032226562500e+02,1.349282073974609375e+02,1.349282073974609375e+02,-1.667180806398391724e-01,-1.795671997070312500e+02,-7.171629928052425385e-03,-1.200978279113769531e+01,-1.540430188179016113e-01,-1.153777020590496249e-06,-6.478574275970458984e-01,-8.983513116836547852e-01,-3.693501275847665966e-05,-4.700675979256629944e-02,9.728208184242248535e-03,3.417010307312011719e+00,1.000000000000000000e+00,2.288445457816123962e-02,0.000000000000000000e+00
2.677334070205688477e+00,-2.740108032226562500e+02,1.349282073974609375e+02,1.349282073974609375e+02,-1.667180806398391724e-01,-1.795671997070312500e+02,-7.171629928052425385e-03,-1.200978279113769531e+01,-1.540430188179016113e-01,-1.153777020590496249e-06,-6.478574275970458984e-01,-8.983513116836547852e-01,-3.693501275847665966e-05,-4.700675979256629944e-02,9.728208184242248535e-03,3.417010307312011719e+00,1.000000000000000000e+00,2.288445457816123962e-02,0.000000000000000000e+00
2.755024909973144531e+00,-2.747157897949218750e+02,1.349194488525390625e+02,1.349194488525390625e+02,-1.662604510784149170e-01,-1.793536376953125000e+02,-9.246825240552425385e-03,-1.204584312438964844e+01,-1.997247338294982910e-01,9.726052212499780580e-07,-4.641516804695129395e-01,-5.879935622215270996e-01,2.736979331530164927e-05,-3.027587942779064178e-02,6.201567128300666809e-03,3.741707563400268555e+00,1.000000000000000000e+00,2.234836108982563019e-02,0.000000000000000000e+00
2.755024909973144531e+00,-2.747157897949218750e+02,1.349194488525390625e+02,1.349194488525390625e+02,-1.662604510784149170e-01,-1.793536376953125000e+02,-9.246825240552425385e-03,-1.204584312438964844e+01,-1.997247338294982910e-01,9.726052212499780580e-07,-4.641516804695129395e-01,-5.879935622215270996e-01,2.736979331530164927e-05,-3.027587942779064178e-02,6.201567128300666809e-03,3.741707563400268555e+00,1.000000000000000000e+00,2.234836108982563019e-02,0.000000000000000000e+00
2.755024909973144531e+00,-2.747157897949218750e+02,1.349194488525390625e+02,1.349194488525390625e+02,-1.662604510784149170e-01,-1.793536376953125000e+02,-9.246825240552425385e-03,-1.204584312438964844e+01,-1.997247338294982910e-01,9.726052212499780580e-07,-4.641516804695129395e-01,-5.879935622215270996e-01,2.736979331530164927e-05,-3.027587942779064178e-02,6.201567128300666809e-03,3.741707563400268555e+00,1.000000000000000000e+00,2.234836108982563019e-02,0.000000000000000000e+00
2.830169916152954102e+00,-2.756528015136718750e+02,1.348986663818359375e+02,1.348986663818359375e+02,-1.660487204790115356e-01,-1.787991027832031250e+02,-1.882934197783470154e-02,-1.208096313476562500e+01,-4.091853201389312744e-01,1.468430241402529646e-06,-4.673631787300109863e-01,-2.787418603897094727e+00,6.598243089683819562e-06,-1.217654719948768616e-01,-7.752096280455589294e-04,8.610042572021484375e+00,1.000000000000000000e+00,6.032579392194747925e-02,0.000000000000000000e+00
2.830169916152954102e+00,-2.756528015136718750e+02,1.348986663818359375e+02,1.348986663818359375e+02,-1.660487204790115356e-01,-1.787991027832031250e+02,-1.882934197783470154e-02,-1.208096313476562500e+01,-4.091853201389312744e-01,1.468430241402529646e-06,-4.673631787300109863e-01,-2.787418603897094727e+00,6.598243089683819562e-06,-1.217654719948768616e-01,-7.752096280455589294e-04,8.610042572021484375e+00,1.000000000000000000e+00,6.032579392194747925e-02,0.000000000000000000e+00
2.830169916152954102e+00,-2.756528015136718750e+02,1.348986663818359375e+02,1.348986663818359375e+02,-1.660487204790115356e-01,-1.787991027832031250e+02,-1.882934197783470154e-02,-1.208096313476562500e+01,-4.091853201389312744e-01,1.468430241402529646e-06,-4.673631787300109863e-01,-2.787418603897094727e+00,6.598243089683819562e-06,-1.217654719948768616e-01,-7.752096280455589294e-04,8.610042572021484375e+00,1.000000000000000000e+00,6.032579392194747925e-02,0.000000000000000000e+00
2.830169916152954102e+00,-2.756528015136718750e+02,1.348986663818359375e+02,1.348986663818359375e+02,-1.660487204790115356e-01,-1.787991027832031250e+02,-1.882934197783470154e-02,-1.208096313476562500e+01,-4.091853201389312744e-01,1.468430241402529646e-06,-4.673631787300109863e-01,-2.787418603897094727e+00,6.598243089683819562e-06,-1.217654719948768616e-01,-7.752096280455589294e-04,8.610042572021484375e+00,1.000000000000000000e+00,6.032579392194747925e-02,0.000000000000000000e+00
2.830169916152954102e+00,-2.756528015136718750e+02,1.348986663818359375e+02,1.348986663818359375e+02,-1.660487204790115356e-01,-1.787991027832031250e+02,-1.882934197783470154e-02,-1.208096313476562500e+01,-4.091853201389312744e-01,1.468430241402529646e-06,-4.673631787300109863e-01,-2.787418603897094727e+00,6.598243089683819562e-06,-1.217654719948768616e-01,-7.752096280455589294e-04,8.610042572021484375e+00,1.000000000000000000e+00,6.032579392194747925e-02,0.000000000000000000e+00
