# Time,X,Y,Z,Roll,Pitch,Yaw,Vx,Vy,Vz,Ax,Ay,Az,Wx,Wy,Wz,Throttle,Steer,Brake
0.000000000000000000e+00,-1.580951538085937500e+02,5.246316146850585938e+01,5.246316146850585938e+01,4.098113276995718479e-05,-7.812499534338712692e-03,0.000000000000000000e+00,1.317476261419869843e-08,-1.819411643566581915e-08,1.551160821691155434e-03,-9.101106712705586688e-08,1.757291130388694000e-07,1.489074621349573135e-02,-1.732916643959470093e-05,-8.521922609361354262e-06,5.689437809763830955e-09,0.000000000000000000e+00,-2.974406816065311432e-04,1.000000000000000000e+00
1.045818328857421875e-01,-1.580951538085937500e+02,5.246316146850585938e+01,5.246316146850585938e+01,4.098113276995718479e-05,-7.812499534338712692e-03,0.000000000000000000e+00,1.317476261419869843e-08,-1.819411643566581915e-08,1.551160821691155434e-03,-9.101106712705586688e-08,1.757291130388694000e-07,1.489074621349573135e-02,-1.732916643959470093e-05,-8.521922609361354262e-06,5.689437809763830955e-09,0.000000000000000000e+00,-2.974406816065311432e-04,1.000000000000000000e+00
1.045818328857421875e-01,-1.580951538085937500e+02,5.246316146850585938e+01,5.246316146850585938e+01,4.098113276995718479e-05,-7.812499534338712692e-03,0.000000000000000000e+00,1.317476261419869843e-08,-1.819411643566581915e-08,1.551160821691155434e-03,-9.101106712705586688e-08,1.757291130388694000e-07,1.489074621349573135e-02,-1.732916643959470093e-05,-8.521922609361354262e-06,5.689437809763830955e-09,0.000000000000000000e+00,-2.974406816065311432e-04,1.000000000000000000e+00
1.045818328857421875e-01,-1.580951538085937500e+02,5.246316146850585938e+01,5.246316146850585938e+01,4.098113276995718479e-05,-7.812499534338712692e-03,0.000000000000000000e+00,1.317476261419869843e-08,-1.819411643566581915e-08,1.551160821691155434e-03,-9.101106712705586688e-08,1.757291130388694000e-07,1.489074621349573135e-02,-1.732916643959470093e-05,-8.521922609361354262e-06,5.689437809763830955e-09,0.000000000000000000e+00,-2.974406816065311432e-04,1.000000000000000000e+00
1.045818328857421875e-01,-1.580951538085937500e+02,5.246316146850585938e+01,5.246316146850585938e+01,4.098113276995718479e-05,-7.812499534338712692e-03,0.000000000000000000e+00,1.317476261419869843e-08,-1.819411643566581915e-08,1.551160821691155434e-03,-9.101106712705586688e-08,1.757291130388694000e-07,1.489074621349573135e-02,-1.732916643959470093e-05,-8.521922609361354262e-06,5.689437809763830955e-09,0.000000000000000000e+00,-2.974406816065311432e-04,1.000000000000000000e+00
1.045818328857421875e-01,-1.580951538085937500e+02,5.246316146850585938e+01,5.246316146850585938e+01,4.098113276995718479e-05,-7.812499534338712692e-03,0.000000000000000000e+00,1.317476261419869843e-08,-1.819411643566581915e-08,1.551160821691155434e-03,-9.101106712705586688e-08,1.757291130388694000e-07,1.489074621349573135e-02,-1.732916643959470093e-05,-8.521922609361354262e-06,5.689437809763830955e-09,0.000000000000000000e+00,-2.974406816065311432e-04,1.000000000000000000e+00
1.045818328857421875e-01,-1.580951538085937500e+02,5.246316146850585938e+01,5.246316146850585938e+01,4.098113276995718479e-05,-7.812499534338712692e-03,0.000000000000000000e+00,1.830422213799920428e-08,-2.714947200388451165e-08,-9.632603032514452934e-04,4.898780048279149923e-08,-8.552620300861235592e-08,-2.401343733072280884e-02,-1.166572474176064134e-05,-9.483125722908880562e-06,1.545865435659266041e-09,0.000000000000000000e+00,-2.974406816065311432e-04,1.000000000000000000e+00
2.092907428741455078e-01,-1.580951538085937500e+02,5.246316146850585938e+01,5.246316146850585938e+01,4.098113276995718479e-05,-7.812499534338712692e-03,0.000000000000000000e+00,1.830422213799920428e-08,-2.714947200388451165e-08,-9.632603032514452934e-04,4.898780048279149923e-08,-8.552620300861235592e-08,-2.401343733072280884e-02,-1.166572474176064134e-05,-9.483125722908880562e-06,1.545865435659266041e-09,0.000000000000000000e+00,-2.974406816065311432e-04,1.000000000000000000e+00
2.092907428741455078e-01,-1.580951538085937500e+02,5.246316146850585938e+01,5.246316146850585938e+01,4.098113276995718479e-05,-7.812499534338712692e-03,0.000000000000000000e+00,1.830422213799920428e-08,-2.714947200388451165e-08,-9.632603032514452934e-04,4.898780048279149923e-08,-8.552620300861235592e-08,-2.401343733072280884e-02,-1.166572474176064134e-05,-9.483125722908880562e-06,1.545865435659266041e-09,0.000000000000000000e+00,-2.974406816065311432e-04,1.000000000000000000e+00
2.092907428741455078e-01,-1.580951538085937500e+02,5.246316146850585938e+01,5.246316146850585938e+01,4.098113276995718479e-05,-7.812499534338712692e-03,0.000000000000000000e+00,1.830422213799920428e-08,-2.714947200388451165e-08,-9.632603032514452934e-04,4.898780048279149923e-08,-8.552620300861235592e-08,-2.401343733072280884e-02,-1.166572474176064134e-05,-9.483125722908880562e-06,1.545865435659266041e-09,0.000000000000000000e+00,-2.974406816065311432e-04,1.000000000000000000e+00
2.092907428741455078e-01,-1.580951538085937500e+02,5.246316146850585938e+01,5.246316146850585938e+01,4.098113276995718479e-05,-7.812499534338712692e-03,0.000000000000000000e+00,1.830422213799920428e-08,-2.714947200388451165e-08,-9.632603032514452934e-04,4.898780048279149923e-08,-8.552620300861235592e-08,-2.401343733072280884e-02,-1.166572474176064134e-05,-9.483125722908880562e-06,1.545865435659266041e-09,0.000000000000000000e+00,-2.974406816065311432e-04,1.000000000000000000e+00
2.092907428741455078e-01,-1.580951538085937500e+02,5.246316146850585938e+01,5.246316146850585938e+01,4.098113276995718479e-05,-7.812499534338712692e-03,0.000000000000000000e+00,2.125778664208155533e-08,5.523074886326639898e-09,-1.974158076336607337e-04,3.958216154842375545e-08,4.378607343369367300e-07,1.026345603168010712e-02,-9.046938430401496589e-06,-1.154730580310570076e-05,3.236507950532541145e-09,0.000000000000000000e+00,-2.974406816065311432e-04,1.000000000000000000e+00
2.839093208312988281e-01,-1.580951538085937500e+02,5.246316146850585938e+01,5.246316146850585938e+01,4.098113276995718479e-05,-7.812499534338712692e-03,0.000000000000000000e+00,2.125778664208155533e-08,5.523074886326639898e-09,-1.974158076336607337e-04,3.958216154842375545e-08,4.378607343369367300e-07,1.026345603168010712e-02,-9.046938430401496589e-06,-1.154730580310570076e-05,3.236507950532541145e-09,0.000000000000000000e+00,-2.974406816065311432e-04,1.000000000000000000e+00
2.839093208312988281e-01,-1.580951538085937500e+02,5.246316146850585938e+01,5.246316146850585938e+01,4.098113276995718479e-05,-7.812499534338712692e-03,0.000000000000000000e+00,2.125778664208155533e-08,5.523074886326639898e-09,-1.974158076336607337e-04,3.958216154842375545e-08,4.378607343369367300e-07,1.026345603168010712e-02,-9.046938430401496589e-06,-1.154730580310570076e-05,3.236507950532541145e-09,0.000000000000000000e+00,-2.974406816065311432e-04,1.000000000000000000e+00
2.839093208312988281e-01,-1.580951538085937500e+02,5.246316146850585938e+01,5.246316146850585938e+01,4.098113276995718479e-05,-7.812499534338712692e-03,0.000000000000000000e+00,2.125778664208155533e-08,5.523074886326639898e-09,-1.974158076336607337e-04,3.958216154842375545e-08,4.378607343369367300e-07,1.026345603168010712e-02,-9.046938430401496589e-06,-1.154730580310570076e-05,3.236507950532541145e-09,0.000000000000000000e+00,-2.974406816065311432e-04,1.000000000000000000e+00
2.839093208312988281e-01,-1.580951538085937500e+02,5.246316146850585938e+01,5.246316146850585938e+01,4.098113276995718479e-05,-7.812499534338712692e-03,0.000000000000000000e+00,2.125778664208155533e-08,5.523074886326639898e-09,-1.974158076336607337e-04,3.958216154842375545e-08,4.378607343369367300e-07,1.026345603168010712e-02,-9.046938430401496589e-06,-1.154730580310570076e-05,3.236507950532541145e-09,0.000000000000000000e+00,-2.974406816065311432e-04,1.000000000000000000e+00
3.569011688232421875e-01,-1.580951538085937500e+02,5.246316146850585938e+01,5.246316146850585938e+01,4.098113276995718479e-05,-7.812499534338712692e-03,0.000000000000000000e+00,-2.366591722591238067e-08,-2.596941861554569186e-08,1.229112152941524982e-03,-6.154618859000038356e-07,-4.314522072945692344e-07,1.954366080462932587e-02,-1.001469081529648975e-05,1.334322496404638514e-05,-2.513109276236491496e-09,0.000000000000000000e+00,-2.974406816065311432e-04,1.000000000000000000e+00
3.569011688232421875e-01,-1.580951538085937500e+02,5.246316146850585938e+01,5.246316146850585938e+01,4.098113276995718479e-05,-7.812499534338712692e-03,0.000000000000000000e+00,-2.366591722591238067e-08,-2.596941861554569186e-08,1.229112152941524982e-03,-6.154618859000038356e-07,-4.314522072945692344e-07,1.954366080462932587e-02,-1.001469081529648975e-05,1.334322496404638514e-05,-2.513109276236491496e-09,0.000000000000000000e+00,-2.974406816065311432e-04,1.000000000000000000e+00
3.569011688232421875e-01,-1.580951538085937500e+02,5.246316146850585938e+01,5.246316146850585938e+01,4.098113276995718479e-05,-7.812499534338712692e-03,0.000000000000000000e+00,-2.366591722591238067e-08,-2.596941861554569186e-08,1.229112152941524982e-03,-6.154618859000038356e-07,-4.314522072945692344e-07,1.954366080462932587e-02,-1.001469081529648975e-05,1.334322496404638514e-05,-2.513109276236491496e-09,0.000000000000000000e+00,-2.974406816065311432e-04,1.000000000000000000e+00
3.569011688232421875e-01,-1.580951538085937500e+02,5.246316146850585938e+01,5.246316146850585938e+01,4.098113276995718479e-05,-7.812499534338712692e-03,0.000000000000000000e+00,-2.366591722591238067e-08,-2.596941861554569186e-08,1.229112152941524982e-03,-6.154618859000038356e-07,-4.314522072945692344e-07,1.954366080462932587e-02,-1.001469081529648975e-05,1.334322496404638514e-05,-2.513109276236491496e-09,0.000000000000000000e+00,-2.974406816065311432e-04,1.000000000000000000e+00
4.765405654907226562e-01,-1.580951538085937500e+02,5.246316146850585938e+01,5.246316146850585938e+01,4.098113276995718479e-05,-7.812499534338712692e-03,0.000000000000000000e+00,-2.158946799113437010e-08,7.466967844038663316e-08,9.249290451407432556e-05,1.735589982843066537e-08,8.411869885094347410e-07,-9.500375948846340179e-03,4.044697197969071567e-05,1.170905579783720896e-05,-4.070543901946166443e-09,0.000000000000000000e+00,-2.974406816065311432e-04,1.000000000000000000e+00
4.765405654907226562e-01,-1.580951538085937500e+02,5.246316146850585938e+01,5.246316146850585938e+01,4.098113276995718479e-05,-7.812499534338712692e-03,0.000000000000000000e+00,-2.158946799113437010e-08,7.466967844038663316e-08,9.249290451407432556e-05,1.735589982843066537e-08,8.411869885094347410e-07,-9.500375948846340179e-03,4.044697197969071567e-05,1.170905579783720896e-05,-4.070543901946166443e-09,0.000000000000000000e+00,-2.974406816065311432e-04,1.000000000000000000e+00
4.765405654907226562e-01,-1.580951538085937500e+02,5.246316146850585938e+01,5.246316146850585938e+01,4.098113276995718479e-05,-7.812499534338712692e-03,0.000000000000000000e+00,-2.158946799113437010e-08,7.466967844038663316e-08,9.249290451407432556e-05,1.735589982843066537e-08,8.411869885094347410e-07,-9.500375948846340179e-03,4.044697197969071567e-05,1.170905579783720896e-05,-4.070543901946166443e-09,0.000000000000000000e+00,-2.974406816065311432e-04,1.000000000000000000e+00
4.765405654907226562e-01,-1.580951538085937500e+02,5.246316146850585938e+01,5.246316146850585938e+01,4.098113276995718479e-05,-7.812499534338712692e-03,0.000000000000000000e+00,-2.158946799113437010e-08,7.466967844038663316e-08,9.249290451407432556e-05,1.735589982843066537e-08,8.411869885094347410e-07,-9.500375948846340179e-03,4.044697197969071567e-05,1.170905579783720896e-05,-4.070543901946166443e-09,0.000000000000000000e+00,-2.974406816065311432e-04,1.000000000000000000e+00
4.765405654907226562e-01,-1.580951538085937500e+02,5.246316146850585938e+01,5.246316146850585938e+01,4.098113276995718479e-05,-7.812499534338712692e-03,0.000000000000000000e+00,-2.158946799113437010e-08,7.466967844038663316e-08,9.249290451407432556e-05,1.735589982843066537e-08,8.411869885094347410e-07,-9.500375948846340179e-03,4.044697197969071567e-05,1.170905579783720896e-05,-4.070543901946166443e-09,0.000000000000000000e+00,-2.974406816065311432e-04,1.000000000000000000e+00
4.765405654907226562e-01,-1.580951538085937500e+02,5.246316146850585938e+01,5.246316146850585938e+01,4.098113276995718479e-05,-7.812499534338712692e-03,0.000000000000000000e+00,-2.158946799113437010e-08,7.466967844038663316e-08,9.249290451407432556e-05,1.735589982843066537e-08,8.411869885094347410e-07,-9.500375948846340179e-03,4.044697197969071567e-05,1.170905579783720896e-05,-4.070543901946166443e-09,0.000000000000000000e+00,-2.974406816065311432e-04,1.000000000000000000e+00
4.765405654907226562e-01,-1.580951538085937500e+02,5.246316146850585938e+01,5.246316146850585938e+01,4.098113276995718479e-05,-7.812499534338712692e-03,0.000000000000000000e+00,-2.158946799113437010e-08,7.466967844038663316e-08,9.249290451407432556e-05,1.735589982843066537e-08,8.411869885094347410e-07,-9.500375948846340179e-03,4.044697197969071567e-05,1.170905579783720896e-05,-4.070543901946166443e-09,0.000000000000000000e+00,-2.974406816065311432e-04,1.000000000000000000e+00
6.200885772705078125e-01,-1.580951538085937500e+02,5.246316146850585938e+01,5.246316146850585938e+01,4.098113276995718479e-05,-7.812499534338712692e-03,0.000000000000000000e+00,8.593201705764386134e-09,3.103590939801392778e-09,-9.783449349924921989e-04,2.102618452681781491e-07,-4.985515715816291049e-07,-7.459789048880338669e-03,1.181005018224823289e-06,-4.477401489566545933e-06,3.857881514246486176e-10,0.000000000000000000e+00,-2.974406816065311432e-04,1.000000000000000000e+00
6.200885772705078125e-01,-1.580951538085937500e+02,5.246316146850585938e+01,5.246316146850585938e+01,4.098113276995718479e-05,-7.812499534338712692e-03,0.000000000000000000e+00,8.593201705764386134e-09,3.103590939801392778e-09,-9.783449349924921989e-04,2.102618452681781491e-07,-4.985515715816291049e-07,-7.459789048880338669e-03,1.181005018224823289e-06,-4.477401489566545933e-06,3.857881514246486176e-10,0.000000000000000000e+00,-2.974406816065311432e-04,1.000000000000000000e+00
6.200885772705078125e-01,-1.580951538085937500e+02,5.246316146850585938e+01,5.246316146850585938e+01,4.098113276995718479e-05,-7.812499534338712692e-03,0.000000000000000000e+00,8.593201705764386134e-09,3.103590939801392778e-09,-9.783449349924921989e-04,2.102618452681781491e-07,-4.985515715816291049e-07,-7.459789048880338669e-03,1.181005018224823289e-06,-4.477401489566545933e-06,3.857881514246486176e-10,0.000000000000000000e+00,-2.974406816065311432e-04,1.000000000000000000e+00
6.200885772705078125e-01,-1.580951538085937500e+02,5.246316146850585938e+01,5.246316146850585938e+01,4.098113276995718479e-05,-7.812499534338712692e-03,0.000000000000000000e+00,8.593201705764386134e-09,3.103590939801392778e-09,-9.783449349924921989e-04,2.102618452681781491e-07,-4.985515715816291049e-07,-7.459789048880338669e-03,1.181005018224823289e-06,-4.477401489566545933e-06,3.857881514246486176e-10,0.000000000000000000e+00,-2.974406816065311432e-04,1.000000000000000000e+00
6.200885772705078125e-01,-1.580951538085937500e+02,5.246316146850585938e+01,5.246316146850585938e+01,4.098113276995718479e-05,-7.812499534338712692e-03,0.000000000000000000e+00,8.593201705764386134e-09,3.103590939801392778e-09,-9.783449349924921989e-04,2.102618452681781491e-07,-4.985515715816291049e-07,-7.459789048880338669e-03,1.181005018224823289e-06,-4.477401489566545933e-06,3.857881514246486176e-10,0.000000000000000000e+00,-2.974406816065311432e-04,1.000000000000000000e+00
6.200885772705078125e-01,-1.580951538085937500e+02,5.246316146850585938e+01,5.246316146850585938e+01,4.098113276995718479e-05,-7.812499534338712692e-03,0.000000000000000000e+00,8.593201705764386134e-09,3.103590939801392778e-09,-9.783449349924921989e-04,2.102618452681781491e-07,-4.985515715816291049e-07,-7.459789048880338669e-03,1.181005018224823289e-06,-4.477401489566545933e-06,3.857881514246486176e-10,0.000000000000000000e+00,-2.974406816065311432e-04,1.000000000000000000e+00
7.946169376373291016e-01,-1.580951538085937500e+02,5.246316146850585938e+01,5.246316146850585938e+01,4.098113276995718479e-05,-7.812499534338712692e-03,0.000000000000000000e+00,-3.139561499665433075e-08,4.974021750037138645e-10,-3.333489803480915725e-05,-2.291250211783335544e-07,-1.493275192387955030e-08,5.414650309830904007e-03,2.045202620593045140e-07,1.731709926389157772e-05,-2.507764440551341067e-09,0.000000000000000000e+00,-2.974406816065311432e-04,1.000000000000000000e+00
7.946169376373291016e-01,-1.580951538085937500e+02,5.246316146850585938e+01,5.246316146850585938e+01,4.098113276995718479e-05,-7.812499534338712692e-03,0.000000000000000000e+00,-3.139561499665433075e-08,4.974021750037138645e-10,-3.333489803480915725e-05,-2.291250211783335544e-07,-1.493275192387955030e-08,5.414650309830904007e-03,2.045202620593045140e-07,1.731709926389157772e-05,-2.507764440551341067e-09,0.000000000000000000e+00,-2.974406816065311432e-04,1.000000000000000000e+00
7.946169376373291016e-01,-1.580951538085937500e+02,5.246316146850585938e+01,5.246316146850585938e+01,4.098113276995718479e-05,-7.812499534338712692e-03,0.000000000000000000e+00,-3.139561499665433075e-08,4.974021750037138645e-10,-3.333489803480915725e-05,-2.291250211783335544e-07,-1.493275192387955030e-08,5.414650309830904007e-03,2.045202620593045140e-07,1.731709926389157772e-05,-2.507764440551341067e-09,0.000000000000000000e+00,-2.974406816065311432e-04,1.000000000000000000e+00
8.783230781555175781e-01,-1.580951538085937500e+02,5.246316146850585938e+01,5.246316146850585938e+01,4.098113276995718479e-05,-7.812499534338712692e-03,0.000000000000000000e+00,-1.933783577712233637e-09,-7.206006102933315560e-08,2.168103237636387348e-04,3.519674010021844879e-07,-8.668117175147926901e-07,2.988373627886176109e-03,-4.044539673486724496e-05,4.350207234438130399e-07,4.064797387570706633e-09,0.000000000000000000e+00,-2.974406816065311432e-04,1.000000000000000000e+00
8.783230781555175781e-01,-1.580951538085937500e+02,5.246316146850585938e+01,5.246316146850585938e+01,4.098113276995718479e-05,-7.812499534338712692e-03,0.000000000000000000e+00,-1.933783577712233637e-09,-7.206006102933315560e-08,2.168103237636387348e-04,3.519674010021844879e-07,-8.668117175147926901e-07,2.988373627886176109e-03,-4.044539673486724496e-05,4.350207234438130399e-07,4.064797387570706633e-09,0.000000000000000000e+00,-2.974406816065311432e-04,1.000000000000000000e+00
8.783230781555175781e-01,-1.580951538085937500e+02,5.246316146850585938e+01,5.246316146850585938e+01,4.098113276995718479e-05,-7.812499534338712692e-03,0.000000000000000000e+00,-1.933783577712233637e-09,-7.206006102933315560e-08,2.168103237636387348e-04,3.519674010021844879e-07,-8.668117175147926901e-07,2.988373627886176109e-03,-4.044539673486724496e-05,4.350207234438130399e-07,4.064797387570706633e-09,0.000000000000000000e+00,-2.974406816065311432e-04,1.000000000000000000e+00
9.483780860900878906e-01,-1.580951538085937500e+02,5.246316146850585938e+01,5.246316146850585938e+01,4.098113276995718479e-05,-7.812499534338712692e-03,0.000000000000000000e+00,0.000000000000000000e+00,0.000000000000000000e+00,0.000000000000000000e+00,2.760378770005900151e-08,1.028621113619010430e-06,-3.094858257099986076e-03,0.000000000000000000e+00,0.000000000000000000e+00,0.000000000000000000e+00,0.000000000000000000e+00,-2.974406816065311432e-04,1.000000000000000000e+00
9.483780860900878906e-01,-1.580951538085937500e+02,5.246316146850585938e+01,5.246316146850585938e+01,4.098113276995718479e-05,-7.812499534338712692e-03,0.000000000000000000e+00,0.000000000000000000e+00,0.000000000000000000e+00,0.000000000000000000e+00,2.760378770005900151e-08,1.028621113619010430e-06,-3.094858257099986076e-03,0.000000000000000000e+00,0.000000000000000000e+00,0.000000000000000000e+00,0.000000000000000000e+00,-2.974406816065311432e-04,1.000000000000000000e+00
9.483780860900878906e-01,-1.580951538085937500e+02,5.246316146850585938e+01,5.246316146850585938e+01,4.098113276995718479e-05,-7.812499534338712692e-03,0.000000000000000000e+00,0.000000000000000000e+00,0.000000000000000000e+00,0.000000000000000000e+00,2.760378770005900151e-08,1.028621113619010430e-06,-3.094858257099986076e-03,0.000000000000000000e+00,0.000000000000000000e+00,0.000000000000000000e+00,0.000000000000000000e+00,-2.974406816065311432e-04,1.000000000000000000e+00
9.483780860900878906e-01,-1.580951538085937500e+02,5.246316146850585938e+01,5.246316146850585938e+01,4.098113276995718479e-05,-7.812499534338712692e-03,0.000000000000000000e+00,0.000000000000000000e+00,0.000000000000000000e+00,0.000000000000000000e+00,2.760378770005900151e-08,1.028621113619010430e-06,-3.094858257099986076e-03,0.000000000000000000e+00,0.000000000000000000e+00,0.000000000000000000e+00,0.000000000000000000e+00,-2.974406816065311432e-04,1.000000000000000000e+00
9.483780860900878906e-01,-1.580951538085937500e+02,5.246316146850585938e+01,5.246316146850585938e+01,4.098113276995718479e-05,-7.812499534338712692e-03,0.000000000000000000e+00,-4.136215814298793703e-09,-1.518169057135310140e-08,7.416638982249423862e-05,-5.249070866852889594e-08,-1.926634638493851526e-07,9.412096696905791759e-04,-6.341530252029770054e-07,1.605019292583165225e-06,1.865872317763361821e-10,0.000000000000000000e+00,-2.974406816065311432e-04,1.000000000000000000e+00
1.027177095413208008e+00,-1.580951538085937500e+02,5.246316146850585938e+01,5.246316146850585938e+01,4.098113276995718479e-05,-7.812499534338712692e-03,0.000000000000000000e+00,-4.136215814298793703e-09,-1.518169057135310140e-08,7.416638982249423862e-05,-5.249070866852889594e-08,-1.926634638493851526e-07,9.412096696905791759e-04,-6.341530252029770054e-07,1.605019292583165225e-06,1.865872317763361821e-10,0.000000000000000000e+00,-2.974406816065311432e-04,1.000000000000000000e+00
1.027177095413208008e+00,-1.580951538085937500e+02,5.246316146850585938e+01,5.246316146850585938e+01,4.098113276995718479e-05,-7.812499534338712692e-03,0.000000000000000000e+00,-4.136215814298793703e-09,-1.518169057135310140e-08,7.416638982249423862e-05,-5.249070866852889594e-08,-1.926634638493851526e-07,9.412096696905791759e-04,-6.341530252029770054e-07,1.605019292583165225e-06,1.865872317763361821e-10,0.000000000000000000e+00,-2.974406816065311432e-04,1.000000000000000000e+00
1.095043420791625977e+00,-1.580951538085937500e+02,5.246316146850585938e+01,5.246316146850585938e+01,4.098113276995718479e-05,-7.812499534338712692e-03,0.000000000000000000e+00,3.991391039903646742e-08,-3.329068798407774921e-09,-1.053396146744489670e-03,6.490719215435092337e-07,1.746465869700841722e-07,-1.661446131765842438e-02,-1.375456236019090284e-06,-2.173155553464312106e-05,2.751936456490966521e-09,0.000000000000000000e+00,-2.974406816065311432e-04,1.000000000000000000e+00
1.095043420791625977e+00,-1.580951538085937500e+02,5.246316146850585938e+01,5.246316146850585938e+01,4.098113276995718479e-05,-7.812499534338712692e-03,0.000000000000000000e+00,3.991391039903646742e-08,-3.329068798407774921e-09,-1.053396146744489670e-03,6.490719215435092337e-07,1.746465869700841722e-07,-1.661446131765842438e-02,-1.375456236019090284e-06,-2.173155553464312106e-05,2.751936456490966521e-09,0.000000000000000000e+00,-2.974406816065311432e-04,1.000000000000000000e+00
1.095043420791625977e+00,-1.580951538085937500e+02,5.246316146850585938e+01,5.246316146850585938e+01,4.098113276995718479e-05,-7.812499534338712692e-03,0.000000000000000000e+00,3.991391039903646742e-08,-3.329068798407774921e-09,-1.053396146744489670e-03,6.490719215435092337e-07,1.746465869700841722e-07,-1.661446131765842438e-02,-1.375456236019090284e-06,-2.173155553464312106e-05,2.751936456490966521e-09,0.000000000000000000e+00,-2.974406816065311432e-04,1.000000000000000000e+00
1.095043420791625977e+00,-1.580951538085937500e+02,5.246316146850585938e+01,5.246316146850585938e+01,4.098113276995718479e-05,-7.812499534338712692e-03,0.000000000000000000e+00,3.991391039903646742e-08,-3.329068798407774921e-09,-1.053396146744489670e-03,6.490719215435092337e-07,1.746465869700841722e-07,-1.661446131765842438e-02,-1.375456236019090284e-06,-2.173155553464312106e-05,2.751936456490966521e-09,0.000000000000000000e+00,-2.974406816065311432e-04,1.000000000000000000e+00
1.168572425842285156e+00,-1.580951538085937500e+02,5.246316146850585938e+01,5.246316146850585938e+01,4.098113276995718479e-05,-7.812499534338712692e-03,0.000000000000000000e+00,-5.546485937202305649e-08,-5.784656309515412431e-09,1.238406868651509285e-03,-1.297158405577647500e-06,-3.339617293818264443e-08,3.116869181394577026e-02,-2.403617372692679055e-06,3.108075907221063972e-05,-6.432556709512482485e-09,0.000000000000000000e+00,-2.974406816065311432e-04,1.000000000000000000e+00
1.168572425842285156e+00,-1.580951538085937500e+02,5.246316146850585938e+01,5.246316146850585938e+01,4.098113276995718479e-05,-7.812499534338712692e-03,0.000000000000000000e+00,-5.546485937202305649e-08,-5.784656309515412431e-09,1.238406868651509285e-03,-1.297158405577647500e-06,-3.339617293818264443e-08,3.116869181394577026e-02,-2.403617372692679055e-06,3.108075907221063972e-05,-6.432556709512482485e-09,0.000000000000000000e+00,-2.974406816065311432e-04,1.000000000000000000e+00
1.168572425842285156e+00,-1.580951538085937500e+02,5.246316146850585938e+01,5.246316146850585938e+01,4.098113276995718479e-05,-7.812499534338712692e-03,0.000000000000000000e+00,-5.546485937202305649e-08,-5.784656309515412431e-09,1.238406868651509285e-03,-1.297158405577647500e-06,-3.339617293818264443e-08,3.116869181394577026e-02,-2.403617372692679055e-06,3.108075907221063972e-05,-6.432556709512482485e-09,0.000000000000000000e+00,-2.974406816065311432e-04,1.000000000000000000e+00
1.168572425842285156e+00,-1.580951538085937500e+02,5.246316146850585938e+01,5.246316146850585938e+01,4.098113276995718479e-05,-7.812499534338712692e-03,0.000000000000000000e+00,-5.546485937202305649e-08,-5.784656309515412431e-09,1.238406868651509285e-03,-1.297158405577647500e-06,-3.339617293818264443e-08,3.116869181394577026e-02,-2.403617372692679055e-06,3.108075907221063972e-05,-6.432556709512482485e-09,0.000000000000000000e+00,-2.974406816065311432e-04,1.000000000000000000e+00
1.168572425842285156e+00,-1.580951538085937500e+02,5.246316146850585938e+01,5.246316146850585938e+01,4.098113276995718479e-05,-7.812499534338712692e-03,0.000000000000000000e+00,-1.166361673909932506e-08,-5.921473533732068972e-09,-2.336730540264397860e-04,5.836395757796708494e-07,-1.823052042659867311e-09,-1.961506158113479614e-02,-2.888516974053345621e-06,7.162614565459080040e-06,-1.935861693169727005e-09,0.000000000000000000e+00,-2.974406816065311432e-04,1.000000000000000000e+00
1.243620872497558594e+00,-1.580951538085937500e+02,5.246316146850585938e+01,5.246316146850585938e+01,4.098113276995718479e-05,-7.812499534338712692e-03,0.000000000000000000e+00,-1.166361673909932506e-08,-5.921473533732068972e-09,-2.336730540264397860e-04,5.836395757796708494e-07,-1.823052042659867311e-09,-1.961506158113479614e-02,-2.888516974053345621e-06,7.162614565459080040e-06,-1.935861693169727005e-09,0.000000000000000000e+00,-2.974406816065311432e-04,1.000000000000000000e+00
1.243620872497558594e+00,-1.580951538085937500e+02,5.246316146850585938e+01,5.246316146850585938e+01,4.098113276995718479e-05,-7.812499534338712692e-03,0.000000000000000000e+00,-1.166361673909932506e-08,-5.921473533732068972e-09,-2.336730540264397860e-04,5.836395757796708494e-07,-1.823052042659867311e-09,-1.961506158113479614e-02,-2.888516974053345621e-06,7.162614565459080040e-06,-1.935861693169727005e-09,0.000000000000000000e+00,-2.974406816065311432e-04,1.000000000000000000e+00
1.243620872497558594e+00,-1.580951538085937500e+02,5.246316146850585938e+01,5.246316146850585938e+01,4.098113276995718479e-05,-7.812499534338712692e-03,0.000000000000000000e+00,-1.712956354538164305e-08,-1.024300910756892335e-08,-2.556321851443499327e-04,-7.988571582018266781e-08,-6.315995904060400790e-08,-3.209363494534045458e-04,-3.986915999121265486e-06,8.844477633829228580e-06,-5.290348020769997106e-11,0.000000000000000000e+00,-2.974406816065311432e-04,1.000000000000000000e+00
1.312042951583862305e+00,-1.580951538085937500e+02,5.246316146850585938e+01,5.246316146850585938e+01,4.098113276995718479e-05,-7.812499534338712692e-03,0.000000000000000000e+00,-1.712956354538164305e-08,-1.024300910756892335e-08,-2.556321851443499327e-04,-7.988571582018266781e-08,-6.315995904060400790e-08,-3.209363494534045458e-04,-3.986915999121265486e-06,8.844477633829228580e-06,-5.290348020769997106e-11,0.000000000000000000e+00,-2.974406816065311432e-04,1.000000000000000000e+00
1.312042951583862305e+00,-1.580951538085937500e+02,5.246316146850585938e+01,5.246316146850585938e+01,4.098113276995718479e-05,-7.812499534338712692e-03,0.000000000000000000e+00,-1.712956354538164305e-08,-1.024300910756892335e-08,-2.556321851443499327e-04,-7.988571582018266781e-08,-6.315995904060400790e-08,-3.209363494534045458e-04,-3.986915999121265486e-06,8.844477633829228580e-06,-5.290348020769997106e-11,0.000000000000000000e+00,-2.974406816065311432e-04,1.000000000000000000e+00
1.383129358291625977e+00,-1.580951538085937500e+02,5.246316146850585938e+01,5.246316146850585938e+01,4.098113276995718479e-05,-7.812499534338712692e-03,0.000000000000000000e+00,4.805546538477756258e-08,-4.791185781449769365e-10,1.438802137272432446e-04,9.169829695565567818e-07,1.373524156633720850e-07,5.620095413178205490e-03,-2.614805225675809197e-07,-2.605383633635938168e-05,3.489932121070182802e-09,0.000000000000000000e+00,-2.974406816065311432e-04,1.000000000000000000e+00
1.383129358291625977e+00,-1.580951538085937500e+02,5.246316146850585938e+01,5.246316146850585938e+01,4.098113276995718479e-05,-7.812499534338712692e-03,0.000000000000000000e+00,4.805546538477756258e-08,-4.791185781449769365e-10,1.438802137272432446e-04,9.169829695565567818e-07,1.373524156633720850e-07,5.620095413178205490e-03,-2.614805225675809197e-07,-2.605383633635938168e-05,3.489932121070182802e-09,0.000000000000000000e+00,-2.974406816065311432e-04,1.000000000000000000e+00
1.383129358291625977e+00,-1.580951538085937500e+02,5.246316146850585938e+01,5.246316146850585938e+01,4.098113276995718479e-05,-7.812499534338712692e-03,0.000000000000000000e+00,4.805546538477756258e-08,-4.791185781449769365e-10,1.438802137272432446e-04,9.169829695565567818e-07,1.373524156633720850e-07,5.620095413178205490e-03,-2.614805225675809197e-07,-2.605383633635938168e-05,3.489932121070182802e-09,0.000000000000000000e+00,-2.974406816065311432e-04,1.000000000000000000e+00
1.450951814651489258e+00,-1.580951538085937500e+02,5.246316146850585938e+01,5.246316146850585938e+01,4.098113276995718479e-05,-7.812499534338712692e-03,0.000000000000000000e+00,-3.351351907099342498e-08,7.061464657454052940e-08,-2.287348615936934948e-04,-1.202684074996795971e-06,1.048233457368041854e-06,-5.493977572768926620e-03,3.890499647241085768e-05,1.681527646724134684e-05,-1.862598075774712925e-09,0.000000000000000000e+00,-2.974406816065311432e-04,1.000000000000000000e+00
1.450951814651489258e+00,-1.580951538085937500e+02,5.246316146850585938e+01,5.246316146850585938e+01,4.098113276995718479e-05,-7.812499534338712692e-03,0.000000000000000000e+00,-3.351351907099342498e-08,7.061464657454052940e-08,-2.287348615936934948e-04,-1.202684074996795971e-06,1.048233457368041854e-06,-5.493977572768926620e-03,3.890499647241085768e-05,1.681527646724134684e-05,-1.862598075774712925e-09,0.000000000000000000e+00,-2.974406816065311432e-04,1.000000000000000000e+00
1.450951814651489258e+00,-1.580951538085937500e+02,5.246316146850585938e+01,5.246316146850585938e+01,4.098113276995718479e-05,-7.812499534338712692e-03,0.000000000000000000e+00,-3.351351907099342498e-08,7.061464657454052940e-08,-2.287348615936934948e-04,-1.202684074996795971e-06,1.048233457368041854e-06,-5.493977572768926620e-03,3.890499647241085768e-05,1.681527646724134684e-05,-1.862598075774712925e-09,0.000000000000000000e+00,-2.974406816065311432e-04,1.000000000000000000e+00
1.527701377868652344e+00,-1.580951538085937500e+02,5.246316146850585938e+01,5.246316146850585938e+01,4.098113276995718479e-05,-7.812499534338712692e-03,0.000000000000000000e+00,1.487634282426597565e-08,3.383565427839130280e-08,4.088228452019393444e-04,6.304903763520997018e-07,-4.792078698301338591e-07,8.306988514959812164e-03,1.916951441671699286e-05,-7.106645625754026696e-06,-2.799962928179411392e-09,0.000000000000000000e+00,-2.974406816065311432e-04,1.000000000000000000e+00
1.527701377868652344e+00,-1.580951538085937500e+02,5.246316146850585938e+01,5.246316146850585938e+01,4.098113276995718479e-05,-7.812499534338712692e-03,0.000000000000000000e+00,1.487634282426597565e-08,3.383565427839130280e-08,4.088228452019393444e-04,6.304903763520997018e-07,-4.792078698301338591e-07,8.306988514959812164e-03,1.916951441671699286e-05,-7.106645625754026696e-06,-2.799962928179411392e-09,0.000000000000000000e+00,-2.974406816065311432e-04,1.000000000000000000e+00
1.527701377868652344e+00,-1.580951538085937500e+02,5.246316146850585938e+01,5.246316146850585938e+01,4.098113276995718479e-05,-7.812499534338712692e-03,0.000000000000000000e+00,1.487634282426597565e-08,3.383565427839130280e-08,4.088228452019393444e-04,6.304903763520997018e-07,-4.792078698301338591e-07,8.306988514959812164e-03,1.916951441671699286e-05,-7.106645625754026696e-06,-2.799962928179411392e-09,0.000000000000000000e+00,-2.974406816065311432e-04,1.000000000000000000e+00
1.600134611129760742e+00,-1.580951538085937500e+02,5.246316146850585938e+01,5.246316146850585938e+01,4.098113276995718479e-05,-7.812499534338712692e-03,0.000000000000000000e+00,-1.706959018576981180e-08,-3.323453068304615954e-09,-9.111912804655730724e-04,-4.410397309584368486e-07,-5.130118552187923342e-07,-1.822387427091598511e-02,-1.229103304467571434e-06,8.827422789181582630e-06,-2.108686697477324401e-10,0.000000000000000000e+00,-2.974406816065311432e-04,1.000000000000000000e+00
1.600134611129760742e+00,-1.580951538085937500e+02,5.246316146850585938e+01,5.246316146850585938e+01,4.098113276995718479e-05,-7.812499534338712692e-03,0.000000000000000000e+00,-1.706959018576981180e-08,-3.323453068304615954e-09,-9.111912804655730724e-04,-4.410397309584368486e-07,-5.130118552187923342e-07,-1.822387427091598511e-02,-1.229103304467571434e-06,8.827422789181582630e-06,-2.108686697477324401e-10,0.000000000000000000e+00,-2.974406816065311432e-04,1.000000000000000000e+00
1.600134611129760742e+00,-1.580951538085937500e+02,5.246316146850585938e+01,5.246316146850585938e+01,4.098113276995718479e-05,-7.812499534338712692e-03,0.000000000000000000e+00,-1.706959018576981180e-08,-3.323453068304615954e-09,-9.111912804655730724e-04,-4.410397309584368486e-07,-5.130118552187923342e-07,-1.822387427091598511e-02,-1.229103304467571434e-06,8.827422789181582630e-06,-2.108686697477324401e-10,0.000000000000000000e+00,-2.974406816065311432e-04,1.000000000000000000e+00
1.600134611129760742e+00,-1.580951538085937500e+02,5.246316146850585938e+01,5.246316146850585938e+01,4.098113276995718479e-05,-7.812499534338712692e-03,0.000000000000000000e+00,-1.706959018576981180e-08,-3.323453068304615954e-09,-9.111912804655730724e-04,-4.410397309584368486e-07,-5.130118552187923342e-07,-1.822387427091598511e-02,-1.229103304467571434e-06,8.827422789181582630e-06,-2.108686697477324401e-10,0.000000000000000000e+00,-2.974406816065311432e-04,1.000000000000000000e+00
1.600134611129760742e+00,-1.580951538085937500e+02,5.246316146850585938e+01,5.246316146850585938e+01,4.098113276995718479e-05,-7.812499534338712692e-03,0.000000000000000000e+00,-1.706959018576981180e-08,-3.323453068304615954e-09,-9.111912804655730724e-04,-4.410397309584368486e-07,-5.130118552187923342e-07,-1.822387427091598511e-02,-1.229103304467571434e-06,8.827422789181582630e-06,-2.108686697477324401e-10,0.000000000000000000e+00,-2.974406816065311432e-04,1.000000000000000000e+00
1.600134611129760742e+00,-1.580951538085937500e+02,5.246316146850585938e+01,5.246316146850585938e+01,4.098113276995718479e-05,-7.812499534338712692e-03,0.000000000000000000e+00,3.147836480366095202e-08,-1.644641534070956368e-09,3.817863180302083492e-04,4.207699078051518882e-07,1.455042575315701470e-08,1.120636519044637680e-02,-4.676180935803131433e-07,-1.629358666832558811e-05,4.337733783277286648e-10,0.000000000000000000e+00,-2.974406816065311432e-04,1.000000000000000000e+00
1.715513467788696289e+00,-1.580951538085937500e+02,5.246316146850585938e+01,5.246316146850585938e+01,4.098113276995718479e-05,-7.812499534338712692e-03,0.000000000000000000e+00,3.147836480366095202e-08,-1.644641534070956368e-09,3.817863180302083492e-04,4.207699078051518882e-07,1.455042575315701470e-08,1.120636519044637680e-02,-4.676180935803131433e-07,-1.629358666832558811e-05,4.337733783277286648e-10,0.000000000000000000e+00,-2.974406816065311432e-04,1.000000000000000000e+00
1.715513467788696289e+00,-1.580951538085937500e+02,5.246316146850585938e+01,5.246316146850585938e+01,4.098113276995718479e-05,-7.812499534338712692e-03,0.000000000000000000e+00,3.147836480366095202e-08,-1.644641534070956368e-09,3.817863180302083492e-04,4.207699078051518882e-07,1.455042575315701470e-08,1.120636519044637680e-02,-4.676180935803131433e-07,-1.629358666832558811e-05,4.337733783277286648e-10,0.000000000000000000e+00,-2.974406816065311432e-04,1.000000000000000000e+00
1.715513467788696289e+00,-1.580951538085937500e+02,5.246316146850585938e+01,5.246316146850585938e+01,4.098113276995718479e-05,-7.812499534338712692e-03,0.000000000000000000e+00,-1.721046416491844866e-08,3.237532242295060314e-09,-8.063116692937910557e-04,-4.988525006410782225e-07,5.002142700050171698e-08,-1.217292901128530502e-02,1.470189886276784819e-06,9.980213690141681582e-06,-2.369477281050080819e-09,0.000000000000000000e+00,-2.974406816065311432e-04,1.000000000000000000e+00
1.813115119934082031e+00,-1.580951538085937500e+02,5.246316146850585938e+01,5.246316146850585938e+01,4.098113276995718479e-05,-7.812499534338712692e-03,0.000000000000000000e+00,-1.721046416491844866e-08,3.237532242295060314e-09,-8.063116692937910557e-04,-4.988525006410782225e-07,5.002142700050171698e-08,-1.217292901128530502e-02,1.470189886276784819e-06,9.980213690141681582e-06,-2.369477281050080819e-09,0.000000000000000000e+00,-2.974406816065311432e-04,1.000000000000000000e+00
1.813115119934082031e+00,-1.580951538085937500e+02,5.246316146850585938e+01,5.246316146850585938e+01,4.098113276995718479e-05,-7.812499534338712692e-03,0.000000000000000000e+00,-1.721046416491844866e-08,3.237532242295060314e-09,-8.063116692937910557e-04,-4.988525006410782225e-07,5.002142700050171698e-08,-1.217292901128530502e-02,1.470189886276784819e-06,9.980213690141681582e-06,-2.369477281050080819e-09,0.000000000000000000e+00,-2.974406816065311432e-04,1.000000000000000000e+00
1.813115119934082031e+00,-1.580951538085937500e+02,5.246316146850585938e+01,5.246316146850585938e+01,4.098113276995718479e-05,-7.812499534338712692e-03,0.000000000000000000e+00,-1.721046416491844866e-08,3.237532242295060314e-09,-8.063116692937910557e-04,-4.988525006410782225e-07,5.002142700050171698e-08,-1.217292901128530502e-02,1.470189886276784819e-06,9.980213690141681582e-06,-2.369477281050080819e-09,0.000000000000000000e+00,-2.974406816065311432e-04,1.000000000000000000e+00
1.896134853363037109e+00,-1.580951538085937500e+02,5.246316146850585938e+01,5.246316146850585938e+01,4.098113276995718479e-05,-7.812499534338712692e-03,0.000000000000000000e+00,2.419564637534676876e-08,-4.638582851157480036e-08,2.971356443595141172e-04,4.987502393305476289e-07,-5.977296950732124969e-07,1.329138595610857010e-02,-1.812607479223515838e-05,-1.251565845450386405e-05,6.320825529648743668e-10,0.000000000000000000e+00,-2.974406816065311432e-04,1.000000000000000000e+00
1.896134853363037109e+00,-1.580951538085937500e+02,5.246316146850585938e+01,5.246316146850585938e+01,4.098113276995718479e-05,-7.812499534338712692e-03,0.000000000000000000e+00,2.419564637534676876e-08,-4.638582851157480036e-08,2.971356443595141172e-04,4.987502393305476289e-07,-5.977296950732124969e-07,1.329138595610857010e-02,-1.812607479223515838e-05,-1.251565845450386405e-05,6.320825529648743668e-10,0.000000000000000000e+00,-2.974406816065311432e-04,1.000000000000000000e+00
1.896134853363037109e+00,-1.580951538085937500e+02,5.246316146850585938e+01,5.246316146850585938e+01,4.098113276995718479e-05,-7.812499534338712692e-03,0.000000000000000000e+00,2.419564637534676876e-08,-4.638582851157480036e-08,2.971356443595141172e-04,4.987502393305476289e-07,-5.977296950732124969e-07,1.329138595610857010e-02,-1.812607479223515838e-05,-1.251565845450386405e-05,6.320825529648743668e-10,0.000000000000000000e+00,-2.974406816065311432e-04,1.000000000000000000e+00
1.896134853363037109e+00,-1.580951538085937500e+02,5.246316146850585938e+01,5.246316146850585938e+01,4.098113276995718479e-05,-7.812499534338712692e-03,0.000000000000000000e+00,2.419564637534676876e-08,-4.638582851157480036e-08,2.971356443595141172e-04,4.987502393305476289e-07,-5.977296950732124969e-07,1.329138595610857010e-02,-1.812607479223515838e-05,-1.251565845450386405e-05,6.320825529648743668e-10,0.000000000000000000e+00,-2.974406816065311432e-04,1.000000000000000000e+00
1.896134853363037109e+00,-1.580951538085937500e+02,5.246316146850585938e+01,5.246316146850585938e+01,4.098113276995718479e-05,-7.812499534338712692e-03,0.000000000000000000e+00,2.419564637534676876e-08,-4.638582851157480036e-08,2.971356443595141172e-04,4.987502393305476289e-07,-5.977296950732124969e-07,1.329138595610857010e-02,-1.812607479223515838e-05,-1.251565845450386405e-05,6.320825529648743668e-10,0.000000000000000000e+00,-2.974406816065311432e-04,1.000000000000000000e+00
1.896134853363037109e+00,-1.580951538085937500e+02,5.246316146850585938e+01,5.246316146850585938e+01,4.098113276995718479e-05,-7.812499534338712692e-03,0.000000000000000000e+00,2.419564637534676876e-08,-4.638582851157480036e-08,2.971356443595141172e-04,4.987502393305476289e-07,-5.977296950732124969e-07,1.329138595610857010e-02,-1.812607479223515838e-05,-1.251565845450386405e-05,6.320825529648743668e-10,0.000000000000000000e+00,-2.974406816065311432e-04,1.000000000000000000e+00
1.896134853363037109e+00,-1.580951538085937500e+02,5.246316146850585938e+01,5.246316146850585938e+01,4.098113276995718479e-05,-7.812499534338712692e-03,0.000000000000000000e+00,2.419564637534676876e-08,-4.638582851157480036e-08,2.971356443595141172e-04,4.987502393305476289e-07,-5.977296950732124969e-07,1.329138595610857010e-02,-1.812607479223515838e-05,-1.251565845450386405e-05,6.320825529648743668e-10,0.000000000000000000e+00,-2.974406816065311432e-04,1.000000000000000000e+00
1.896134853363037109e+00,-1.580951538085937500e+02,5.246316146850585938e+01,5.246316146850585938e+01,4.098113276995718479e-05,-7.812499534338712692e-03,0.000000000000000000e+00,2.419564637534676876e-08,-4.638582851157480036e-08,2.971356443595141172e-04,4.987502393305476289e-07,-5.977296950732124969e-07,1.329138595610857010e-02,-1.812607479223515838e-05,-1.251565845450386405e-05,6.320825529648743668e-10,0.000000000000000000e+00,-2.974406816065311432e-04,1.000000000000000000e+00
2.195794820785522461e+00,-1.580951538085937500e+02,5.246316146850585938e+01,5.246316146850585938e+01,4.098113276995718479e-05,-7.812499534338712692e-03,0.000000000000000000e+00,2.685947286806822376e-08,-1.417405037784646993e-08,1.391703262925148010e-03,1.010692017189285252e-06,-3.706595919084065827e-07,2.200187370181083679e-02,-5.522550509340362623e-06,-1.390160559822106734e-05,2.500622486856229898e-10,0.000000000000000000e+00,-2.974406816065311432e-04,1.000000000000000000e+00
2.195794820785522461e+00,-1.580951538085937500e+02,5.246316146850585938e+01,5.246316146850585938e+01,4.098113276995718479e-05,-7.812499534338712692e-03,0.000000000000000000e+00,2.685947286806822376e-08,-1.417405037784646993e-08,1.391703262925148010e-03,1.010692017189285252e-06,-3.706595919084065827e-07,2.200187370181083679e-02,-5.522550509340362623e-06,-1.390160559822106734e-05,2.500622486856229898e-10,0.000000000000000000e+00,-2.974406816065311432e-04,1.000000000000000000e+00
2.195794820785522461e+00,-1.580951538085937500e+02,5.246316146850585938e+01,5.246316146850585938e+01,4.098113276995718479e-05,-7.812499534338712692e-03,0.000000000000000000e+00,2.685947286806822376e-08,-1.417405037784646993e-08,1.391703262925148010e-03,1.010692017189285252e-06,-3.706595919084065827e-07,2.200187370181083679e-02,-5.522550509340362623e-06,-1.390160559822106734e-05,2.500622486856229898e-10,0.000000000000000000e+00,-2.974406816065311432e-04,1.000000000000000000e+00
2.195794820785522461e+00,-1.580951538085937500e+02,5.246316146850585938e+01,5.246316146850585938e+01,4.098113276995718479e-05,-7.812499534338712692e-03,0.000000000000000000e+00,2.685947286806822376e-08,-1.417405037784646993e-08,1.391703262925148010e-03,1.010692017189285252e-06,-3.706595919084065827e-07,2.200187370181083679e-02,-5.522550509340362623e-06,-1.390160559822106734e-05,2.500622486856229898e-10,0.000000000000000000e+00,-2.974406816065311432e-04,1.000000000000000000e+00
2.195794820785522461e+00,-1.580951538085937500e+02,5.246316146850585938e+01,5.246316146850585938e+01,4.098113276995718479e-05,-7.812499534338712692e-03,0.000000000000000000e+00,2.685947286806822376e-08,-1.417405037784646993e-08,1.391703262925148010e-03,1.010692017189285252e-06,-3.706595919084065827e-07,2.200187370181083679e-02,-5.522550509340362623e-06,-1.390160559822106734e-05,2.500622486856229898e-10,0.000000000000000000e+00,-2.974406816065311432e-04,1.000000000000000000e+00
2.195794820785522461e+00,-1.580951538085937500e+02,5.246316146850585938e+01,5.246316146850585938e+01,4.098113276995718479e-05,-7.812499534338712692e-03,0.000000000000000000e+00,2.685947286806822376e-08,-1.417405037784646993e-08,1.391703262925148010e-03,1.010692017189285252e-06,-3.706595919084065827e-07,2.200187370181083679e-02,-5.522550509340362623e-06,-1.390160559822106734e-05,2.500622486856229898e-10,0.000000000000000000e+00,-2.974406816065311432e-04,1.000000000000000000e+00
2.195794820785522461e+00,-1.580951538085937500e+02,5.246316146850585938e+01,5.246316146850585938e+01,4.098113276995718479e-05,-7.812499534338712692e-03,0.000000000000000000e+00,2.685947286806822376e-08,-1.417405037784646993e-08,1.391703262925148010e-03,1.010692017189285252e-06,-3.706595919084065827e-07,2.200187370181083679e-02,-5.522550509340362623e-06,-1.390160559822106734e-05,2.500622486856229898e-10,0.000000000000000000e+00,-2.974406816065311432e-04,1.000000000000000000e+00
2.195794820785522461e+00,-1.580951538085937500e+02,5.246316146850585938e+01,5.246316146850585938e+01,4.098113276995718479e-05,-7.812499534338712692e-03,0.000000000000000000e+00,2.685947286806822376e-08,-1.417405037784646993e-08,1.391703262925148010e-03,1.010692017189285252e-06,-3.706595919084065827e-07,2.200187370181083679e-02,-5.522550509340362623e-06,-1.390160559822106734e-05,2.500622486856229898e-10,0.000000000000000000e+00,-2.974406816065311432e-04,1.000000000000000000e+00
2.195794820785522461e+00,-1.580951538085937500e+02,5.246316146850585938e+01,5.246316146850585938e+01,4.098113276995718479e-05,-7.812499534338712692e-03,0.000000000000000000e+00,2.685947286806822376e-08,-1.417405037784646993e-08,1.391703262925148010e-03,1.010692017189285252e-06,-3.706595919084065827e-07,2.200187370181083679e-02,-5.522550509340362623e-06,-1.390160559822106734e-05,2.500622486856229898e-10,0.000000000000000000e+00,-2.974406816065311432e-04,1.000000000000000000e+00
2.195794820785522461e+00,-1.580951538085937500e+02,5.246316146850585938e+01,5.246316146850585938e+01,4.098113276995718479e-05,-7.812499534338712692e-03,0.000000000000000000e+00,2.685947286806822376e-08,-1.417405037784646993e-08,1.391703262925148010e-03,1.010692017189285252e-06,-3.706595919084065827e-07,2.200187370181083679e-02,-5.522550509340362623e-06,-1.390160559822106734e-05,2.500622486856229898e-10,0.000000000000000000e+00,-2.974406816065311432e-04,1.000000000000000000e+00
2.374083757400512695e+00,-1.580951538085937500e+02,5.246316146850585938e+01,5.246316146850585938e+01,4.098113276995718479e-05,-7.812499534338712692e-03,0.000000000000000000e+00,3.201303000466282356e-09,5.979229200647750986e-08,1.705820672214031219e-03,-1.326956748926022556e-07,4.148677987814153312e-07,1.761844614520668983e-03,3.462427412159740925e-05,-1.073711700882995501e-06,-4.142327370004750264e-09,0.000000000000000000e+00,-2.974406816065311432e-04,1.000000000000000000e+00
2.374083757400512695e+00,-1.580951538085937500e+02,5.246316146850585938e+01,5.246316146850585938e+01,4.098113276995718479e-05,-7.812499534338712692e-03,0.000000000000000000e+00,3.201303000466282356e-09,5.979229200647750986e-08,1.705820672214031219e-03,-1.326956748926022556e-07,4.148677987814153312e-07,1.761844614520668983e-03,3.462427412159740925e-05,-1.073711700882995501e-06,-4.142327370004750264e-09,0.000000000000000000e+00,-2.974406816065311432e-04,1.000000000000000000e+00
2.374083757400512695e+00,-1.580951538085937500e+02,5.246316146850585938e+01,5.246316146850585938e+01,4.098113276995718479e-05,-7.812499534338712692e-03,0.000000000000000000e+00,3.201303000466282356e-09,5.979229200647750986e-08,1.705820672214031219e-03,-1.326956748926022556e-07,4.148677987814153312e-07,1.761844614520668983e-03,3.462427412159740925e-05,-1.073711700882995501e-06,-4.142327370004750264e-09,0.000000000000000000e+00,-2.974406816065311432e-04,1.000000000000000000e+00
2.447860002517700195e+00,-1.580951538085937500e+02,5.246316146850585938e+01,5.246316146850585938e+01,4.098113276995718479e-05,-7.812499534338712692e-03,0.000000000000000000e+00,-4.977368917025160044e-08,3.050495134271358211e-10,-7.130197482183575630e-04,-7.180494776548584923e-07,-8.063197469709848519e-07,-3.278616815805435181e-02,9.970896996946976287e-08,2.794560532493051142e-05,-4.821325561010780802e-09,0.000000000000000000e+00,-2.974406816065311432e-04,1.000000000000000000e+00
2.447860002517700195e+00,-1.580951538085937500e+02,5.246316146850585938e+01,5.246316146850585938e+01,4.098113276995718479e-05,-7.812499534338712692e-03,0.000000000000000000e+00,-4.977368917025160044e-08,3.050495134271358211e-10,-7.130197482183575630e-04,-7.180494776548584923e-07,-8.063197469709848519e-07,-3.278616815805435181e-02,9.970896996946976287e-08,2.794560532493051142e-05,-4.821325561010780802e-09,0.000000000000000000e+00,-2.974406816065311432e-04,1.000000000000000000e+00
2.500878810882568359e+00,-1.580951538085937500e+02,5.246316146850585938e+01,5.246316146850585938e+01,4.098113276995718479e-05,-7.812499534338712692e-03,0.000000000000000000e+00,-9.035741932450491731e-09,1.220224010722859020e-08,7.321230950765311718e-04,7.683678404646343552e-07,2.243956629399690428e-07,2.725717239081859589e-02,-6.549635145347565413e-07,5.255310952634317800e-06,-3.444759200110780739e-10,0.000000000000000000e+00,-2.974406816065311432e-04,1.000000000000000000e+00
2.500878810882568359e+00,-1.580951538085937500e+02,5.246316146850585938e+01,5.246316146850585938e+01,4.098113276995718479e-05,-7.812499534338712692e-03,0.000000000000000000e+00,-9.035741932450491731e-09,1.220224010722859020e-08,7.321230950765311718e-04,7.683678404646343552e-07,2.243956629399690428e-07,2.725717239081859589e-02,-6.549635145347565413e-07,5.255310952634317800e-06,-3.444759200110780739e-10,0.000000000000000000e+00,-2.974406816065311432e-04,1.000000000000000000e+00
2.560195446014404297e+00,-1.580951538085937500e+02,5.246316146850585938e+01,5.246316146850585938e+01,4.098113276995718479e-05,-7.812499534338712692e-03,0.000000000000000000e+00,-1.277343653072193774e-08,-1.311890374111612800e-09,1.239402452483773232e-03,-6.301258537178000552e-08,-2.278303554703597911e-07,8.552058599889278412e-03,-5.548889703277382068e-07,6.600471351703163236e-06,2.973192247957001655e-10,0.000000000000000000e+00,-2.974406816065311432e-04,1.000000000000000000e+00
2.560195446014404297e+00,-1.580951538085937500e+02,5.246316146850585938e+01,5.246316146850585938e+01,4.098113276995718479e-05,-7.812499534338712692e-03,0.000000000000000000e+00,-1.277343653072193774e-08,-1.311890374111612800e-09,1.239402452483773232e-03,-6.301258537178000552e-08,-2.278303554703597911e-07,8.552058599889278412e-03,-5.548889703277382068e-07,6.600471351703163236e-06,2.973192247957001655e-10,0.000000000000000000e+00,-2.974406816065311432e-04,1.000000000000000000e+00
2.560195446014404297e+00,-1.580951538085937500e+02,5.246316146850585938e+01,5.246316146850585938e+01,4.098113276995718479e-05,-7.812499534338712692e-03,0.000000000000000000e+00,-1.277343653072193774e-08,-1.311890374111612800e-09,1.239402452483773232e-03,-6.301258537178000552e-08,-2.278303554703597911e-07,8.552058599889278412e-03,-5.548889703277382068e-07,6.600471351703163236e-06,2.973192247957001655e-10,0.000000000000000000e+00,-2.974406816065311432e-04,1.000000000000000000e+00
2.618730545043945312e+00,-1.580951538085937500e+02,5.246316146850585938e+01,5.246316146850585938e+01,4.098113276995718479e-05,-7.812499534338712692e-03,0.000000000000000000e+00,-1.564642282403383433e-08,-3.150792682315994853e-10,-1.059489441104233265e-03,-4.908142869908260764e-08,1.702928820179749891e-08,-3.927373513579368591e-02,-7.161408888123332872e-08,8.143852937791962177e-06,-5.625466759084929436e-10,0.000000000000000000e+00,-2.974406816065311432e-04,1.000000000000000000e+00
2.618730545043945312e+00,-1.580951538085937500e+02,5.246316146850585938e+01,5.246316146850585938e+01,4.098113276995718479e-05,-7.812499534338712692e-03,0.000000000000000000e+00,-1.564642282403383433e-08,-3.150792682315994853e-10,-1.059489441104233265e-03,-4.908142869908260764e-08,1.702928820179749891e-08,-3.927373513579368591e-02,-7.161408888123332872e-08,8.143852937791962177e-06,-5.625466759084929436e-10,0.000000000000000000e+00,-2.974406816065311432e-04,1.000000000000000000e+00
2.677334070205688477e+00,-1.580951538085937500e+02,5.246316146850585938e+01,5.246316146850585938e+01,4.098113276995718479e-05,-7.812499534338712692e-03,0.000000000000000000e+00,-1.809021732412929850e-08,-1.205670452364415723e-09,-6.777439266443252563e-04,-4.170047063212223293e-08,-1.519688730411417055e-08,6.514036562293767929e-03,-4.526942234406305943e-07,1.053274536388926208e-05,-2.772088336655542662e-09,0.000000000000000000e+00,-2.974406816065311432e-04,1.000000000000000000e+00
2.677334070205688477e+00,-1.580951538085937500e+02,5.246316146850585938e+01,5.246316146850585938e+01,4.098113276995718479e-05,-7.812499534338712692e-03,0.000000000000000000e+00,-1.809021732412929850e-08,-1.205670452364415723e-09,-6.777439266443252563e-04,-4.170047063212223293e-08,-1.519688730411417055e-08,6.514036562293767929e-03,-4.526942234406305943e-07,1.053274536388926208e-05,-2.772088336655542662e-09,0.000000000000000000e+00,-2.974406816065311432e-04,1.000000000000000000e+00
2.677334070205688477e+00,-1.580951538085937500e+02,5.246316146850585938e+01,5.246316146850585938e+01,4.098113276995718479e-05,-7.812499534338712692e-03,0.000000000000000000e+00,-1.809021732412929850e-08,-1.205670452364415723e-09,-6.777439266443252563e-04,-4.170047063212223293e-08,-1.519688730411417055e-08,6.514036562293767929e-03,-4.526942234406305943e-07,1.053274536388926208e-05,-2.772088336655542662e-09,0.000000000000000000e+00,-2.974406816065311432e-04,1.000000000000000000e+00
2.677334070205688477e+00,-1.580951538085937500e+02,5.246316146850585938e+01,5.246316146850585938e+01,4.098113276995718479e-05,-7.812499534338712692e-03,0.000000000000000000e+00,-2.188058978447315894e-08,-3.507578227868179965e-09,-5.964454030618071556e-04,-4.878789638951275265e-08,-2.962907608150544547e-08,1.046436373144388199e-03,-1.355166773464588914e-06,1.246977626578882337e-05,-2.689505285147220093e-09,0.000000000000000000e+00,-2.974406816065311432e-04,1.000000000000000000e+00
2.755024909973144531e+00,-1.580951538085937500e+02,5.246316146850585938e+01,5.246316146850585938e+01,4.098113276995718479e-05,-7.812499534338712692e-03,0.000000000000000000e+00,-2.188058978447315894e-08,-3.507578227868179965e-09,-5.964454030618071556e-04,-4.878789638951275265e-08,-2.962907608150544547e-08,1.046436373144388199e-03,-1.355166773464588914e-06,1.246977626578882337e-05,-2.689505285147220093e-09,0.000000000000000000e+00,-2.974406816065311432e-04,1.000000000000000000e+00
2.755024909973144531e+00,-1.580951538085937500e+02,5.246316146850585938e+01,5.246316146850585938e+01,4.098113276995718479e-05,-7.812499534338712692e-03,0.000000000000000000e+00,-2.188058978447315894e-08,-3.507578227868179965e-09,-5.964454030618071556e-04,-4.878789638951275265e-08,-2.962907608150544547e-08,1.046436373144388199e-03,-1.355166773464588914e-06,1.246977626578882337e-05,-2.689505285147220093e-09,0.000000000000000000e+00,-2.974406816065311432e-04,1.000000000000000000e+00
2.755024909973144531e+00,-1.580951538085937500e+02,5.246316146850585938e+01,5.246316146850585938e+01,4.098113276995718479e-05,-7.812499534338712692e-03,0.000000000000000000e+00,-2.188058978447315894e-08,-3.507578227868179965e-09,-5.964454030618071556e-04,-4.878789638951275265e-08,-2.962907608150544547e-08,1.046436373144388199e-03,-1.355166773464588914e-06,1.246977626578882337e-05,-2.689505285147220093e-09,0.000000000000000000e+00,-2.974406816065311432e-04,1.000000000000000000e+00
2.830169916152954102e+00,-1.580951538085937500e+02,5.246316146850585938e+01,5.246316146850585938e+01,4.098113276995718479e-05,-7.812499534338712692e-03,0.000000000000000000e+00,-2.484385364098784521e-09,-1.042570127451902806e-10,-3.741636464837938547e-04,2.581169837867491879e-07,4.529005082076764666e-08,2.958037657663226128e-03,1.094139778778924210e-09,1.313783968726056628e-06,-9.915478160760216042e-11,0.000000000000000000e+00,-2.974406816065311432e-04,1.000000000000000000e+00
2.830169916152954102e+00,-1.580951538085937500e+02,5.246316146850585938e+01,5.246316146850585938e+01,4.098113276995718479e-05,-7.812499534338712692e-03,0.000000000000000000e+00,-2.484385364098784521e-09,-1.042570127451902806e-10,-3.741636464837938547e-04,2.581169837867491879e-07,4.529005082076764666e-08,2.958037657663226128e-03,1.094139778778924210e-09,1.313783968726056628e-06,-9.915478160760216042e-11,0.000000000000000000e+00,-2.974406816065311432e-04,1.000000000000000000e+00
2.830169916152954102e+00,-1.580951538085937500e+02,5.246316146850585938e+01,5.246316146850585938e+01,4.098113276995718479e-05,-7.812499534338712692e-03,0.000000000000000000e+00,-2.484385364098784521e-09,-1.042570127451902806e-10,-3.741636464837938547e-04,2.581169837867491879e-07,4.529005082076764666e-08,2.958037657663226128e-03,1.094139778778924210e-09,1.313783968726056628e-06,-9.915478160760216042e-11,0.000000000000000000e+00,-2.974406816065311432e-04,1.000000000000000000e+00
2.830169916152954102e+00,-1.580951538085937500e+02,5.246316146850585938e+01,5.246316146850585938e+01,4.098113276995718479e-05,-7.812499534338712692e-03,0.000000000000000000e+00,-2.484385364098784521e-09,-1.042570127451902806e-10,-3.741636464837938547e-04,2.581169837867491879e-07,4.529005082076764666e-08,2.958037657663226128e-03,1.094139778778924210e-09,1.313783968726056628e-06,-9.915478160760216042e-11,0.000000000000000000e+00,-2.974406816065311432e-04,1.000000000000000000e+00
2.830169916152954102e+00,-1.580951538085937500e+02,5.246316146850585938e+01,5.246316146850585938e+01,4.098113276995718479e-05,-7.812499534338712692e-03,0.000000000000000000e+00,-2.484385364098784521e-09,-1.042570127451902806e-10,-3.741636464837938547e-04,2.581169837867491879e-07,4.529005082076764666e-08,2.958037657663226128e-03,1.094139778778924210e-09,1.313783968726056628e-06,-9.915478160760216042e-11,0.000000000000000000e+00,-2.974406816065311432e-04,1.000000000000000000e+00
2.917726278305053711e+00,-1.580951538085937500e+02,5.246316146850585938e+01,5.246316146850585938e+01,4.098113276995718479e-05,-7.812499534338712692e-03,0.000000000000000000e+00,-5.884445819503980601e-09,1.377886027498220756e-09,-5.052760752732865512e-05,-3.883281962657747499e-08,1.692787421347929921e-08,3.696316620334982872e-03,4.337558436873223400e-07,3.072874733334174380e-06,-7.190505829646198777e-11,0.000000000000000000e+00,-2.974406816065311432e-04,1.000000000000000000e+00
