# Time,X,Y,Z,Roll,Pitch,Yaw,Vx,Vy,Vz,Ax,Ay,Az,Wx,Wy,Wz,Throttle,Steer,Brake
0.000000000000000000e+00,-9.030654907226562500e+00,2.889055480957031250e+02,2.889055480957031250e+02,-1.251290552318096161e-02,8.909928131103515625e+01,3.859698772430419922e-04,1.409335732460021973e-01,8.942890167236328125e+00,4.233715117152314633e-06,1.820138283073902130e-02,1.136847853660583496e+00,-3.645942115326761268e-06,4.004832357168197632e-02,-6.334969075396656990e-04,-1.678507251199334860e-04,5.000000000000000000e-01,-4.301071021473035216e-05,0.000000000000000000e+00
1.045818328857421875e-01,-9.030654907226562500e+00,2.889055480957031250e+02,2.889055480957031250e+02,-1.251290552318096161e-02,8.909928131103515625e+01,3.859698772430419922e-04,1.409335732460021973e-01,8.942890167236328125e+00,4.233715117152314633e-06,1.820138283073902130e-02,1.136847853660583496e+00,-3.645942115326761268e-06,4.004832357168197632e-02,-6.334969075396656990e-04,-1.678507251199334860e-04,5.000000000000000000e-01,-4.301071021473035216e-05,0.000000000000000000e+00
1.045818328857421875e-01,-9.030654907226562500e+00,2.889055480957031250e+02,2.889055480957031250e+02,-1.251290552318096161e-02,8.909928131103515625e+01,3.859698772430419922e-04,1.409335732460021973e-01,8.942890167236328125e+00,4.233715117152314633e-06,1.820138283073902130e-02,1.136847853660583496e+00,-3.645942115326761268e-06,4.004832357168197632e-02,-6.334969075396656990e-04,-1.678507251199334860e-04,5.000000000000000000e-01,-4.301071021473035216e-05,0.000000000000000000e+00
1.045818328857421875e-01,-9.030654907226562500e+00,2.889055480957031250e+02,2.889055480957031250e+02,-1.251290552318096161e-02,8.909928131103515625e+01,3.859698772430419922e-04,1.409335732460021973e-01,8.942890167236328125e+00,4.233715117152314633e-06,1.820138283073902130e-02,1.136847853660583496e+00,-3.645942115326761268e-06,4.004832357168197632e-02,-6.334969075396656990e-04,-1.678507251199334860e-04,5.000000000000000000e-01,-4.301071021473035216e-05,0.000000000000000000e+00
1.045818328857421875e-01,-9.030654907226562500e+00,2.889055480957031250e+02,2.889055480957031250e+02,-1.251290552318096161e-02,8.909928131103515625e+01,3.859698772430419922e-04,1.409335732460021973e-01,8.942890167236328125e+00,4.233715117152314633e-06,1.820138283073902130e-02,1.136847853660583496e+00,-3.645942115326761268e-06,4.004832357168197632e-02,-6.334969075396656990e-04,-1.678507251199334860e-04,5.000000000000000000e-01,-4.301071021473035216e-05,0.000000000000000000e+00
1.045818328857421875e-01,-9.030654907226562500e+00,2.889055480957031250e+02,2.889055480957031250e+02,-1.251290552318096161e-02,8.909928131103515625e+01,3.859698772430419922e-04,1.409335732460021973e-01,8.942890167236328125e+00,4.233715117152314633e-06,1.820138283073902130e-02,1.136847853660583496e+00,-3.645942115326761268e-06,4.004832357168197632e-02,-6.334969075396656990e-04,-1.678507251199334860e-04,5.000000000000000000e-01,-4.301071021473035216e-05,0.000000000000000000e+00
1.045818328857421875e-01,-9.016530036926269531e+00,2.898018188476562500e+02,2.898018188476562500e+02,1.117418892681598663e-02,8.909877014160156250e+01,2.919734688475728035e-04,1.412886381149291992e-01,8.959315299987792969e+00,1.544694896438159049e-06,3.390970872715115547e-03,1.568647027015686035e-01,-2.568091076682321727e-05,3.509245216846466064e-01,-4.272874444723129272e-03,-7.885691709816455841e-03,5.000000000000000000e-01,-5.273818896966986358e-05,0.000000000000000000e+00
2.092907428741455078e-01,-9.016530036926269531e+00,2.898018188476562500e+02,2.898018188476562500e+02,1.117418892681598663e-02,8.909877014160156250e+01,2.919734688475728035e-04,1.412886381149291992e-01,8.959315299987792969e+00,1.544694896438159049e-06,3.390970872715115547e-03,1.568647027015686035e-01,-2.568091076682321727e-05,3.509245216846466064e-01,-4.272874444723129272e-03,-7.885691709816455841e-03,5.000000000000000000e-01,-5.273818896966986358e-05,0.000000000000000000e+00
2.092907428741455078e-01,-9.016530036926269531e+00,2.898018188476562500e+02,2.898018188476562500e+02,1.117418892681598663e-02,8.909877014160156250e+01,2.919734688475728035e-04,1.412886381149291992e-01,8.959315299987792969e+00,1.544694896438159049e-06,3.390970872715115547e-03,1.568647027015686035e-01,-2.568091076682321727e-05,3.509245216846466064e-01,-4.272874444723129272e-03,-7.885691709816455841e-03,5.000000000000000000e-01,-5.273818896966986358e-05,0.000000000000000000e+00
2.092907428741455078e-01,-9.016530036926269531e+00,2.898018188476562500e+02,2.898018188476562500e+02,1.117418892681598663e-02,8.909877014160156250e+01,2.919734688475728035e-04,1.412886381149291992e-01,8.959315299987792969e+00,1.544694896438159049e-06,3.390970872715115547e-03,1.568647027015686035e-01,-2.568091076682321727e-05,3.509245216846466064e-01,-4.272874444723129272e-03,-7.885691709816455841e-03,5.000000000000000000e-01,-5.273818896966986358e-05,0.000000000000000000e+00
2.092907428741455078e-01,-9.016530036926269531e+00,2.898018188476562500e+02,2.898018188476562500e+02,1.117418892681598663e-02,8.909877014160156250e+01,2.919734688475728035e-04,1.412886381149291992e-01,8.959315299987792969e+00,1.544694896438159049e-06,3.390970872715115547e-03,1.568647027015686035e-01,-2.568091076682321727e-05,3.509245216846466064e-01,-4.272874444723129272e-03,-7.885691709816455841e-03,5.000000000000000000e-01,-5.273818896966986358e-05,0.000000000000000000e+00
2.092907428741455078e-01,-9.002459526062011719e+00,2.906943359375000000e+02,2.906943359375000000e+02,5.489422753453254700e-02,8.909771728515625000e+01,1.301238371524959803e-04,1.402908563613891602e-01,8.887490272521972656e+00,2.860546146621345542e-07,-1.337176095694303513e-02,-9.625622630119323730e-01,-1.686765244812704623e-05,4.747715592384338379e-01,-5.647764075547456741e-03,-1.202473696321249008e-02,5.000000000000000000e-01,-5.350112769519910216e-05,0.000000000000000000e+00
2.839093208312988281e-01,-9.002459526062011719e+00,2.906943359375000000e+02,2.906943359375000000e+02,5.489422753453254700e-02,8.909771728515625000e+01,1.301238371524959803e-04,1.402908563613891602e-01,8.887490272521972656e+00,2.860546146621345542e-07,-1.337176095694303513e-02,-9.625622630119323730e-01,-1.686765244812704623e-05,4.747715592384338379e-01,-5.647764075547456741e-03,-1.202473696321249008e-02,5.000000000000000000e-01,-5.350112769519910216e-05,0.000000000000000000e+00
2.839093208312988281e-01,-9.002459526062011719e+00,2.906943359375000000e+02,2.906943359375000000e+02,5.489422753453254700e-02,8.909771728515625000e+01,1.301238371524959803e-04,1.402908563613891602e-01,8.887490272521972656e+00,2.860546146621345542e-07,-1.337176095694303513e-02,-9.625622630119323730e-01,-1.686765244812704623e-05,4.747715592384338379e-01,-5.647764075547456741e-03,-1.202473696321249008e-02,5.000000000000000000e-01,-5.350112769519910216e-05,0.000000000000000000e+00
2.839093208312988281e-01,-9.002459526062011719e+00,2.906943359375000000e+02,2.906943359375000000e+02,5.489422753453254700e-02,8.909771728515625000e+01,1.301238371524959803e-04,1.402908563613891602e-01,8.887490272521972656e+00,2.860546146621345542e-07,-1.337176095694303513e-02,-9.625622630119323730e-01,-1.686765244812704623e-05,4.747715592384338379e-01,-5.647764075547456741e-03,-1.202473696321249008e-02,5.000000000000000000e-01,-5.350112769519910216e-05,0.000000000000000000e+00
2.839093208312988281e-01,-9.002459526062011719e+00,2.906943359375000000e+02,2.906943359375000000e+02,5.489422753453254700e-02,8.909771728515625000e+01,1.301238371524959803e-04,1.402908563613891602e-01,8.887490272521972656e+00,2.860546146621345542e-07,-1.337176095694303513e-02,-9.625622630119323730e-01,-1.686765244812704623e-05,4.747715592384338379e-01,-5.647764075547456741e-03,-1.202473696321249008e-02,5.000000000000000000e-01,-5.350112769519910216e-05,0.000000000000000000e+00
3.569011688232421875e-01,-8.992266654968261719e+00,2.913539123535156250e+02,2.913539123535156250e+02,9.010384976863861084e-02,8.910301971435546875e+01,2.744124969467520714e-03,1.332644373178482056e-01,8.799735069274902344e+00,-3.594815325413946994e-06,-9.626306593418121338e-02,-1.202260375022888184e+00,-5.316853639669716358e-05,4.684251844882965088e-01,-3.783773258328437805e-02,1.099121943116188049e-01,5.000000000000000000e-01,8.919715764932334423e-04,0.000000000000000000e+00
3.569011688232421875e-01,-8.992266654968261719e+00,2.913539123535156250e+02,2.913539123535156250e+02,9.010384976863861084e-02,8.910301971435546875e+01,2.744124969467520714e-03,1.332644373178482056e-01,8.799735069274902344e+00,-3.594815325413946994e-06,-9.626306593418121338e-02,-1.202260375022888184e+00,-5.316853639669716358e-05,4.684251844882965088e-01,-3.783773258328437805e-02,1.099121943116188049e-01,5.000000000000000000e-01,8.919715764932334423e-04,0.000000000000000000e+00
3.569011688232421875e-01,-8.992266654968261719e+00,2.913539123535156250e+02,2.913539123535156250e+02,9.010384976863861084e-02,8.910301971435546875e+01,2.744124969467520714e-03,1.332644373178482056e-01,8.799735069274902344e+00,-3.594815325413946994e-06,-9.626306593418121338e-02,-1.202260375022888184e+00,-5.316853639669716358e-05,4.684251844882965088e-01,-3.783773258328437805e-02,1.099121943116188049e-01,5.000000000000000000e-01,8.919715764932334423e-04,0.000000000000000000e+00
3.569011688232421875e-01,-8.992266654968261719e+00,2.913539123535156250e+02,2.913539123535156250e+02,9.010384976863861084e-02,8.910301971435546875e+01,2.744124969467520714e-03,1.332644373178482056e-01,8.799735069274902344e+00,-3.594815325413946994e-06,-9.626306593418121338e-02,-1.202260375022888184e+00,-5.316853639669716358e-05,4.684251844882965088e-01,-3.783773258328437805e-02,1.099121943116188049e-01,5.000000000000000000e-01,8.919715764932334423e-04,0.000000000000000000e+00
4.765405654907226562e-01,-8.982618331909179688e+00,2.919919433593750000e+02,2.919919433593750000e+02,1.225813999772071838e-01,8.911379241943359375e+01,4.125016275793313980e-03,1.287695020437240601e-01,8.696822166442871094e+00,-6.350543571898015216e-06,-3.757069632411003113e-02,-8.601924180984497070e-01,-2.303361907252110541e-05,4.254933595657348633e-01,-1.759804040193557739e-02,1.647973805665969849e-01,5.000000000000000000e-01,9.974479908123612404e-04,0.000000000000000000e+00
4.765405654907226562e-01,-8.982618331909179688e+00,2.919919433593750000e+02,2.919919433593750000e+02,1.225813999772071838e-01,8.911379241943359375e+01,4.125016275793313980e-03,1.287695020437240601e-01,8.696822166442871094e+00,-6.350543571898015216e-06,-3.757069632411003113e-02,-8.601924180984497070e-01,-2.303361907252110541e-05,4.254933595657348633e-01,-1.759804040193557739e-02,1.647973805665969849e-01,5.000000000000000000e-01,9.974479908123612404e-04,0.000000000000000000e+00
4.765405654907226562e-01,-8.982618331909179688e+00,2.919919433593750000e+02,2.919919433593750000e+02,1.225813999772071838e-01,8.911379241943359375e+01,4.125016275793313980e-03,1.287695020437240601e-01,8.696822166442871094e+00,-6.350543571898015216e-06,-3.757069632411003113e-02,-8.601924180984497070e-01,-2.303361907252110541e-05,4.254933595657348633e-01,-1.759804040193557739e-02,1.647973805665969849e-01,5.000000000000000000e-01,9.974479908123612404e-04,0.000000000000000000e+00
4.765405654907226562e-01,-8.982618331909179688e+00,2.919919433593750000e+02,2.919919433593750000e+02,1.225813999772071838e-01,8.911379241943359375e+01,4.125016275793313980e-03,1.287695020437240601e-01,8.696822166442871094e+00,-6.350543571898015216e-06,-3.757069632411003113e-02,-8.601924180984497070e-01,-2.303361907252110541e-05,4.254933595657348633e-01,-1.759804040193557739e-02,1.647973805665969849e-01,5.000000000000000000e-01,9.974479908123612404e-04,0.000000000000000000e+00
4.765405654907226562e-01,-8.982618331909179688e+00,2.919919433593750000e+02,2.919919433593750000e+02,1.225813999772071838e-01,8.911379241943359375e+01,4.125016275793313980e-03,1.287695020437240601e-01,8.696822166442871094e+00,-6.350543571898015216e-06,-3.757069632411003113e-02,-8.601924180984497070e-01,-2.303361907252110541e-05,4.254933595657348633e-01,-1.759804040193557739e-02,1.647973805665969849e-01,5.000000000000000000e-01,9.974479908123612404e-04,0.000000000000000000e+00
4.765405654907226562e-01,-8.982618331909179688e+00,2.919919433593750000e+02,2.919919433593750000e+02,1.225813999772071838e-01,8.911379241943359375e+01,4.125016275793313980e-03,1.287695020437240601e-01,8.696822166442871094e+00,-6.350543571898015216e-06,-3.757069632411003113e-02,-8.601924180984497070e-01,-2.303361907252110541e-05,4.254933595657348633e-01,-1.759804040193557739e-02,1.647973805665969849e-01,5.000000000000000000e-01,9.974479908123612404e-04,0.000000000000000000e+00
4.765405654907226562e-01,-8.982618331909179688e+00,2.919919433593750000e+02,2.919919433593750000e+02,1.225813999772071838e-01,8.911379241943359375e+01,4.125016275793313980e-03,1.287695020437240601e-01,8.696822166442871094e+00,-6.350543571898015216e-06,-3.757069632411003113e-02,-8.601924180984497070e-01,-2.303361907252110541e-05,4.254933595657348633e-01,-1.759804040193557739e-02,1.647973805665969849e-01,5.000000000000000000e-01,9.974479908123612404e-04,0.000000000000000000e+00
6.200885772705078125e-01,-8.970413208007812500e+00,2.928528137207031250e+02,2.928528137207031250e+02,1.606255471706390381e-01,8.914856719970703125e+01,1.021798886358737946e-02,1.123342141509056091e-01,8.540176391601562500e+00,-6.884381036798004061e-06,-1.144933179020881653e-01,-1.091243147850036621e+00,-3.718877451319713145e-06,3.366155624389648438e-01,-4.169959947466850281e-02,4.266551434993743896e-01,5.000000000000000000e-01,2.598381135612726212e-03,0.000000000000000000e+00
6.200885772705078125e-01,-8.970413208007812500e+00,2.928528137207031250e+02,2.928528137207031250e+02,1.606255471706390381e-01,8.914856719970703125e+01,1.021798886358737946e-02,1.123342141509056091e-01,8.540176391601562500e+00,-6.884381036798004061e-06,-1.144933179020881653e-01,-1.091243147850036621e+00,-3.718877451319713145e-06,3.366155624389648438e-01,-4.169959947466850281e-02,4.266551434993743896e-01,5.000000000000000000e-01,2.598381135612726212e-03,0.000000000000000000e+00
6.200885772705078125e-01,-8.970413208007812500e+00,2.928528137207031250e+02,2.928528137207031250e+02,1.606255471706390381e-01,8.914856719970703125e+01,1.021798886358737946e-02,1.123342141509056091e-01,8.540176391601562500e+00,-6.884381036798004061e-06,-1.144933179020881653e-01,-1.091243147850036621e+00,-3.718877451319713145e-06,3.366155624389648438e-01,-4.169959947466850281e-02,4.266551434993743896e-01,5.000000000000000000e-01,2.598381135612726212e-03,0.000000000000000000e+00
6.200885772705078125e-01,-8.970413208007812500e+00,2.928528137207031250e+02,2.928528137207031250e+02,1.606255471706390381e-01,8.914856719970703125e+01,1.021798886358737946e-02,1.123342141509056091e-01,8.540176391601562500e+00,-6.884381036798004061e-06,-1.144933179020881653e-01,-1.091243147850036621e+00,-3.718877451319713145e-06,3.366155624389648438e-01,-4.169959947466850281e-02,4.266551434993743896e-01,5.000000000000000000e-01,2.598381135612726212e-03,0.000000000000000000e+00
6.200885772705078125e-01,-8.970413208007812500e+00,2.928528137207031250e+02,2.928528137207031250e+02,1.606255471706390381e-01,8.914856719970703125e+01,1.021798886358737946e-02,1.123342141509056091e-01,8.540176391601562500e+00,-6.884381036798004061e-06,-1.144933179020881653e-01,-1.091243147850036621e+00,-3.718877451319713145e-06,3.366155624389648438e-01,-4.169959947466850281e-02,4.266551434993743896e-01,5.000000000000000000e-01,2.598381135612726212e-03,0.000000000000000000e+00
6.200885772705078125e-01,-8.970413208007812500e+00,2.928528137207031250e+02,2.928528137207031250e+02,1.606255471706390381e-01,8.914856719970703125e+01,1.021798886358737946e-02,1.123342141509056091e-01,8.540176391601562500e+00,-6.884381036798004061e-06,-1.144933179020881653e-01,-1.091243147850036621e+00,-3.718877451319713145e-06,3.366155624389648438e-01,-4.169959947466850281e-02,4.266551434993743896e-01,5.000000000000000000e-01,2.598381135612726212e-03,0.000000000000000000e+00
7.946169376373291016e-01,-8.959182739257812500e+00,2.936973876953125000e+02,2.936973876953125000e+02,1.883970946073532104e-01,8.919403839111328125e+01,1.114459428936243057e-02,1.036094650626182556e-01,8.374731063842773438e+00,-7.609052318002795801e-06,-4.999043792486190796e-02,-9.479566812515258789e-01,-4.152169367444003001e-06,2.368597984313964844e-01,-5.911029875278472900e-03,4.652048945426940918e-01,5.000000000000000000e-01,2.481269882991909981e-03,0.000000000000000000e+00
7.946169376373291016e-01,-8.959182739257812500e+00,2.936973876953125000e+02,2.936973876953125000e+02,1.883970946073532104e-01,8.919403839111328125e+01,1.114459428936243057e-02,1.036094650626182556e-01,8.374731063842773438e+00,-7.609052318002795801e-06,-4.999043792486190796e-02,-9.479566812515258789e-01,-4.152169367444003001e-06,2.368597984313964844e-01,-5.911029875278472900e-03,4.652048945426940918e-01,5.000000000000000000e-01,2.481269882991909981e-03,0.000000000000000000e+00
7.946169376373291016e-01,-8.959182739257812500e+00,2.936973876953125000e+02,2.936973876953125000e+02,1.883970946073532104e-01,8.919403839111328125e+01,1.114459428936243057e-02,1.036094650626182556e-01,8.374731063842773438e+00,-7.609052318002795801e-06,-4.999043792486190796e-02,-9.479566812515258789e-01,-4.152169367444003001e-06,2.368597984313964844e-01,-5.911029875278472900e-03,4.652048945426940918e-01,5.000000000000000000e-01,2.481269882991909981e-03,0.000000000000000000e+00
8.783230781555175781e-01,-8.948679924011230469e+00,2.945252380371093750e+02,2.945252380371093750e+02,2.070025354623794556e-01,8.923680114746093750e+01,9.984774515032768250e-03,9.753089398145675659e-02,8.207464218139648438e+00,-5.625740413961466402e-06,-7.261798530817031860e-02,-1.998262643814086914e+00,2.369374487898312509e-05,1.524463444948196411e-01,4.316352307796478271e-03,4.101123511791229248e-01,5.000000000000000000e-01,2.093982649967074394e-03,0.000000000000000000e+00
8.783230781555175781e-01,-8.948679924011230469e+00,2.945252380371093750e+02,2.945252380371093750e+02,2.070025354623794556e-01,8.923680114746093750e+01,9.984774515032768250e-03,9.753089398145675659e-02,8.207464218139648438e+00,-5.625740413961466402e-06,-7.261798530817031860e-02,-1.998262643814086914e+00,2.369374487898312509e-05,1.524463444948196411e-01,4.316352307796478271e-03,4.101123511791229248e-01,5.000000000000000000e-01,2.093982649967074394e-03,0.000000000000000000e+00
8.783230781555175781e-01,-8.948679924011230469e+00,2.945252380371093750e+02,2.945252380371093750e+02,2.070025354623794556e-01,8.923680114746093750e+01,9.984774515032768250e-03,9.753089398145675659e-02,8.207464218139648438e+00,-5.625740413961466402e-06,-7.261798530817031860e-02,-1.998262643814086914e+00,2.369374487898312509e-05,1.524463444948196411e-01,4.316352307796478271e-03,4.101123511791229248e-01,5.000000000000000000e-01,2.093982649967074394e-03,0.000000000000000000e+00
9.483780860900878906e-01,-8.940923690795898438e+00,2.952063903808593750e+02,2.952063903808593750e+02,2.147206515073776245e-01,8.928448486328125000e+01,1.545468438416719437e-02,8.003534376621246338e-02,8.101377487182617188e+00,-3.575779373932164162e-06,-2.497401833534240723e-01,-1.514334678649902344e+00,2.926216257037594914e-05,2.750046178698539734e-02,-5.286730080842971802e-02,6.440178155899047852e-01,1.000000000000000000e+00,3.949928097426891327e-03,0.000000000000000000e+00
9.483780860900878906e-01,-8.940923690795898438e+00,2.952063903808593750e+02,2.952063903808593750e+02,2.147206515073776245e-01,8.928448486328125000e+01,1.545468438416719437e-02,8.003534376621246338e-02,8.101377487182617188e+00,-3.575779373932164162e-06,-2.497401833534240723e-01,-1.514334678649902344e+00,2.926216257037594914e-05,2.750046178698539734e-02,-5.286730080842971802e-02,6.440178155899047852e-01,1.000000000000000000e+00,3.949928097426891327e-03,0.000000000000000000e+00
9.483780860900878906e-01,-8.940923690795898438e+00,2.952063903808593750e+02,2.952063903808593750e+02,2.147206515073776245e-01,8.928448486328125000e+01,1.545468438416719437e-02,8.003534376621246338e-02,8.101377487182617188e+00,-3.575779373932164162e-06,-2.497401833534240723e-01,-1.514334678649902344e+00,2.926216257037594914e-05,2.750046178698539734e-02,-5.286730080842971802e-02,6.440178155899047852e-01,1.000000000000000000e+00,3.949928097426891327e-03,0.000000000000000000e+00
9.483780860900878906e-01,-8.940923690795898438e+00,2.952063903808593750e+02,2.952063903808593750e+02,2.147206515073776245e-01,8.928448486328125000e+01,1.545468438416719437e-02,8.003534376621246338e-02,8.101377487182617188e+00,-3.575779373932164162e-06,-2.497401833534240723e-01,-1.514334678649902344e+00,2.926216257037594914e-05,2.750046178698539734e-02,-5.286730080842971802e-02,6.440178155899047852e-01,1.000000000000000000e+00,3.949928097426891327e-03,0.000000000000000000e+00
9.483780860900878906e-01,-8.935079574584960938e+00,2.957742614746093750e+02,2.957742614746093750e+02,2.069888710975646973e-01,8.933168029785156250e+01,1.690744794905185699e-02,7.338666915893554688e-02,8.123218536376953125e+00,-1.106107106352283154e-06,-8.437509834766387939e-02,2.771741449832916260e-01,3.134141297778114676e-05,-2.091419845819473267e-01,-6.980863399803638458e-03,6.890438795089721680e-01,1.000000000000000000e+00,3.776836441829800606e-03,0.000000000000000000e+00
1.027177095413208008e+00,-8.935079574584960938e+00,2.957742614746093750e+02,2.957742614746093750e+02,2.069888710975646973e-01,8.933168029785156250e+01,1.690744794905185699e-02,7.338666915893554688e-02,8.123218536376953125e+00,-1.106107106352283154e-06,-8.437509834766387939e-02,2.771741449832916260e-01,3.134141297778114676e-05,-2.091419845819473267e-01,-6.980863399803638458e-03,6.890438795089721680e-01,1.000000000000000000e+00,3.776836441829800606e-03,0.000000000000000000e+00
1.027177095413208008e+00,-8.935079574584960938e+00,2.957742614746093750e+02,2.957742614746093750e+02,2.069888710975646973e-01,8.933168029785156250e+01,1.690744794905185699e-02,7.338666915893554688e-02,8.123218536376953125e+00,-1.106107106352283154e-06,-8.437509834766387939e-02,2.771741449832916260e-01,3.134141297778114676e-05,-2.091419845819473267e-01,-6.980863399803638458e-03,6.890438795089721680e-01,1.000000000000000000e+00,3.776836441829800606e-03,0.000000000000000000e+00
1.095043420791625977e+00,-8.928903579711914062e+00,2.964194335937500000e+02,2.964194335937500000e+02,1.787528693675994873e-01,8.938466644287109375e+01,1.626766286790370941e-02,6.914701312780380249e-02,8.245154380798339844e+00,3.699673015944426879e-06,-6.247068569064140320e-02,1.796706080436706543e+00,7.081243529682978988e-05,-4.410891234874725342e-01,1.033846847712993622e-02,6.675828695297241211e-01,1.000000000000000000e+00,3.406620118767023087e-03,0.000000000000000000e+00
1.095043420791625977e+00,-8.928903579711914062e+00,2.964194335937500000e+02,2.964194335937500000e+02,1.787528693675994873e-01,8.938466644287109375e+01,1.626766286790370941e-02,6.914701312780380249e-02,8.245154380798339844e+00,3.699673015944426879e-06,-6.247068569064140320e-02,1.796706080436706543e+00,7.081243529682978988e-05,-4.410891234874725342e-01,1.033846847712993622e-02,6.675828695297241211e-01,1.000000000000000000e+00,3.406620118767023087e-03,0.000000000000000000e+00
1.095043420791625977e+00,-8.928903579711914062e+00,2.964194335937500000e+02,2.964194335937500000e+02,1.787528693675994873e-01,8.938466644287109375e+01,1.626766286790370941e-02,6.914701312780380249e-02,8.245154380798339844e+00,3.699673015944426879e-06,-6.247068569064140320e-02,1.796706080436706543e+00,7.081243529682978988e-05,-4.410891234874725342e-01,1.033846847712993622e-02,6.675828695297241211e-01,1.000000000000000000e+00,3.406620118767023087e-03,0.000000000000000000e+00
1.095043420791625977e+00,-8.928903579711914062e+00,2.964194335937500000e+02,2.964194335937500000e+02,1.787528693675994873e-01,8.938466644287109375e+01,1.626766286790370941e-02,6.914701312780380249e-02,8.245154380798339844e+00,3.699673015944426879e-06,-6.247068569064140320e-02,1.796706080436706543e+00,7.081243529682978988e-05,-4.410891234874725342e-01,1.033846847712993622e-02,6.675828695297241211e-01,1.000000000000000000e+00,3.406620118767023087e-03,0.000000000000000000e+00
1.168572425842285156e+00,-8.924281120300292969e+00,2.969775085449218750e+02,2.969775085449218750e+02,1.599015444517135620e-01,8.943842315673828125e+01,2.040926925837993622e-02,5.368523299694061279e-02,8.220724105834960938e+00,4.987039574189111590e-06,-2.102813720703125000e-01,-3.322535753250122070e-01,1.750828232616186142e-05,-2.174599468708038330e-01,-5.753624439239501953e-02,8.512868285179138184e-01,1.000000000000000000e+00,5.029964260756969452e-03,0.000000000000000000e+00
1.168572425842285156e+00,-8.924281120300292969e+00,2.969775085449218750e+02,2.969775085449218750e+02,1.599015444517135620e-01,8.943842315673828125e+01,2.040926925837993622e-02,5.368523299694061279e-02,8.220724105834960938e+00,4.987039574189111590e-06,-2.102813720703125000e-01,-3.322535753250122070e-01,1.750828232616186142e-05,-2.174599468708038330e-01,-5.753624439239501953e-02,8.512868285179138184e-01,1.000000000000000000e+00,5.029964260756969452e-03,0.000000000000000000e+00
1.168572425842285156e+00,-8.924281120300292969e+00,2.969775085449218750e+02,2.969775085449218750e+02,1.599015444517135620e-01,8.943842315673828125e+01,2.040926925837993622e-02,5.368523299694061279e-02,8.220724105834960938e+00,4.987039574189111590e-06,-2.102813720703125000e-01,-3.322535753250122070e-01,1.750828232616186142e-05,-2.174599468708038330e-01,-5.753624439239501953e-02,8.512868285179138184e-01,1.000000000000000000e+00,5.029964260756969452e-03,0.000000000000000000e+00
1.168572425842285156e+00,-8.924281120300292969e+00,2.969775085449218750e+02,2.969775085449218750e+02,1.599015444517135620e-01,8.943842315673828125e+01,2.040926925837993622e-02,5.368523299694061279e-02,8.220724105834960938e+00,4.987039574189111590e-06,-2.102813720703125000e-01,-3.322535753250122070e-01,1.750828232616186142e-05,-2.174599468708038330e-01,-5.753624439239501953e-02,8.512868285179138184e-01,1.000000000000000000e+00,5.029964260756969452e-03,0.000000000000000000e+00
1.168572425842285156e+00,-8.920028686523437500e+00,2.975815429687500000e+02,2.975815429687500000e+02,1.486112475395202637e-01,8.950263214111328125e+01,2.205121330916881561e-02,4.445493966341018677e-02,8.212153434753417969e+00,4.062054813402937725e-06,-1.229911297559738159e-01,-1.142018437385559082e-01,-1.232516842719633132e-05,-1.155048981308937073e-01,-8.062792010605335236e-03,8.829105496406555176e-01,1.000000000000000000e+00,4.729556851089000702e-03,0.000000000000000000e+00
1.243620872497558594e+00,-8.920028686523437500e+00,2.975815429687500000e+02,2.975815429687500000e+02,1.486112475395202637e-01,8.950263214111328125e+01,2.205121330916881561e-02,4.445493966341018677e-02,8.212153434753417969e+00,4.062054813402937725e-06,-1.229911297559738159e-01,-1.142018437385559082e-01,-1.232516842719633132e-05,-1.155048981308937073e-01,-8.062792010605335236e-03,8.829105496406555176e-01,1.000000000000000000e+00,4.729556851089000702e-03,0.000000000000000000e+00
1.243620872497558594e+00,-8.920028686523437500e+00,2.975815429687500000e+02,2.975815429687500000e+02,1.486112475395202637e-01,8.950263214111328125e+01,2.205121330916881561e-02,4.445493966341018677e-02,8.212153434753417969e+00,4.062054813402937725e-06,-1.229911297559738159e-01,-1.142018437385559082e-01,-1.232516842719633132e-05,-1.155048981308937073e-01,-8.062792010605335236e-03,8.829105496406555176e-01,1.000000000000000000e+00,4.729556851089000702e-03,0.000000000000000000e+00
1.243620872497558594e+00,-8.916258811950683594e+00,2.981973266601562500e+02,2.981973266601562500e+02,1.429968327283859253e-01,8.956575012207031250e+01,2.082903124392032623e-02,3.827494382858276367e-02,8.201153755187988281e+00,2.965482053696177900e-06,-9.032166004180908203e-02,-1.607621461153030396e-01,-1.602659176569432020e-05,-5.281104892492294312e-02,1.452495716512203217e-02,8.222214579582214355e-01,1.000000000000000000e+00,4.180908203125000000e-03,0.000000000000000000e+00
1.312042951583862305e+00,-8.916258811950683594e+00,2.981973266601562500e+02,2.981973266601562500e+02,1.429968327283859253e-01,8.956575012207031250e+01,2.082903124392032623e-02,3.827494382858276367e-02,8.201153755187988281e+00,2.965482053696177900e-06,-9.032166004180908203e-02,-1.607621461153030396e-01,-1.602659176569432020e-05,-5.281104892492294312e-02,1.452495716512203217e-02,8.222214579582214355e-01,1.000000000000000000e+00,4.180908203125000000e-03,0.000000000000000000e+00
1.312042951583862305e+00,-8.916258811950683594e+00,2.981973266601562500e+02,2.981973266601562500e+02,1.429968327283859253e-01,8.956575012207031250e+01,2.082903124392032623e-02,3.827494382858276367e-02,8.201153755187988281e+00,2.965482053696177900e-06,-9.032166004180908203e-02,-1.607621461153030396e-01,-1.602659176569432020e-05,-5.281104892492294312e-02,1.452495716512203217e-02,8.222214579582214355e-01,1.000000000000000000e+00,4.180908203125000000e-03,0.000000000000000000e+00
1.383129358291625977e+00,-8.913597106933593750e+00,2.987580871582031250e+02,2.987580871582031250e+02,1.407223790884017944e-01,8.962882995605468750e+01,2.400527149438858032e-02,2.304107323288917542e-02,8.191823959350585938e+00,1.649630689826153684e-06,-2.143007516860961914e-01,-1.312458515167236328e-01,-1.851058914326131344e-05,-2.359049022197723389e-02,-4.624004289507865906e-02,9.684723019599914551e-01,1.000000000000000000e+00,5.547809414565563202e-03,0.000000000000000000e+00
1.383129358291625977e+00,-8.913597106933593750e+00,2.987580871582031250e+02,2.987580871582031250e+02,1.407223790884017944e-01,8.962882995605468750e+01,2.400527149438858032e-02,2.304107323288917542e-02,8.191823959350585938e+00,1.649630689826153684e-06,-2.143007516860961914e-01,-1.312458515167236328e-01,-1.851058914326131344e-05,-2.359049022197723389e-02,-4.624004289507865906e-02,9.684723019599914551e-01,1.000000000000000000e+00,5.547809414565563202e-03,0.000000000000000000e+00
1.383129358291625977e+00,-8.913597106933593750e+00,2.987580871582031250e+02,2.987580871582031250e+02,1.407223790884017944e-01,8.962882995605468750e+01,2.400527149438858032e-02,2.304107323288917542e-02,8.191823959350585938e+00,1.649630689826153684e-06,-2.143007516860961914e-01,-1.312458515167236328e-01,-1.851058914326131344e-05,-2.359049022197723389e-02,-4.624004289507865906e-02,9.684723019599914551e-01,1.000000000000000000e+00,5.547809414565563202e-03,0.000000000000000000e+00
1.450951814651489258e+00,-8.911567687988281250e+00,2.993399963378906250e+02,2.993399963378906250e+02,1.397661566734313965e-01,8.969755554199218750e+01,2.464221976697444916e-02,1.427795272320508957e-02,8.181921005249023438e+00,5.911940093028533738e-07,-1.292067766189575195e-01,-1.460129022598266602e-01,-1.560599230288062245e-05,-7.579489145427942276e-03,4.440821358002722263e-04,9.656046032905578613e-01,1.000000000000000000e+00,5.092811770737171173e-03,0.000000000000000000e+00
1.450951814651489258e+00,-8.911567687988281250e+00,2.993399963378906250e+02,2.993399963378906250e+02,1.397661566734313965e-01,8.969755554199218750e+01,2.464221976697444916e-02,1.427795272320508957e-02,8.181921005249023438e+00,5.911940093028533738e-07,-1.292067766189575195e-01,-1.460129022598266602e-01,-1.560599230288062245e-05,-7.579489145427942276e-03,4.440821358002722263e-04,9.656046032905578613e-01,1.000000000000000000e+00,5.092811770737171173e-03,0.000000000000000000e+00
1.450951814651489258e+00,-8.911567687988281250e+00,2.993399963378906250e+02,2.993399963378906250e+02,1.397661566734313965e-01,8.969755554199218750e+01,2.464221976697444916e-02,1.427795272320508957e-02,8.181921005249023438e+00,5.911940093028533738e-07,-1.292067766189575195e-01,-1.460129022598266602e-01,-1.560599230288062245e-05,-7.579489145427942276e-03,4.440821358002722263e-04,9.656046032905578613e-01,1.000000000000000000e+00,5.092811770737171173e-03,0.000000000000000000e+00
1.527701377868652344e+00,-8.910128593444824219e+00,2.998945312500000000e+02,2.998945312500000000e+02,1.395954042673110962e-01,8.975941467285156250e+01,2.296343632042407990e-02,8.789516054093837738e-03,8.172514915466308594e+00,4.100243131688330323e-07,-7.151098549365997314e-02,-1.225556135177612305e-01,-2.360530743317212909e-06,-2.734984445851296186e-04,2.218392491340637207e-02,8.866425156593322754e-01,1.000000000000000000e+00,4.453659057617187500e-03,0.000000000000000000e+00
1.527701377868652344e+00,-8.910128593444824219e+00,2.998945312500000000e+02,2.998945312500000000e+02,1.395954042673110962e-01,8.975941467285156250e+01,2.296343632042407990e-02,8.789516054093837738e-03,8.172514915466308594e+00,4.100243131688330323e-07,-7.151098549365997314e-02,-1.225556135177612305e-01,-2.360530743317212909e-06,-2.734984445851296186e-04,2.218392491340637207e-02,8.866425156593322754e-01,1.000000000000000000e+00,4.453659057617187500e-03,0.000000000000000000e+00
1.527701377868652344e+00,-8.910128593444824219e+00,2.998945312500000000e+02,2.998945312500000000e+02,1.395954042673110962e-01,8.975941467285156250e+01,2.296343632042407990e-02,8.789516054093837738e-03,8.172514915466308594e+00,4.100243131688330323e-07,-7.151098549365997314e-02,-1.225556135177612305e-01,-2.360530743317212909e-06,-2.734984445851296186e-04,2.218392491340637207e-02,8.866425156593322754e-01,1.000000000000000000e+00,4.453659057617187500e-03,0.000000000000000000e+00
1.600134611129760742e+00,-8.909432411193847656e+00,3.005212707519531250e+02,3.005212707519531250e+02,1.397388279438018799e-01,8.983482360839843750e+01,2.600631490349769592e-02,-7.981586270034313202e-03,8.161833763122558594e+00,-6.293283831837470643e-07,-2.315387725830078125e-01,-1.474620401859283447e-01,-1.434911337128141895e-05,2.823317889124155045e-03,-3.722380474209785461e-02,1.025503873825073242e+00,1.000000000000000000e+00,5.765723995864391327e-03,0.000000000000000000e+00
1.600134611129760742e+00,-8.909432411193847656e+00,3.005212707519531250e+02,3.005212707519531250e+02,1.397388279438018799e-01,8.983482360839843750e+01,2.600631490349769592e-02,-7.981586270034313202e-03,8.161833763122558594e+00,-6.293283831837470643e-07,-2.315387725830078125e-01,-1.474620401859283447e-01,-1.434911337128141895e-05,2.823317889124155045e-03,-3.722380474209785461e-02,1.025503873825073242e+00,1.000000000000000000e+00,5.765723995864391327e-03,0.000000000000000000e+00
1.600134611129760742e+00,-8.909432411193847656e+00,3.005212707519531250e+02,3.005212707519531250e+02,1.397388279438018799e-01,8.983482360839843750e+01,2.600631490349769592e-02,-7.981586270034313202e-03,8.161833763122558594e+00,-6.293283831837470643e-07,-2.315387725830078125e-01,-1.474620401859283447e-01,-1.434911337128141895e-05,2.823317889124155045e-03,-3.722380474209785461e-02,1.025503873825073242e+00,1.000000000000000000e+00,5.765723995864391327e-03,0.000000000000000000e+00
1.600134611129760742e+00,-8.909432411193847656e+00,3.005212707519531250e+02,3.005212707519531250e+02,1.397388279438018799e-01,8.983482360839843750e+01,2.600631490349769592e-02,-7.981586270034313202e-03,8.161833763122558594e+00,-6.293283831837470643e-07,-2.315387725830078125e-01,-1.474620401859283447e-01,-1.434911337128141895e-05,2.823317889124155045e-03,-3.722380474209785461e-02,1.025503873825073242e+00,1.000000000000000000e+00,5.765723995864391327e-03,0.000000000000000000e+00
1.600134611129760742e+00,-8.909432411193847656e+00,3.005212707519531250e+02,3.005212707519531250e+02,1.397388279438018799e-01,8.983482360839843750e+01,2.600631490349769592e-02,-7.981586270034313202e-03,8.161833763122558594e+00,-6.293283831837470643e-07,-2.315387725830078125e-01,-1.474620401859283447e-01,-1.434911337128141895e-05,2.823317889124155045e-03,-3.722380474209785461e-02,1.025503873825073242e+00,1.000000000000000000e+00,5.765723995864391327e-03,0.000000000000000000e+00
1.600134611129760742e+00,-8.909502029418945312e+00,3.011347656250000000e+02,3.011347656250000000e+02,9.462543576955795288e-02,8.991023254394531250e+01,2.615589462220668793e-02,-1.600626483559608459e-02,8.669336318969726562e+00,2.975032884933170862e-06,-6.955068558454513550e-02,4.398574829101562500e+00,3.123935675830580294e-05,-8.838780522346496582e-01,1.016358262859284878e-03,1.057836651802062988e+00,1.000000000000000000e+00,5.134963896125555038e-03,0.000000000000000000e+00
1.715513467788696289e+00,-8.909502029418945312e+00,3.011347656250000000e+02,3.011347656250000000e+02,9.462543576955795288e-02,8.991023254394531250e+01,2.615589462220668793e-02,-1.600626483559608459e-02,8.669336318969726562e+00,2.975032884933170862e-06,-6.955068558454513550e-02,4.398574829101562500e+00,3.123935675830580294e-05,-8.838780522346496582e-01,1.016358262859284878e-03,1.057836651802062988e+00,1.000000000000000000e+00,5.134963896125555038e-03,0.000000000000000000e+00
1.715513467788696289e+00,-8.909502029418945312e+00,3.011347656250000000e+02,3.011347656250000000e+02,9.462543576955795288e-02,8.991023254394531250e+01,2.615589462220668793e-02,-1.600626483559608459e-02,8.669336318969726562e+00,2.975032884933170862e-06,-6.955068558454513550e-02,4.398574829101562500e+00,3.123935675830580294e-05,-8.838780522346496582e-01,1.016358262859284878e-03,1.057836651802062988e+00,1.000000000000000000e+00,5.134963896125555038e-03,0.000000000000000000e+00
1.715513467788696289e+00,-8.910541534423828125e+00,3.020358581542968750e+02,3.020358581542968750e+02,-2.411056542769074440e-03,9.001168060302734375e+01,2.482680790126323700e-02,-2.697485126554965973e-02,9.231822967529296875e+00,4.996420557290548459e-06,-1.123811602592468262e-01,5.763085365295410156e+00,2.071058952424209565e-05,-8.725407123565673828e-01,-3.614780725911259651e-03,1.000824451446533203e+00,5.000000000000000000e-01,4.391193389892578125e-03,0.000000000000000000e+00
1.813115119934082031e+00,-8.910541534423828125e+00,3.020358581542968750e+02,3.020358581542968750e+02,-2.411056542769074440e-03,9.001168060302734375e+01,2.482680790126323700e-02,-2.697485126554965973e-02,9.231822967529296875e+00,4.996420557290548459e-06,-1.123811602592468262e-01,5.763085365295410156e+00,2.071058952424209565e-05,-8.725407123565673828e-01,-3.614780725911259651e-03,1.000824451446533203e+00,5.000000000000000000e-01,4.391193389892578125e-03,0.000000000000000000e+00
1.813115119934082031e+00,-8.910541534423828125e+00,3.020358581542968750e+02,3.020358581542968750e+02,-2.411056542769074440e-03,9.001168060302734375e+01,2.482680790126323700e-02,-2.697485126554965973e-02,9.231822967529296875e+00,4.996420557290548459e-06,-1.123811602592468262e-01,5.763085365295410156e+00,2.071058952424209565e-05,-8.725407123565673828e-01,-3.614780725911259651e-03,1.000824451446533203e+00,5.000000000000000000e-01,4.391193389892578125e-03,0.000000000000000000e+00
1.813115119934082031e+00,-8.910541534423828125e+00,3.020358581542968750e+02,3.020358581542968750e+02,-2.411056542769074440e-03,9.001168060302734375e+01,2.482680790126323700e-02,-2.697485126554965973e-02,9.231822967529296875e+00,4.996420557290548459e-06,-1.123811602592468262e-01,5.763085365295410156e+00,2.071058952424209565e-05,-8.725407123565673828e-01,-3.614780725911259651e-03,1.000824451446533203e+00,5.000000000000000000e-01,4.391193389892578125e-03,0.000000000000000000e+00
1.896134853363037109e+00,-8.913339614868164062e+00,3.029572448730468750e+02,3.029572448730468750e+02,-5.740773677825927734e-02,9.011853027343750000e+01,2.983353473246097565e-02,-5.014558136463165283e-02,9.568166732788085938e+00,2.727064838836668059e-06,-2.790990769863128662e-01,4.051371574401855469e+00,-2.733513611019589007e-05,-3.334211707115173340e-01,-4.529727995395660400e-02,1.138931393623352051e+00,5.000000000000000000e-01,5.310916807502508163e-03,0.000000000000000000e+00
1.896134853363037109e+00,-8.913339614868164062e+00,3.029572448730468750e+02,3.029572448730468750e+02,-5.740773677825927734e-02,9.011853027343750000e+01,2.983353473246097565e-02,-5.014558136463165283e-02,9.568166732788085938e+00,2.727064838836668059e-06,-2.790990769863128662e-01,4.051371574401855469e+00,-2.733513611019589007e-05,-3.334211707115173340e-01,-4.529727995395660400e-02,1.138931393623352051e+00,5.000000000000000000e-01,5.310916807502508163e-03,0.000000000000000000e+00
1.896134853363037109e+00,-8.913339614868164062e+00,3.029572448730468750e+02,3.029572448730468750e+02,-5.740773677825927734e-02,9.011853027343750000e+01,2.983353473246097565e-02,-5.014558136463165283e-02,9.568166732788085938e+00,2.727064838836668059e-06,-2.790990769863128662e-01,4.051371574401855469e+00,-2.733513611019589007e-05,-3.334211707115173340e-01,-4.529727995395660400e-02,1.138931393623352051e+00,5.000000000000000000e-01,5.310916807502508163e-03,0.000000000000000000e+00
1.896134853363037109e+00,-8.913339614868164062e+00,3.029572448730468750e+02,3.029572448730468750e+02,-5.740773677825927734e-02,9.011853027343750000e+01,2.983353473246097565e-02,-5.014558136463165283e-02,9.568166732788085938e+00,2.727064838836668059e-06,-2.790990769863128662e-01,4.051371574401855469e+00,-2.733513611019589007e-05,-3.334211707115173340e-01,-4.529727995395660400e-02,1.138931393623352051e+00,5.000000000000000000e-01,5.310916807502508163e-03,0.000000000000000000e+00
1.896134853363037109e+00,-8.913339614868164062e+00,3.029572448730468750e+02,3.029572448730468750e+02,-5.740773677825927734e-02,9.011853027343750000e+01,2.983353473246097565e-02,-5.014558136463165283e-02,9.568166732788085938e+00,2.727064838836668059e-06,-2.790990769863128662e-01,4.051371574401855469e+00,-2.733513611019589007e-05,-3.334211707115173340e-01,-4.529727995395660400e-02,1.138931393623352051e+00,5.000000000000000000e-01,5.310916807502508163e-03,0.000000000000000000e+00
1.896134853363037109e+00,-8.913339614868164062e+00,3.029572448730468750e+02,3.029572448730468750e+02,-5.740773677825927734e-02,9.011853027343750000e+01,2.983353473246097565e-02,-5.014558136463165283e-02,9.568166732788085938e+00,2.727064838836668059e-06,-2.790990769863128662e-01,4.051371574401855469e+00,-2.733513611019589007e-05,-3.334211707115173340e-01,-4.529727995395660400e-02,1.138931393623352051e+00,5.000000000000000000e-01,5.310916807502508163e-03,0.000000000000000000e+00
1.896134853363037109e+00,-8.913339614868164062e+00,3.029572448730468750e+02,3.029572448730468750e+02,-5.740773677825927734e-02,9.011853027343750000e+01,2.983353473246097565e-02,-5.014558136463165283e-02,9.568166732788085938e+00,2.727064838836668059e-06,-2.790990769863128662e-01,4.051371574401855469e+00,-2.733513611019589007e-05,-3.334211707115173340e-01,-4.529727995395660400e-02,1.138931393623352051e+00,5.000000000000000000e-01,5.310916807502508163e-03,0.000000000000000000e+00
1.896134853363037109e+00,-8.913339614868164062e+00,3.029572448730468750e+02,3.029572448730468750e+02,-5.740773677825927734e-02,9.011853027343750000e+01,2.983353473246097565e-02,-5.014558136463165283e-02,9.568166732788085938e+00,2.727064838836668059e-06,-2.790990769863128662e-01,4.051371574401855469e+00,-2.733513611019589007e-05,-3.334211707115173340e-01,-4.529727995395660400e-02,1.138931393623352051e+00,5.000000000000000000e-01,5.310916807502508163e-03,0.000000000000000000e+00
2.195794820785522461e+00,-8.929394721984863281e+00,3.056079101562500000e+02,3.056079101562500000e+02,-9.125132113695144653e-03,9.038635253906250000e+01,2.655786275863647461e-02,-8.609130978584289551e-02,9.904152870178222656e+00,2.364766714890720323e-06,-1.524280011653900146e-01,1.021253943443298340e+00,-3.305840800749137998e-05,3.879129290580749512e-01,2.814143896102905273e-02,8.252072930335998535e-01,5.000000000000000000e-01,3.275298979133367538e-03,0.000000000000000000e+00
2.195794820785522461e+00,-8.929394721984863281e+00,3.056079101562500000e+02,3.056079101562500000e+02,-9.125132113695144653e-03,9.038635253906250000e+01,2.655786275863647461e-02,-8.609130978584289551e-02,9.904152870178222656e+00,2.364766714890720323e-06,-1.524280011653900146e-01,1.021253943443298340e+00,-3.305840800749137998e-05,3.879129290580749512e-01,2.814143896102905273e-02,8.252072930335998535e-01,5.000000000000000000e-01,3.275298979133367538e-03,0.000000000000000000e+00
2.195794820785522461e+00,-8.929394721984863281e+00,3.056079101562500000e+02,3.056079101562500000e+02,-9.125132113695144653e-03,9.038635253906250000e+01,2.655786275863647461e-02,-8.609130978584289551e-02,9.904152870178222656e+00,2.364766714890720323e-06,-1.524280011653900146e-01,1.021253943443298340e+00,-3.305840800749137998e-05,3.879129290580749512e-01,2.814143896102905273e-02,8.252072930335998535e-01,5.000000000000000000e-01,3.275298979133367538e-03,0.000000000000000000e+00
2.195794820785522461e+00,-8.929394721984863281e+00,3.056079101562500000e+02,3.056079101562500000e+02,-9.125132113695144653e-03,9.038635253906250000e+01,2.655786275863647461e-02,-8.609130978584289551e-02,9.904152870178222656e+00,2.364766714890720323e-06,-1.524280011653900146e-01,1.021253943443298340e+00,-3.305840800749137998e-05,3.879129290580749512e-01,2.814143896102905273e-02,8.252072930335998535e-01,5.000000000000000000e-01,3.275298979133367538e-03,0.000000000000000000e+00
2.195794820785522461e+00,-8.929394721984863281e+00,3.056079101562500000e+02,3.056079101562500000e+02,-9.125132113695144653e-03,9.038635253906250000e+01,2.655786275863647461e-02,-8.609130978584289551e-02,9.904152870178222656e+00,2.364766714890720323e-06,-1.524280011653900146e-01,1.021253943443298340e+00,-3.305840800749137998e-05,3.879129290580749512e-01,2.814143896102905273e-02,8.252072930335998535e-01,5.000000000000000000e-01,3.275298979133367538e-03,0.000000000000000000e+00
2.195794820785522461e+00,-8.929394721984863281e+00,3.056079101562500000e+02,3.056079101562500000e+02,-9.125132113695144653e-03,9.038635253906250000e+01,2.655786275863647461e-02,-8.609130978584289551e-02,9.904152870178222656e+00,2.364766714890720323e-06,-1.524280011653900146e-01,1.021253943443298340e+00,-3.305840800749137998e-05,3.879129290580749512e-01,2.814143896102905273e-02,8.252072930335998535e-01,5.000000000000000000e-01,3.275298979133367538e-03,0.000000000000000000e+00
2.195794820785522461e+00,-8.929394721984863281e+00,3.056079101562500000e+02,3.056079101562500000e+02,-9.125132113695144653e-03,9.038635253906250000e+01,2.655786275863647461e-02,-8.609130978584289551e-02,9.904152870178222656e+00,2.364766714890720323e-06,-1.524280011653900146e-01,1.021253943443298340e+00,-3.305840800749137998e-05,3.879129290580749512e-01,2.814143896102905273e-02,8.252072930335998535e-01,5.000000000000000000e-01,3.275298979133367538e-03,0.000000000000000000e+00
2.195794820785522461e+00,-8.929394721984863281e+00,3.056079101562500000e+02,3.056079101562500000e+02,-9.125132113695144653e-03,9.038635253906250000e+01,2.655786275863647461e-02,-8.609130978584289551e-02,9.904152870178222656e+00,2.364766714890720323e-06,-1.524280011653900146e-01,1.021253943443298340e+00,-3.305840800749137998e-05,3.879129290580749512e-01,2.814143896102905273e-02,8.252072930335998535e-01,5.000000000000000000e-01,3.275298979133367538e-03,0.000000000000000000e+00
2.195794820785522461e+00,-8.929394721984863281e+00,3.056079101562500000e+02,3.056079101562500000e+02,-9.125132113695144653e-03,9.038635253906250000e+01,2.655786275863647461e-02,-8.609130978584289551e-02,9.904152870178222656e+00,2.364766714890720323e-06,-1.524280011653900146e-01,1.021253943443298340e+00,-3.305840800749137998e-05,3.879129290580749512e-01,2.814143896102905273e-02,8.252072930335998535e-01,5.000000000000000000e-01,3.275298979133367538e-03,0.000000000000000000e+00
2.195794820785522461e+00,-8.929394721984863281e+00,3.056079101562500000e+02,3.056079101562500000e+02,-9.125132113695144653e-03,9.038635253906250000e+01,2.655786275863647461e-02,-8.609130978584289551e-02,9.904152870178222656e+00,2.364766714890720323e-06,-1.524280011653900146e-01,1.021253943443298340e+00,-3.305840800749137998e-05,3.879129290580749512e-01,2.814143896102905273e-02,8.252072930335998535e-01,5.000000000000000000e-01,3.275298979133367538e-03,0.000000000000000000e+00
2.374083757400512695e+00,-8.933623313903808594e+00,3.061343688964843750e+02,3.061343688964843750e+02,1.120833959430456161e-02,9.042547607421875000e+01,2.402291446924209595e-02,-8.882032334804534912e-02,9.924698829650878906e+00,1.344502379652112722e-06,-1.530668977648019791e-02,1.152396723628044128e-01,-5.722532932850299403e-06,3.803244829177856445e-01,4.939293861389160156e-02,6.940494775772094727e-01,5.000000000000000000e-01,2.441692398861050606e-03,0.000000000000000000e+00
2.374083757400512695e+00,-8.933623313903808594e+00,3.061343688964843750e+02,3.061343688964843750e+02,1.120833959430456161e-02,9.042547607421875000e+01,2.402291446924209595e-02,-8.882032334804534912e-02,9.924698829650878906e+00,1.344502379652112722e-06,-1.530668977648019791e-02,1.152396723628044128e-01,-5.722532932850299403e-06,3.803244829177856445e-01,4.939293861389160156e-02,6.940494775772094727e-01,5.000000000000000000e-01,2.441692398861050606e-03,0.000000000000000000e+00
2.374083757400512695e+00,-8.933623313903808594e+00,3.061343688964843750e+02,3.061343688964843750e+02,1.120833959430456161e-02,9.042547607421875000e+01,2.402291446924209595e-02,-8.882032334804534912e-02,9.924698829650878906e+00,1.344502379652112722e-06,-1.530668977648019791e-02,1.152396723628044128e-01,-5.722532932850299403e-06,3.803244829177856445e-01,4.939293861389160156e-02,6.940494775772094727e-01,5.000000000000000000e-01,2.441692398861050606e-03,0.000000000000000000e+00
2.447860002517700195e+00,-8.942258834838867188e+00,3.071285705566406250e+02,3.071285705566406250e+02,4.743565991520881653e-02,9.048448181152343750e+01,2.022506855428218842e-02,-9.610905498266220093e-02,9.948521614074707031e+00,-1.525624497844546568e-06,-9.879510104656219482e-02,3.229058980941772461e-01,-3.890313382726162672e-05,3.305107653141021729e-01,2.433152869343757629e-02,5.417611598968505859e-01,5.000000000000000000e-01,2.131175948306918144e-03,0.000000000000000000e+00
2.447860002517700195e+00,-8.942258834838867188e+00,3.071285705566406250e+02,3.071285705566406250e+02,4.743565991520881653e-02,9.048448181152343750e+01,2.022506855428218842e-02,-9.610905498266220093e-02,9.948521614074707031e+00,-1.525624497844546568e-06,-9.879510104656219482e-02,3.229058980941772461e-01,-3.890313382726162672e-05,3.305107653141021729e-01,2.433152869343757629e-02,5.417611598968505859e-01,5.000000000000000000e-01,2.131175948306918144e-03,0.000000000000000000e+00
2.500878810882568359e+00,-8.949083328247070312e+00,3.078631286621093750e+02,3.078631286621093750e+02,6.868437677621841431e-02,9.051818847656250000e+01,1.723549328744411469e-02,-9.862950444221496582e-02,9.958450317382812500e+00,-4.090658876521047205e-06,-4.753877967596054077e-02,1.872675716876983643e-01,-4.837970482185482979e-05,2.645845711231231689e-01,3.832435235381126404e-02,4.155434966087341309e-01,5.000000000000000000e-01,1.468181610107421875e-03,0.000000000000000000e+00
2.500878810882568359e+00,-8.949083328247070312e+00,3.078631286621093750e+02,3.078631286621093750e+02,6.868437677621841431e-02,9.051818847656250000e+01,1.723549328744411469e-02,-9.862950444221496582e-02,9.958450317382812500e+00,-4.090658876521047205e-06,-4.753877967596054077e-02,1.872675716876983643e-01,-4.837970482185482979e-05,2.645845711231231689e-01,3.832435235381126404e-02,4.155434966087341309e-01,5.000000000000000000e-01,1.468181610107421875e-03,0.000000000000000000e+00
2.560195446014404297e+00,-8.954144477844238281e+00,3.083913269042968750e+02,3.083913269042968750e+02,8.114947378635406494e-02,9.053720855712890625e+01,1.502356864511966705e-02,-9.978046268224716187e-02,9.963209152221679688e+00,-2.650863052622298710e-06,-1.940363273024559021e-02,8.022765815258026123e-02,2.427305298624560237e-05,2.203449159860610962e-01,4.114286601543426514e-02,3.314506411552429199e-01,5.000000000000000000e-01,1.064109848812222481e-03,0.000000000000000000e+00
2.560195446014404297e+00,-8.954144477844238281e+00,3.083913269042968750e+02,3.083913269042968750e+02,8.114947378635406494e-02,9.053720855712890625e+01,1.502356864511966705e-02,-9.978046268224716187e-02,9.963209152221679688e+00,-2.650863052622298710e-06,-1.940363273024559021e-02,8.022765815258026123e-02,2.427305298624560237e-05,2.203449159860610962e-01,4.114286601543426514e-02,3.314506411552429199e-01,5.000000000000000000e-01,1.064109848812222481e-03,0.000000000000000000e+00
2.560195446014404297e+00,-8.954144477844238281e+00,3.083913269042968750e+02,3.083913269042968750e+02,8.114947378635406494e-02,9.053720855712890625e+01,1.502356864511966705e-02,-9.978046268224716187e-02,9.963209152221679688e+00,-2.650863052622298710e-06,-1.940363273024559021e-02,8.022765815258026123e-02,2.427305298624560237e-05,2.203449159860610962e-01,4.114286601543426514e-02,3.314506411552429199e-01,5.000000000000000000e-01,1.064109848812222481e-03,0.000000000000000000e+00
2.618730545043945312e+00,-8.959932327270507812e+00,3.089825134277343750e+02,3.089825134277343750e+02,9.287690371274948120e-02,9.055380249023437500e+01,1.268687937408685684e-02,-1.010363921523094177e-01,9.966985702514648438e+00,-3.852273039228748530e-06,-2.145600691437721252e-02,6.451770663261413574e-02,-2.052460877166595310e-05,1.811381280422210693e-01,3.542062640190124512e-02,2.563019394874572754e-01,5.000000000000000000e-01,8.310318225994706154e-04,0.000000000000000000e+00
2.618730545043945312e+00,-8.959932327270507812e+00,3.089825134277343750e+02,3.089825134277343750e+02,9.287690371274948120e-02,9.055380249023437500e+01,1.268687937408685684e-02,-1.010363921523094177e-01,9.966985702514648438e+00,-3.852273039228748530e-06,-2.145600691437721252e-02,6.451770663261413574e-02,-2.052460877166595310e-05,1.811381280422210693e-01,3.542062640190124512e-02,2.563019394874572754e-01,5.000000000000000000e-01,8.310318225994706154e-04,0.000000000000000000e+00
2.677334070205688477e+00,-8.965749740600585938e+00,3.095660705566406250e+02,3.095660705566406250e+02,1.020635142922401428e-01,9.056644439697265625e+01,1.076456531882286072e-02,-1.020576059818267822e-01,9.969606399536132812e+00,-4.939309746987419203e-06,-1.742580905556678772e-02,4.471910372376441956e-02,-1.854899892350658774e-05,1.429258286952972412e-01,3.039716742932796478e-02,1.973788738250732422e-01,5.000000000000000000e-01,6.307602161541581154e-04,0.000000000000000000e+00
2.677334070205688477e+00,-8.965749740600585938e+00,3.095660705566406250e+02,3.095660705566406250e+02,1.020635142922401428e-01,9.056644439697265625e+01,1.076456531882286072e-02,-1.020576059818267822e-01,9.969606399536132812e+00,-4.939309746987419203e-06,-1.742580905556678772e-02,4.471910372376441956e-02,-1.854899892350658774e-05,1.429258286952972412e-01,3.039716742932796478e-02,1.973788738250732422e-01,5.000000000000000000e-01,6.307602161541581154e-04,0.000000000000000000e+00
2.677334070205688477e+00,-8.965749740600585938e+00,3.095660705566406250e+02,3.095660705566406250e+02,1.020635142922401428e-01,9.056644439697265625e+01,1.076456531882286072e-02,-1.020576059818267822e-01,9.969606399536132812e+00,-4.939309746987419203e-06,-1.742580905556678772e-02,4.471910372376441956e-02,-1.854899892350658774e-05,1.429258286952972412e-01,3.039716742932796478e-02,1.973788738250732422e-01,5.000000000000000000e-01,6.307602161541581154e-04,0.000000000000000000e+00
2.677334070205688477e+00,-8.971658706665039062e+00,3.101504516601562500e+02,3.101504516601562500e+02,1.092625334858894348e-01,9.057617187500000000e+01,9.108840487897396088e-03,-1.028879359364509583e-01,9.971487998962402344e+00,-3.766461759369121864e-06,-1.068761758506298065e-02,2.421906404197216034e-02,1.509634876128984615e-05,1.110747978091239929e-01,2.626638300716876984e-02,1.514601558446884155e-01,5.000000000000000000e-01,4.811286926269531250e-04,0.000000000000000000e+00
2.755024909973144531e+00,-8.971658706665039062e+00,3.101504516601562500e+02,3.101504516601562500e+02,1.092625334858894348e-01,9.057617187500000000e+01,9.108840487897396088e-03,-1.028879359364509583e-01,9.971487998962402344e+00,-3.766461759369121864e-06,-1.068761758506298065e-02,2.421906404197216034e-02,1.509634876128984615e-05,1.110747978091239929e-01,2.626638300716876984e-02,1.514601558446884155e-01,5.000000000000000000e-01,4.811286926269531250e-04,0.000000000000000000e+00
2.755024909973144531e+00,-8.971658706665039062e+00,3.101504516601562500e+02,3.101504516601562500e+02,1.092625334858894348e-01,9.057617187500000000e+01,9.108840487897396088e-03,-1.028879359364509583e-01,9.971487998962402344e+00,-3.766461759369121864e-06,-1.068761758506298065e-02,2.421906404197216034e-02,1.509634876128984615e-05,1.110747978091239929e-01,2.626638300716876984e-02,1.514601558446884155e-01,5.000000000000000000e-01,4.811286926269531250e-04,0.000000000000000000e+00
2.755024909973144531e+00,-8.971658706665039062e+00,3.101504516601562500e+02,3.101504516601562500e+02,1.092625334858894348e-01,9.057617187500000000e+01,9.108840487897396088e-03,-1.028879359364509583e-01,9.971487998962402344e+00,-3.766461759369121864e-06,-1.068761758506298065e-02,2.421906404197216034e-02,1.509634876128984615e-05,1.110747978091239929e-01,2.626638300716876984e-02,1.514601558446884155e-01,5.000000000000000000e-01,4.811286926269531250e-04,0.000000000000000000e+00
2.830169916152954102e+00,-8.979592323303222656e+00,3.109252319335937500e+02,3.109252319335937500e+02,1.163590997457504272e-01,9.058561706542968750e+01,7.238364312797784805e-03,-1.037532240152359009e-01,9.973241806030273438e+00,-3.137100975436624140e-06,-1.151491049677133560e-02,2.333896979689598083e-02,8.375283869099803269e-06,7.813071459531784058e-02,2.070942893624305725e-02,1.067625060677528381e-01,5.000000000000000000e-01,3.518104495014995337e-04,0.000000000000000000e+00
2.830169916152954102e+00,-8.979592323303222656e+00,3.109252319335937500e+02,3.109252319335937500e+02,1.163590997457504272e-01,9.058561706542968750e+01,7.238364312797784805e-03,-1.037532240152359009e-01,9.973241806030273438e+00,-3.137100975436624140e-06,-1.151491049677133560e-02,2.333896979689598083e-02,8.375283869099803269e-06,7.813071459531784058e-02,2.070942893624305725e-02,1.067625060677528381e-01,5.000000000000000000e-01,3.518104495014995337e-04,0.000000000000000000e+00
2.830169916152954102e+00,-8.979592323303222656e+00,3.109252319335937500e+02,3.109252319335937500e+02,1.163590997457504272e-01,9.058561706542968750e+01,7.238364312797784805e-03,-1.037532240152359009e-01,9.973241806030273438e+00,-3.137100975436624140e-06,-1.151491049677133560e-02,2.333896979689598083e-02,8.375283869099803269e-06,7.813071459531784058e-02,2.070942893624305725e-02,1.067625060677528381e-01,5.000000000000000000e-01,3.518104495014995337e-04,0.000000000000000000e+00
2.830169916152954102e+00,-8.979592323303222656e+00,3.109252319335937500e+02,3.109252319335937500e+02,1.163590997457504272e-01,9.058561706542968750e+01,7.238364312797784805e-03,-1.037532240152359009e-01,9.973241806030273438e+00,-3.137100975436624140e-06,-1.151491049677133560e-02,2.333896979689598083e-02,8.375283869099803269e-06,7.813071459531784058e-02,2.070942893624305725e-02,1.067625060677528381e-01,5.000000000000000000e-01,3.518104495014995337e-04,0.000000000000000000e+00
2.830169916152954102e+00,-8.979592323303222656e+00,3.109252319335937500e+02,3.109252319335937500e+02,1.163590997457504272e-01,9.058561706542968750e+01,7.238364312797784805e-03,-1.037532240152359009e-01,9.973241806030273438e+00,-3.137100975436624140e-06,-1.151491049677133560e-02,2.333896979689598083e-02,8.375283869099803269e-06,7.813071459531784058e-02,2.070942893624305725e-02,1.067625060677528381e-01,5.000000000000000000e-01,3.518104495014995337e-04,0.000000000000000000e+00
2.917726278305053711e+00,-8.987345695495605469e+00,3.116747436523437500e+02,3.116747436523437500e+02,1.210787594318389893e-01,9.059198760986328125e+01,5.752732977271080017e-03,-1.042693480849266052e-01,9.974426269531250000e+00,-3.060834387724753469e-06,-5.894763395190238953e-03,1.352801080793142319e-02,8.710570114089932758e-07,5.365627259016036987e-02,1.767982169985771179e-02,7.443594932556152344e-02,5.000000000000000000e-01,2.364158572163432837e-04,0.000000000000000000e+00
