# Time,X,Y,Z,Roll,Pitch,Yaw,Vx,Vy,Vz,Ax,Ay,Az,Wx,Wy,Wz,Throttle,Steer,Brake
0.000000000000000000e+00,6.260738525390625000e+02,5.217171859741210938e+01,5.217171859741210938e+01,4.976065754890441895e-01,-2.789306640625000000e-02,-6.103514533606357872e-05,5.248477458953857422e+00,-2.555933548137545586e-03,5.370210390537977219e-03,-1.409462738037109375e+01,6.856916472315788269e-03,-2.575948461890220642e-02,-4.908971488475799561e-03,-1.044771480560302734e+01,-2.393152244621887803e-04,0.000000000000000000e+00,-1.113861799240112305e-06,1.000000000000000000e+00
1.045818328857421875e-01,6.260738525390625000e+02,5.217171859741210938e+01,5.217171859741210938e+01,4.976065754890441895e-01,-2.789306640625000000e-02,-6.103514533606357872e-05,5.248477458953857422e+00,-2.555933548137545586e-03,5.370210390537977219e-03,-1.409462738037109375e+01,6.856916472315788269e-03,-2.575948461890220642e-02,-4.908971488475799561e-03,-1.044771480560302734e+01,-2.393152244621887803e-04,0.000000000000000000e+00,-1.113861799240112305e-06,1.000000000000000000e+00
1.045818328857421875e-01,6.260738525390625000e+02,5.217171859741210938e+01,5.217171859741210938e+01,4.976065754890441895e-01,-2.789306640625000000e-02,-6.103514533606357872e-05,5.248477458953857422e+00,-2.555933548137545586e-03,5.370210390537977219e-03,-1.409462738037109375e+01,6.856916472315788269e-03,-2.575948461890220642e-02,-4.908971488475799561e-03,-1.044771480560302734e+01,-2.393152244621887803e-04,0.000000000000000000e+00,-1.113861799240112305e-06,1.000000000000000000e+00
1.045818328857421875e-01,6.260738525390625000e+02,5.217171859741210938e+01,5.217171859741210938e+01,4.976065754890441895e-01,-2.789306640625000000e-02,-6.103514533606357872e-05,5.248477458953857422e+00,-2.555933548137545586e-03,5.370210390537977219e-03,-1.409462738037109375e+01,6.856916472315788269e-03,-2.575948461890220642e-02,-4.908971488475799561e-03,-1.044771480560302734e+01,-2.393152244621887803e-04,0.000000000000000000e+00,-1.113861799240112305e-06,1.000000000000000000e+00
1.045818328857421875e-01,6.260738525390625000e+02,5.217171859741210938e+01,5.217171859741210938e+01,4.976065754890441895e-01,-2.789306640625000000e-02,-6.103514533606357872e-05,5.248477458953857422e+00,-2.555933548137545586e-03,5.370210390537977219e-03,-1.409462738037109375e+01,6.856916472315788269e-03,-2.575948461890220642e-02,-4.908971488475799561e-03,-1.044771480560302734e+01,-2.393152244621887803e-04,0.000000000000000000e+00,-1.113861799240112305e-06,1.000000000000000000e+00
1.045818328857421875e-01,6.260738525390625000e+02,5.217171859741210938e+01,5.217171859741210938e+01,4.976065754890441895e-01,-2.789306640625000000e-02,-6.103514533606357872e-05,5.248477458953857422e+00,-2.555933548137545586e-03,5.370210390537977219e-03,-1.409462738037109375e+01,6.856916472315788269e-03,-2.575948461890220642e-02,-4.908971488475799561e-03,-1.044771480560302734e+01,-2.393152244621887803e-04,0.000000000000000000e+00,-1.113861799240112305e-06,1.000000000000000000e+00
1.045818328857421875e-01,6.264835815429687500e+02,5.217151641845703125e+01,5.217151641845703125e+01,7.938796877861022949e-01,-2.792358398437500000e-02,-9.155274165095761418e-05,3.333037853240966797e+00,-1.622655312530696392e-03,-3.229584917426109314e-02,-1.829299545288085938e+01,8.913073688745498657e-03,-3.597216308116912842e-01,-5.761564243584871292e-04,-1.043653964996337891e+00,2.813024730130564421e-05,1.000000000000000000e+00,1.207304535455477890e-06,0.000000000000000000e+00
2.092907428741455078e-01,6.264835815429687500e+02,5.217151641845703125e+01,5.217151641845703125e+01,7.938796877861022949e-01,-2.792358398437500000e-02,-9.155274165095761418e-05,3.333037853240966797e+00,-1.622655312530696392e-03,-3.229584917426109314e-02,-1.829299545288085938e+01,8.913073688745498657e-03,-3.597216308116912842e-01,-5.761564243584871292e-04,-1.043653964996337891e+00,2.813024730130564421e-05,1.000000000000000000e+00,1.207304535455477890e-06,0.000000000000000000e+00
2.092907428741455078e-01,6.264835815429687500e+02,5.217151641845703125e+01,5.217151641845703125e+01,7.938796877861022949e-01,-2.792358398437500000e-02,-9.155274165095761418e-05,3.333037853240966797e+00,-1.622655312530696392e-03,-3.229584917426109314e-02,-1.829299545288085938e+01,8.913073688745498657e-03,-3.597216308116912842e-01,-5.761564243584871292e-04,-1.043653964996337891e+00,2.813024730130564421e-05,1.000000000000000000e+00,1.207304535455477890e-06,0.000000000000000000e+00
2.092907428741455078e-01,6.264835815429687500e+02,5.217151641845703125e+01,5.217151641845703125e+01,7.938796877861022949e-01,-2.792358398437500000e-02,-9.155274165095761418e-05,3.333037853240966797e+00,-1.622655312530696392e-03,-3.229584917426109314e-02,-1.829299545288085938e+01,8.913073688745498657e-03,-3.597216308116912842e-01,-5.761564243584871292e-04,-1.043653964996337891e+00,2.813024730130564421e-05,1.000000000000000000e+00,1.207304535455477890e-06,0.000000000000000000e+00
2.092907428741455078e-01,6.264835815429687500e+02,5.217151641845703125e+01,5.217151641845703125e+01,7.938796877861022949e-01,-2.792358398437500000e-02,-9.155274165095761418e-05,3.333037853240966797e+00,-1.622655312530696392e-03,-3.229584917426109314e-02,-1.829299545288085938e+01,8.913073688745498657e-03,-3.597216308116912842e-01,-5.761564243584871292e-04,-1.043653964996337891e+00,2.813024730130564421e-05,1.000000000000000000e+00,1.207304535455477890e-06,0.000000000000000000e+00
2.092907428741455078e-01,6.268439941406250000e+02,5.217134094238281250e+01,5.217134094238281250e+01,3.719857335090637207e-01,-2.792358398437500000e-02,-6.103516352595761418e-05,3.845085382461547852e+00,-1.872684573754668236e-03,2.756727160885930061e-03,6.862198829650878906e+00,-3.350764280185103416e-03,4.697566628456115723e-01,2.658552955836057663e-03,5.783616065979003906e+00,-6.852464139228686690e-05,1.000000000000000000e+00,-9.316329965258773882e-07,0.000000000000000000e+00
2.839093208312988281e-01,6.268439941406250000e+02,5.217134094238281250e+01,5.217134094238281250e+01,3.719857335090637207e-01,-2.792358398437500000e-02,-6.103516352595761418e-05,3.845085382461547852e+00,-1.872684573754668236e-03,2.756727160885930061e-03,6.862198829650878906e+00,-3.350764280185103416e-03,4.697566628456115723e-01,2.658552955836057663e-03,5.783616065979003906e+00,-6.852464139228686690e-05,1.000000000000000000e+00,-9.316329965258773882e-07,0.000000000000000000e+00
2.839093208312988281e-01,6.268439941406250000e+02,5.217134094238281250e+01,5.217134094238281250e+01,3.719857335090637207e-01,-2.792358398437500000e-02,-6.103516352595761418e-05,3.845085382461547852e+00,-1.872684573754668236e-03,2.756727160885930061e-03,6.862198829650878906e+00,-3.350764280185103416e-03,4.697566628456115723e-01,2.658552955836057663e-03,5.783616065979003906e+00,-6.852464139228686690e-05,1.000000000000000000e+00,-9.316329965258773882e-07,0.000000000000000000e+00
2.839093208312988281e-01,6.268439941406250000e+02,5.217134094238281250e+01,5.217134094238281250e+01,3.719857335090637207e-01,-2.792358398437500000e-02,-6.103516352595761418e-05,3.845085382461547852e+00,-1.872684573754668236e-03,2.756727160885930061e-03,6.862198829650878906e+00,-3.350764280185103416e-03,4.697566628456115723e-01,2.658552955836057663e-03,5.783616065979003906e+00,-6.852464139228686690e-05,1.000000000000000000e+00,-9.316329965258773882e-07,0.000000000000000000e+00
2.839093208312988281e-01,6.268439941406250000e+02,5.217134094238281250e+01,5.217134094238281250e+01,3.719857335090637207e-01,-2.792358398437500000e-02,-6.103516352595761418e-05,3.845085382461547852e+00,-1.872684573754668236e-03,2.756727160885930061e-03,6.862198829650878906e+00,-3.350764280185103416e-03,4.697566628456115723e-01,2.658552955836057663e-03,5.783616065979003906e+00,-6.852464139228686690e-05,1.000000000000000000e+00,-9.316329965258773882e-07,0.000000000000000000e+00
3.569011688232421875e-01,6.271466064453125000e+02,5.217119598388671875e+01,5.217119598388671875e+01,-4.352196305990219116e-02,-2.792358584702014923e-02,-6.103515261202119291e-05,4.244866371154785156e+00,-2.066789427772164345e-03,1.141181308776140213e-02,5.477063655853271484e+00,-2.659267513081431389e-03,1.185760647058486938e-01,2.302157692611217499e-03,5.191576004028320312e+00,4.333068136475048959e-05,1.000000000000000000e+00,6.292636385296646040e-07,0.000000000000000000e+00
3.569011688232421875e-01,6.271466064453125000e+02,5.217119598388671875e+01,5.217119598388671875e+01,-4.352196305990219116e-02,-2.792358584702014923e-02,-6.103515261202119291e-05,4.244866371154785156e+00,-2.066789427772164345e-03,1.141181308776140213e-02,5.477063655853271484e+00,-2.659267513081431389e-03,1.185760647058486938e-01,2.302157692611217499e-03,5.191576004028320312e+00,4.333068136475048959e-05,1.000000000000000000e+00,6.292636385296646040e-07,0.000000000000000000e+00
3.569011688232421875e-01,6.271466064453125000e+02,5.217119598388671875e+01,5.217119598388671875e+01,-4.352196305990219116e-02,-2.792358584702014923e-02,-6.103515261202119291e-05,4.244866371154785156e+00,-2.066789427772164345e-03,1.141181308776140213e-02,5.477063655853271484e+00,-2.659267513081431389e-03,1.185760647058486938e-01,2.302157692611217499e-03,5.191576004028320312e+00,4.333068136475048959e-05,1.000000000000000000e+00,6.292636385296646040e-07,0.000000000000000000e+00
3.569011688232421875e-01,6.271466064453125000e+02,5.217119598388671875e+01,5.217119598388671875e+01,-4.352196305990219116e-02,-2.792358584702014923e-02,-6.103515261202119291e-05,4.244866371154785156e+00,-2.066789427772164345e-03,1.141181308776140213e-02,5.477063655853271484e+00,-2.659267513081431389e-03,1.185760647058486938e-01,2.302157692611217499e-03,5.191576004028320312e+00,4.333068136475048959e-05,1.000000000000000000e+00,6.292636385296646040e-07,0.000000000000000000e+00
4.765405654907226562e-01,6.274716796875000000e+02,5.217103576660156250e+01,5.217103576660156250e+01,-3.584278225898742676e-01,-2.792358212172985077e-02,-3.051758176297880709e-05,4.631892681121826172e+00,-2.255786210298538208e-03,1.171989087015390396e-02,3.234940290451049805e+00,-1.579720294103026390e-03,2.575052902102470398e-03,1.572015695273876190e-03,3.708004951477050781e+00,-6.458875577664002776e-05,1.000000000000000000e+00,-8.972361911219195463e-07,0.000000000000000000e+00
4.765405654907226562e-01,6.274716796875000000e+02,5.217103576660156250e+01,5.217103576660156250e+01,-3.584278225898742676e-01,-2.792358212172985077e-02,-3.051758176297880709e-05,4.631892681121826172e+00,-2.255786210298538208e-03,1.171989087015390396e-02,3.234940290451049805e+00,-1.579720294103026390e-03,2.575052902102470398e-03,1.572015695273876190e-03,3.708004951477050781e+00,-6.458875577664002776e-05,1.000000000000000000e+00,-8.972361911219195463e-07,0.000000000000000000e+00
4.765405654907226562e-01,6.274716796875000000e+02,5.217103576660156250e+01,5.217103576660156250e+01,-3.584278225898742676e-01,-2.792358212172985077e-02,-3.051758176297880709e-05,4.631892681121826172e+00,-2.255786210298538208e-03,1.171989087015390396e-02,3.234940290451049805e+00,-1.579720294103026390e-03,2.575052902102470398e-03,1.572015695273876190e-03,3.708004951477050781e+00,-6.458875577664002776e-05,1.000000000000000000e+00,-8.972361911219195463e-07,0.000000000000000000e+00
4.765405654907226562e-01,6.274716796875000000e+02,5.217103576660156250e+01,5.217103576660156250e+01,-3.584278225898742676e-01,-2.792358212172985077e-02,-3.051758176297880709e-05,4.631892681121826172e+00,-2.255786210298538208e-03,1.171989087015390396e-02,3.234940290451049805e+00,-1.579720294103026390e-03,2.575052902102470398e-03,1.572015695273876190e-03,3.708004951477050781e+00,-6.458875577664002776e-05,1.000000000000000000e+00,-8.972361911219195463e-07,0.000000000000000000e+00
4.765405654907226562e-01,6.274716796875000000e+02,5.217103576660156250e+01,5.217103576660156250e+01,-3.584278225898742676e-01,-2.792358212172985077e-02,-3.051758176297880709e-05,4.631892681121826172e+00,-2.255786210298538208e-03,1.171989087015390396e-02,3.234940290451049805e+00,-1.579720294103026390e-03,2.575052902102470398e-03,1.572015695273876190e-03,3.708004951477050781e+00,-6.458875577664002776e-05,1.000000000000000000e+00,-8.972361911219195463e-07,0.000000000000000000e+00
4.765405654907226562e-01,6.274716796875000000e+02,5.217103576660156250e+01,5.217103576660156250e+01,-3.584278225898742676e-01,-2.792358212172985077e-02,-3.051758176297880709e-05,4.631892681121826172e+00,-2.255786210298538208e-03,1.171989087015390396e-02,3.234940290451049805e+00,-1.579720294103026390e-03,2.575052902102470398e-03,1.572015695273876190e-03,3.708004951477050781e+00,-6.458875577664002776e-05,1.000000000000000000e+00,-8.972361911219195463e-07,0.000000000000000000e+00
4.765405654907226562e-01,6.274716796875000000e+02,5.217103576660156250e+01,5.217103576660156250e+01,-3.584278225898742676e-01,-2.792358212172985077e-02,-3.051758176297880709e-05,4.631892681121826172e+00,-2.255786210298538208e-03,1.171989087015390396e-02,3.234940290451049805e+00,-1.579720294103026390e-03,2.575052902102470398e-03,1.572015695273876190e-03,3.708004951477050781e+00,-6.458875577664002776e-05,1.000000000000000000e+00,-8.972361911219195463e-07,0.000000000000000000e+00
6.200885772705078125e-01,6.279637451171875000e+02,5.217079544067382812e+01,5.217079544067382812e+01,-6.314440965652465820e-01,-2.792358212172985077e-02,-3.051758903893642128e-05,5.155827522277832031e+00,-2.512866863980889320e-03,2.431530877947807312e-02,3.649892807006835938e+00,-1.790903625078499317e-03,8.774359524250030518e-02,1.072575338184833527e-03,2.482001781463623047e+00,-1.702669833321124315e-04,1.000000000000000000e+00,-1.749830971675692126e-06,0.000000000000000000e+00
6.200885772705078125e-01,6.279637451171875000e+02,5.217079544067382812e+01,5.217079544067382812e+01,-6.314440965652465820e-01,-2.792358212172985077e-02,-3.051758903893642128e-05,5.155827522277832031e+00,-2.512866863980889320e-03,2.431530877947807312e-02,3.649892807006835938e+00,-1.790903625078499317e-03,8.774359524250030518e-02,1.072575338184833527e-03,2.482001781463623047e+00,-1.702669833321124315e-04,1.000000000000000000e+00,-1.749830971675692126e-06,0.000000000000000000e+00
6.200885772705078125e-01,6.279637451171875000e+02,5.217079544067382812e+01,5.217079544067382812e+01,-6.314440965652465820e-01,-2.792358212172985077e-02,-3.051758903893642128e-05,5.155827522277832031e+00,-2.512866863980889320e-03,2.431530877947807312e-02,3.649892807006835938e+00,-1.790903625078499317e-03,8.774359524250030518e-02,1.072575338184833527e-03,2.482001781463623047e+00,-1.702669833321124315e-04,1.000000000000000000e+00,-1.749830971675692126e-06,0.000000000000000000e+00
6.200885772705078125e-01,6.279637451171875000e+02,5.217079544067382812e+01,5.217079544067382812e+01,-6.314440965652465820e-01,-2.792358212172985077e-02,-3.051758903893642128e-05,5.155827522277832031e+00,-2.512866863980889320e-03,2.431530877947807312e-02,3.649892807006835938e+00,-1.790903625078499317e-03,8.774359524250030518e-02,1.072575338184833527e-03,2.482001781463623047e+00,-1.702669833321124315e-04,1.000000000000000000e+00,-1.749830971675692126e-06,0.000000000000000000e+00
6.200885772705078125e-01,6.279637451171875000e+02,5.217079544067382812e+01,5.217079544067382812e+01,-6.314440965652465820e-01,-2.792358212172985077e-02,-3.051758903893642128e-05,5.155827522277832031e+00,-2.512866863980889320e-03,2.431530877947807312e-02,3.649892807006835938e+00,-1.790903625078499317e-03,8.774359524250030518e-02,1.072575338184833527e-03,2.482001781463623047e+00,-1.702669833321124315e-04,1.000000000000000000e+00,-1.749830971675692126e-06,0.000000000000000000e+00
6.200885772705078125e-01,6.279637451171875000e+02,5.217079544067382812e+01,5.217079544067382812e+01,-6.314440965652465820e-01,-2.792358212172985077e-02,-3.051758903893642128e-05,5.155827522277832031e+00,-2.512866863980889320e-03,2.431530877947807312e-02,3.649892807006835938e+00,-1.790903625078499317e-03,8.774359524250030518e-02,1.072575338184833527e-03,2.482001781463623047e+00,-1.702669833321124315e-04,1.000000000000000000e+00,-1.749830971675692126e-06,0.000000000000000000e+00
7.946169376373291016e-01,6.284461669921875000e+02,5.217055511474609375e+01,5.217055511474609375e+01,-2.266871333122253418e-01,-2.795409969985485077e-02,6.513826804332989440e-12,4.036382198333740234e+00,-1.969233853742480278e-03,-2.494987333193421364e-03,-6.414116859436035156e+00,3.114869119599461555e-03,-1.536156982183456421e-01,-5.037747789174318314e-03,-1.024122047424316406e+01,-1.858922332758083940e-04,0.000000000000000000e+00,-3.893300799973076209e-06,1.000000000000000000e+00
7.946169376373291016e-01,6.284461669921875000e+02,5.217055511474609375e+01,5.217055511474609375e+01,-2.266871333122253418e-01,-2.795409969985485077e-02,6.513826804332989440e-12,4.036382198333740234e+00,-1.969233853742480278e-03,-2.494987333193421364e-03,-6.414116859436035156e+00,3.114869119599461555e-03,-1.536156982183456421e-01,-5.037747789174318314e-03,-1.024122047424316406e+01,-1.858922332758083940e-04,0.000000000000000000e+00,-3.893300799973076209e-06,1.000000000000000000e+00
7.946169376373291016e-01,6.284461669921875000e+02,5.217055511474609375e+01,5.217055511474609375e+01,-2.266871333122253418e-01,-2.795409969985485077e-02,6.513826804332989440e-12,4.036382198333740234e+00,-1.969233853742480278e-03,-2.494987333193421364e-03,-6.414116859436035156e+00,3.114869119599461555e-03,-1.536156982183456421e-01,-5.037747789174318314e-03,-1.024122047424316406e+01,-1.858922332758083940e-04,0.000000000000000000e+00,-3.893300799973076209e-06,1.000000000000000000e+00
8.783230781555175781e-01,6.287687988281250000e+02,5.217039871215820312e+01,5.217039871215820312e+01,6.467164158821105957e-01,-2.795410156250000000e-02,-1.302838219252588914e-11,2.931495189666748047e+00,-1.430971780791878700e-03,1.195307821035385132e-03,-1.319959354400634766e+01,6.430377718061208725e-03,4.408631473779678345e-02,-2.310301410034298897e-03,-4.673036098480224609e+00,-2.289322219439782202e-05,1.000000000000000000e+00,6.305674560280749574e-07,0.000000000000000000e+00
8.783230781555175781e-01,6.287687988281250000e+02,5.217039871215820312e+01,5.217039871215820312e+01,6.467164158821105957e-01,-2.795410156250000000e-02,-1.302838219252588914e-11,2.931495189666748047e+00,-1.430971780791878700e-03,1.195307821035385132e-03,-1.319959354400634766e+01,6.430377718061208725e-03,4.408631473779678345e-02,-2.310301410034298897e-03,-4.673036098480224609e+00,-2.289322219439782202e-05,1.000000000000000000e+00,6.305674560280749574e-07,0.000000000000000000e+00
8.783230781555175781e-01,6.287687988281250000e+02,5.217039871215820312e+01,5.217039871215820312e+01,6.467164158821105957e-01,-2.795410156250000000e-02,-1.302838219252588914e-11,2.931495189666748047e+00,-1.430971780791878700e-03,1.195307821035385132e-03,-1.319959354400634766e+01,6.430377718061208725e-03,4.408631473779678345e-02,-2.310301410034298897e-03,-4.673036098480224609e+00,-2.289322219439782202e-05,1.000000000000000000e+00,6.305674560280749574e-07,0.000000000000000000e+00
9.483780860900878906e-01,6.290088500976562500e+02,5.217028045654296875e+01,5.217028045654296875e+01,6.582731008529663086e-01,-2.795409969985485077e-02,-1.302841168282498074e-11,2.863737344741821289e+00,-1.396794454194605350e-03,1.151753822341561317e-03,-9.672091603279113770e-01,4.878641339018940926e-04,-6.217114278115332127e-04,7.492640870623290539e-04,1.635213136672973633e+00,9.566177322994917631e-05,1.000000000000000000e+00,2.009297304539359175e-06,0.000000000000000000e+00
9.483780860900878906e-01,6.290088500976562500e+02,5.217028045654296875e+01,5.217028045654296875e+01,6.582731008529663086e-01,-2.795409969985485077e-02,-1.302841168282498074e-11,2.863737344741821289e+00,-1.396794454194605350e-03,1.151753822341561317e-03,-9.672091603279113770e-01,4.878641339018940926e-04,-6.217114278115332127e-04,7.492640870623290539e-04,1.635213136672973633e+00,9.566177322994917631e-05,1.000000000000000000e+00,2.009297304539359175e-06,0.000000000000000000e+00
9.483780860900878906e-01,6.290088500976562500e+02,5.217028045654296875e+01,5.217028045654296875e+01,6.582731008529663086e-01,-2.795409969985485077e-02,-1.302841168282498074e-11,2.863737344741821289e+00,-1.396794454194605350e-03,1.151753822341561317e-03,-9.672091603279113770e-01,4.878641339018940926e-04,-6.217114278115332127e-04,7.492640870623290539e-04,1.635213136672973633e+00,9.566177322994917631e-05,1.000000000000000000e+00,2.009297304539359175e-06,0.000000000000000000e+00
9.483780860900878906e-01,6.290088500976562500e+02,5.217028045654296875e+01,5.217028045654296875e+01,6.582731008529663086e-01,-2.795409969985485077e-02,-1.302841168282498074e-11,2.863737344741821289e+00,-1.396794454194605350e-03,1.151753822341561317e-03,-9.672091603279113770e-01,4.878641339018940926e-04,-6.217114278115332127e-04,7.492640870623290539e-04,1.635213136672973633e+00,9.566177322994917631e-05,1.000000000000000000e+00,2.009297304539359175e-06,0.000000000000000000e+00
9.483780860900878906e-01,6.292083129882812500e+02,5.217018508911132812e+01,5.217018508911132812e+01,5.051539540290832520e-01,-2.795409969985485077e-02,0.000000000000000000e+00,2.854907274246215820e+00,-1.391883357428014278e-03,2.025224966928362846e-03,-1.120581403374671936e-01,6.232434679986909032e-05,1.108479872345924377e-02,1.079482026398181915e-03,2.343713521957397461e+00,1.198611935251392424e-04,1.000000000000000000e+00,2.538164380894158967e-06,0.000000000000000000e+00
1.027177095413208008e+00,6.292083129882812500e+02,5.217018508911132812e+01,5.217018508911132812e+01,5.051539540290832520e-01,-2.795409969985485077e-02,0.000000000000000000e+00,2.854907274246215820e+00,-1.391883357428014278e-03,2.025224966928362846e-03,-1.120581403374671936e-01,6.232434679986909032e-05,1.108479872345924377e-02,1.079482026398181915e-03,2.343713521957397461e+00,1.198611935251392424e-04,1.000000000000000000e+00,2.538164380894158967e-06,0.000000000000000000e+00
1.027177095413208008e+00,6.292083129882812500e+02,5.217018508911132812e+01,5.217018508911132812e+01,5.051539540290832520e-01,-2.795409969985485077e-02,0.000000000000000000e+00,2.854907274246215820e+00,-1.391883357428014278e-03,2.025224966928362846e-03,-1.120581403374671936e-01,6.232434679986909032e-05,1.108479872345924377e-02,1.079482026398181915e-03,2.343713521957397461e+00,1.198611935251392424e-04,1.000000000000000000e+00,2.538164380894158967e-06,0.000000000000000000e+00
1.095043420791625977e+00,6.294317626953125000e+02,5.217008590698242188e+01,5.217008590698242188e+01,3.287711441516876221e-01,-2.795410156250000000e-02,4.504050139075843617e-06,2.844083070755004883e+00,-1.386161544360220432e-03,1.011116895824670792e-03,-1.594929993152618408e-01,8.431004243902862072e-05,-1.494272798299789429e-02,9.507231879979372025e-04,2.085268497467041016e+00,1.233203802257776260e-04,1.000000000000000000e+00,2.631110419315518811e-06,0.000000000000000000e+00
1.095043420791625977e+00,6.294317626953125000e+02,5.217008590698242188e+01,5.217008590698242188e+01,3.287711441516876221e-01,-2.795410156250000000e-02,4.504050139075843617e-06,2.844083070755004883e+00,-1.386161544360220432e-03,1.011116895824670792e-03,-1.594929993152618408e-01,8.431004243902862072e-05,-1.494272798299789429e-02,9.507231879979372025e-04,2.085268497467041016e+00,1.233203802257776260e-04,1.000000000000000000e+00,2.631110419315518811e-06,0.000000000000000000e+00
1.095043420791625977e+00,6.294317626953125000e+02,5.217008590698242188e+01,5.217008590698242188e+01,3.287711441516876221e-01,-2.795410156250000000e-02,4.504050139075843617e-06,2.844083070755004883e+00,-1.386161544360220432e-03,1.011116895824670792e-03,-1.594929993152618408e-01,8.431004243902862072e-05,-1.494272798299789429e-02,9.507231879979372025e-04,2.085268497467041016e+00,1.233203802257776260e-04,1.000000000000000000e+00,2.631110419315518811e-06,0.000000000000000000e+00
1.095043420791625977e+00,6.294317626953125000e+02,5.217008590698242188e+01,5.217008590698242188e+01,3.287711441516876221e-01,-2.795410156250000000e-02,4.504050139075843617e-06,2.844083070755004883e+00,-1.386161544360220432e-03,1.011116895824670792e-03,-1.594929993152618408e-01,8.431004243902862072e-05,-1.494272798299789429e-02,9.507231879979372025e-04,2.085268497467041016e+00,1.233203802257776260e-04,1.000000000000000000e+00,2.631110419315518811e-06,0.000000000000000000e+00
1.168572425842285156e+00,6.296237792968750000e+02,5.216999053955078125e+01,5.216999053955078125e+01,2.056159973144531250e-01,-2.795410156250000000e-02,4.592326149577274919e-06,2.834605932235717773e+00,-1.383505878038704395e-03,3.011370776221156120e-03,-1.288897991180419922e-01,3.611726060626097023e-05,2.720360271632671356e-02,8.394811884500086308e-04,1.647324800491333008e+00,-1.611983607290312648e-04,1.000000000000000000e+00,-3.382563591003417969e-06,0.000000000000000000e+00
1.168572425842285156e+00,6.296237792968750000e+02,5.216999053955078125e+01,5.216999053955078125e+01,2.056159973144531250e-01,-2.795410156250000000e-02,4.592326149577274919e-06,2.834605932235717773e+00,-1.383505878038704395e-03,3.011370776221156120e-03,-1.288897991180419922e-01,3.611726060626097023e-05,2.720360271632671356e-02,8.394811884500086308e-04,1.647324800491333008e+00,-1.611983607290312648e-04,1.000000000000000000e+00,-3.382563591003417969e-06,0.000000000000000000e+00
1.168572425842285156e+00,6.296237792968750000e+02,5.216999053955078125e+01,5.216999053955078125e+01,2.056159973144531250e-01,-2.795410156250000000e-02,4.592326149577274919e-06,2.834605932235717773e+00,-1.383505878038704395e-03,3.011370776221156120e-03,-1.288897991180419922e-01,3.611726060626097023e-05,2.720360271632671356e-02,8.394811884500086308e-04,1.647324800491333008e+00,-1.611983607290312648e-04,1.000000000000000000e+00,-3.382563591003417969e-06,0.000000000000000000e+00
1.168572425842285156e+00,6.296237792968750000e+02,5.216999053955078125e+01,5.216999053955078125e+01,2.056159973144531250e-01,-2.795410156250000000e-02,4.592326149577274919e-06,2.834605932235717773e+00,-1.383505878038704395e-03,3.011370776221156120e-03,-1.288897991180419922e-01,3.611726060626097023e-05,2.720360271632671356e-02,8.394811884500086308e-04,1.647324800491333008e+00,-1.611983607290312648e-04,1.000000000000000000e+00,-3.382563591003417969e-06,0.000000000000000000e+00
1.168572425842285156e+00,6.298363647460937500e+02,5.216989135742187500e+01,5.216989135742187500e+01,4.664335772395133972e-02,-2.795410342514514923e-02,1.598607354935666081e-06,3.026430845260620117e+00,-1.478105201385915279e-03,1.158105209469795227e-03,2.556014537811279297e+00,-1.260510063730180264e-03,-2.469425648450851440e-02,1.541916979476809502e-03,3.094590663909912109e+00,-1.991486788028851151e-04,1.000000000000000000e+00,-3.281856606918154284e-06,0.000000000000000000e+00
1.243620872497558594e+00,6.298363647460937500e+02,5.216989135742187500e+01,5.216989135742187500e+01,4.664335772395133972e-02,-2.795410342514514923e-02,1.598607354935666081e-06,3.026430845260620117e+00,-1.478105201385915279e-03,1.158105209469795227e-03,2.556014537811279297e+00,-1.260510063730180264e-03,-2.469425648450851440e-02,1.541916979476809502e-03,3.094590663909912109e+00,-1.991486788028851151e-04,1.000000000000000000e+00,-3.281856606918154284e-06,0.000000000000000000e+00
1.243620872497558594e+00,6.298363647460937500e+02,5.216989135742187500e+01,5.216989135742187500e+01,4.664335772395133972e-02,-2.795410342514514923e-02,1.598607354935666081e-06,3.026430845260620117e+00,-1.478105201385915279e-03,1.158105209469795227e-03,2.556014537811279297e+00,-1.260510063730180264e-03,-2.469425648450851440e-02,1.541916979476809502e-03,3.094590663909912109e+00,-1.991486788028851151e-04,1.000000000000000000e+00,-3.281856606918154284e-06,0.000000000000000000e+00
1.243620872497558594e+00,6.300561523437500000e+02,5.216978454589843750e+01,5.216978454589843750e+01,-5.095320753753185272e-03,-2.798461355268955231e-02,0.000000000000000000e+00,2.701998949050903320e+00,-1.321936375461518764e-03,7.600501994602382183e-04,-4.741625785827636719e+00,2.282433211803436279e-03,-5.817640107125043869e-03,-9.087928920052945614e-04,-2.076186418533325195e+00,-3.937964502256363630e-04,0.000000000000000000e+00,-6.277424745348980650e-06,1.000000000000000000e+00
1.312042951583862305e+00,6.300561523437500000e+02,5.216978454589843750e+01,5.216978454589843750e+01,-5.095320753753185272e-03,-2.798461355268955231e-02,0.000000000000000000e+00,2.701998949050903320e+00,-1.321936375461518764e-03,7.600501994602382183e-04,-4.741625785827636719e+00,2.282433211803436279e-03,-5.817640107125043869e-03,-9.087928920052945614e-04,-2.076186418533325195e+00,-3.937964502256363630e-04,0.000000000000000000e+00,-6.277424745348980650e-06,1.000000000000000000e+00
1.312042951583862305e+00,6.300561523437500000e+02,5.216978454589843750e+01,5.216978454589843750e+01,-5.095320753753185272e-03,-2.798461355268955231e-02,0.000000000000000000e+00,2.701998949050903320e+00,-1.321936375461518764e-03,7.600501994602382183e-04,-4.741625785827636719e+00,2.282433211803436279e-03,-5.817640107125043869e-03,-9.087928920052945614e-04,-2.076186418533325195e+00,-3.937964502256363630e-04,0.000000000000000000e+00,-6.277424745348980650e-06,1.000000000000000000e+00
1.383129358291625977e+00,6.301999511718750000e+02,5.216971588134765625e+01,5.216971588134765625e+01,3.853524327278137207e-01,-2.801513299345970154e-02,6.513923081485906152e-12,1.617881417274475098e+00,-7.928698905743658543e-04,1.523419748991727829e-03,-1.525069999694824219e+01,7.442582864314317703e-03,1.073861494660377502e-02,-3.488803748041391373e-03,-7.287538051605224609e+00,-4.080671642441302538e-04,0.000000000000000000e+00,-7.467903287761146203e-06,1.000000000000000000e+00
1.383129358291625977e+00,6.301999511718750000e+02,5.216971588134765625e+01,5.216971588134765625e+01,3.853524327278137207e-01,-2.801513299345970154e-02,6.513923081485906152e-12,1.617881417274475098e+00,-7.928698905743658543e-04,1.523419748991727829e-03,-1.525069999694824219e+01,7.442582864314317703e-03,1.073861494660377502e-02,-3.488803748041391373e-03,-7.287538051605224609e+00,-4.080671642441302538e-04,0.000000000000000000e+00,-7.467903287761146203e-06,1.000000000000000000e+00
1.383129358291625977e+00,6.301999511718750000e+02,5.216971588134765625e+01,5.216971588134765625e+01,3.853524327278137207e-01,-2.801513299345970154e-02,6.513923081485906152e-12,1.617881417274475098e+00,-7.928698905743658543e-04,1.523419748991727829e-03,-1.525069999694824219e+01,7.442582864314317703e-03,1.073861494660377502e-02,-3.488803748041391373e-03,-7.287538051605224609e+00,-4.080671642441302538e-04,0.000000000000000000e+00,-7.467903287761146203e-06,1.000000000000000000e+00
1.450951814651489258e+00,6.302636718750000000e+02,5.216968154907226562e+01,5.216968154907226562e+01,8.275730013847351074e-01,-2.804564498364925385e-02,1.302891041582432408e-11,3.037599623203277588e-01,-1.502848172094672918e-04,-2.619342319667339325e-02,-1.937590599060058594e+01,9.474518708884716034e-03,-4.086676537990570068e-01,-1.081383787095546722e-03,-2.285572767257690430e+00,-3.439683350734412670e-04,1.000000000000000000e+00,-6.923948603798635304e-06,0.000000000000000000e+00
1.450951814651489258e+00,6.302636718750000000e+02,5.216968154907226562e+01,5.216968154907226562e+01,8.275730013847351074e-01,-2.804564498364925385e-02,1.302891041582432408e-11,3.037599623203277588e-01,-1.502848172094672918e-04,-2.619342319667339325e-02,-1.937590599060058594e+01,9.474518708884716034e-03,-4.086676537990570068e-01,-1.081383787095546722e-03,-2.285572767257690430e+00,-3.439683350734412670e-04,1.000000000000000000e+00,-6.923948603798635304e-06,0.000000000000000000e+00
1.450951814651489258e+00,6.302636718750000000e+02,5.216968154907226562e+01,5.216968154907226562e+01,8.275730013847351074e-01,-2.804564498364925385e-02,1.302891041582432408e-11,3.037599623203277588e-01,-1.502848172094672918e-04,-2.619342319667339325e-02,-1.937590599060058594e+01,9.474518708884716034e-03,-4.086676537990570068e-01,-1.081383787095546722e-03,-2.285572767257690430e+00,-3.439683350734412670e-04,1.000000000000000000e+00,-6.923948603798635304e-06,0.000000000000000000e+00
1.527701377868652344e+00,6.302823486328125000e+02,5.216967773437500000e+01,5.216967773437500000e+01,4.189842641353607178e-01,-2.804565243422985077e-02,-3.051757630601059645e-05,4.513710737228393555e-01,-2.211276732850819826e-04,-2.225443348288536072e-02,1.923282742500305176e+00,-9.230392170138657093e-04,5.132263526320457458e-02,3.360425820574164391e-03,6.870908737182617188e+00,-7.147089490899816155e-05,1.000000000000000000e+00,-1.121063974096614402e-06,0.000000000000000000e+00
1.527701377868652344e+00,6.302823486328125000e+02,5.216967773437500000e+01,5.216967773437500000e+01,4.189842641353607178e-01,-2.804565243422985077e-02,-3.051757630601059645e-05,4.513710737228393555e-01,-2.211276732850819826e-04,-2.225443348288536072e-02,1.923282742500305176e+00,-9.230392170138657093e-04,5.132263526320457458e-02,3.360425820574164391e-03,6.870908737182617188e+00,-7.147089490899816155e-05,1.000000000000000000e+00,-1.121063974096614402e-06,0.000000000000000000e+00
1.527701377868652344e+00,6.302823486328125000e+02,5.216967773437500000e+01,5.216967773437500000e+01,4.189842641353607178e-01,-2.804565243422985077e-02,-3.051757630601059645e-05,4.513710737228393555e-01,-2.211276732850819826e-04,-2.225443348288536072e-02,1.923282742500305176e+00,-9.230392170138657093e-04,5.132263526320457458e-02,3.360425820574164391e-03,6.870908737182617188e+00,-7.147089490899816155e-05,1.000000000000000000e+00,-1.121063974096614402e-06,0.000000000000000000e+00
1.600134611129760742e+00,6.303341064453125000e+02,5.216965103149414062e+01,5.216965103149414062e+01,-6.121898069977760315e-02,-2.807617187500000000e-02,-3.051757812500000000e-05,8.807209730148315430e-01,-4.332699172664433718e-04,-1.310547813773155212e-03,5.927526473999023438e+00,-2.928797155618667603e-03,2.891474664211273193e-01,2.722782315686345100e-03,5.600789546966552734e+00,-3.290823660790920258e-04,1.000000000000000000e+00,-9.918088835547678173e-06,0.000000000000000000e+00
1.600134611129760742e+00,6.303341064453125000e+02,5.216965103149414062e+01,5.216965103149414062e+01,-6.121898069977760315e-02,-2.807617187500000000e-02,-3.051757812500000000e-05,8.807209730148315430e-01,-4.332699172664433718e-04,-1.310547813773155212e-03,5.927526473999023438e+00,-2.928797155618667603e-03,2.891474664211273193e-01,2.722782315686345100e-03,5.600789546966552734e+00,-3.290823660790920258e-04,1.000000000000000000e+00,-9.918088835547678173e-06,0.000000000000000000e+00
1.600134611129760742e+00,6.303341064453125000e+02,5.216965103149414062e+01,5.216965103149414062e+01,-6.121898069977760315e-02,-2.807617187500000000e-02,-3.051757812500000000e-05,8.807209730148315430e-01,-4.332699172664433718e-04,-1.310547813773155212e-03,5.927526473999023438e+00,-2.928797155618667603e-03,2.891474664211273193e-01,2.722782315686345100e-03,5.600789546966552734e+00,-3.290823660790920258e-04,1.000000000000000000e+00,-9.918088835547678173e-06,0.000000000000000000e+00
1.600134611129760742e+00,6.303341064453125000e+02,5.216965103149414062e+01,5.216965103149414062e+01,-6.121898069977760315e-02,-2.807617187500000000e-02,-3.051757812500000000e-05,8.807209730148315430e-01,-4.332699172664433718e-04,-1.310547813773155212e-03,5.927526473999023438e+00,-2.928797155618667603e-03,2.891474664211273193e-01,2.722782315686345100e-03,5.600789546966552734e+00,-3.290823660790920258e-04,1.000000000000000000e+00,-9.918088835547678173e-06,0.000000000000000000e+00
1.600134611129760742e+00,6.303341064453125000e+02,5.216965103149414062e+01,5.216965103149414062e+01,-6.121898069977760315e-02,-2.807617187500000000e-02,-3.051757812500000000e-05,8.807209730148315430e-01,-4.332699172664433718e-04,-1.310547813773155212e-03,5.927526473999023438e+00,-2.928797155618667603e-03,2.891474664211273193e-01,2.722782315686345100e-03,5.600789546966552734e+00,-3.290823660790920258e-04,1.000000000000000000e+00,-9.918088835547678173e-06,0.000000000000000000e+00
1.600134611129760742e+00,6.304135131835937500e+02,5.216960906982421875e+01,5.216960906982421875e+01,-3.867116272449493408e-01,-2.810668386518955231e-02,0.000000000000000000e+00,1.278993964195251465e+00,-6.289022858254611492e-04,7.557460572570562363e-03,3.451871395111083984e+00,-1.695565064437687397e-03,7.685991376638412476e-02,1.867858576588332653e-03,3.781665563583374023e+00,-3.501889004837721586e-04,1.000000000000000000e+00,-8.027875992411281914e-06,0.000000000000000000e+00
1.715513467788696289e+00,6.304135131835937500e+02,5.216960906982421875e+01,5.216960906982421875e+01,-3.867116272449493408e-01,-2.810668386518955231e-02,0.000000000000000000e+00,1.278993964195251465e+00,-6.289022858254611492e-04,7.557460572570562363e-03,3.451871395111083984e+00,-1.695565064437687397e-03,7.685991376638412476e-02,1.867858576588332653e-03,3.781665563583374023e+00,-3.501889004837721586e-04,1.000000000000000000e+00,-8.027875992411281914e-06,0.000000000000000000e+00
1.715513467788696289e+00,6.304135131835937500e+02,5.216960906982421875e+01,5.216960906982421875e+01,-3.867116272449493408e-01,-2.810668386518955231e-02,0.000000000000000000e+00,1.278993964195251465e+00,-6.289022858254611492e-04,7.557460572570562363e-03,3.451871395111083984e+00,-1.695565064437687397e-03,7.685991376638412476e-02,1.867858576588332653e-03,3.781665563583374023e+00,-3.501889004837721586e-04,1.000000000000000000e+00,-8.027875992411281914e-06,0.000000000000000000e+00
1.715513467788696289e+00,6.305711669921875000e+02,5.216952896118164062e+01,5.216952896118164062e+01,-6.486220359802246094e-01,-2.807616814970970154e-02,-1.302838652933457908e-11,1.814176917076110840e+00,-8.880818495526909828e-04,7.960976101458072662e-03,5.483339309692382812e+00,-2.655483549460768700e-03,4.134310409426689148e-03,8.164752507582306862e-04,1.897560119628906250e+00,1.933910098159685731e-04,1.000000000000000000e+00,4.090803486178629100e-06,0.000000000000000000e+00
1.813115119934082031e+00,6.305711669921875000e+02,5.216952896118164062e+01,5.216952896118164062e+01,-6.486220359802246094e-01,-2.807616814970970154e-02,-1.302838652933457908e-11,1.814176917076110840e+00,-8.880818495526909828e-04,7.960976101458072662e-03,5.483339309692382812e+00,-2.655483549460768700e-03,4.134310409426689148e-03,8.164752507582306862e-04,1.897560119628906250e+00,1.933910098159685731e-04,1.000000000000000000e+00,4.090803486178629100e-06,0.000000000000000000e+00
1.813115119934082031e+00,6.305711669921875000e+02,5.216952896118164062e+01,5.216952896118164062e+01,-6.486220359802246094e-01,-2.807616814970970154e-02,-1.302838652933457908e-11,1.814176917076110840e+00,-8.880818495526909828e-04,7.960976101458072662e-03,5.483339309692382812e+00,-2.655483549460768700e-03,4.134310409426689148e-03,8.164752507582306862e-04,1.897560119628906250e+00,1.933910098159685731e-04,1.000000000000000000e+00,4.090803486178629100e-06,0.000000000000000000e+00
1.813115119934082031e+00,6.305711669921875000e+02,5.216952896118164062e+01,5.216952896118164062e+01,-6.486220359802246094e-01,-2.807616814970970154e-02,-1.302838652933457908e-11,1.814176917076110840e+00,-8.880818495526909828e-04,7.960976101458072662e-03,5.483339309692382812e+00,-2.655483549460768700e-03,4.134310409426689148e-03,8.164752507582306862e-04,1.897560119628906250e+00,1.933910098159685731e-04,1.000000000000000000e+00,4.090803486178629100e-06,0.000000000000000000e+00
1.896134853363037109e+00,6.307263793945312500e+02,5.216945266723632812e+01,5.216945266723632812e+01,-3.410654664039611816e-01,-2.807616814970970154e-02,3.164115923937060870e-06,1.104687094688415527e+00,-5.399383371695876122e-04,7.559824269264936447e-03,-8.546038627624511719e+00,4.193503409624099731e-03,-4.832006059587001801e-03,-3.764194902032613754e-03,-7.596889495849609375e+00,2.206074568675830960e-04,0.000000000000000000e+00,3.603224968173890375e-06,1.000000000000000000e+00
1.896134853363037109e+00,6.307263793945312500e+02,5.216945266723632812e+01,5.216945266723632812e+01,-3.410654664039611816e-01,-2.807616814970970154e-02,3.164115923937060870e-06,1.104687094688415527e+00,-5.399383371695876122e-04,7.559824269264936447e-03,-8.546038627624511719e+00,4.193503409624099731e-03,-4.832006059587001801e-03,-3.764194902032613754e-03,-7.596889495849609375e+00,2.206074568675830960e-04,0.000000000000000000e+00,3.603224968173890375e-06,1.000000000000000000e+00
1.896134853363037109e+00,6.307263793945312500e+02,5.216945266723632812e+01,5.216945266723632812e+01,-3.410654664039611816e-01,-2.807616814970970154e-02,3.164115923937060870e-06,1.104687094688415527e+00,-5.399383371695876122e-04,7.559824269264936447e-03,-8.546038627624511719e+00,4.193503409624099731e-03,-4.832006059587001801e-03,-3.764194902032613754e-03,-7.596889495849609375e+00,2.206074568675830960e-04,0.000000000000000000e+00,3.603224968173890375e-06,1.000000000000000000e+00
1.896134853363037109e+00,6.307263793945312500e+02,5.216945266723632812e+01,5.216945266723632812e+01,-3.410654664039611816e-01,-2.807616814970970154e-02,3.164115923937060870e-06,1.104687094688415527e+00,-5.399383371695876122e-04,7.559824269264936447e-03,-8.546038627624511719e+00,4.193503409624099731e-03,-4.832006059587001801e-03,-3.764194902032613754e-03,-7.596889495849609375e+00,2.206074568675830960e-04,0.000000000000000000e+00,3.603224968173890375e-06,1.000000000000000000e+00
1.896134853363037109e+00,6.307263793945312500e+02,5.216945266723632812e+01,5.216945266723632812e+01,-3.410654664039611816e-01,-2.807616814970970154e-02,3.164115923937060870e-06,1.104687094688415527e+00,-5.399383371695876122e-04,7.559824269264936447e-03,-8.546038627624511719e+00,4.193503409624099731e-03,-4.832006059587001801e-03,-3.764194902032613754e-03,-7.596889495849609375e+00,2.206074568675830960e-04,0.000000000000000000e+00,3.603224968173890375e-06,1.000000000000000000e+00
1.896134853363037109e+00,6.307263793945312500e+02,5.216945266723632812e+01,5.216945266723632812e+01,-3.410654664039611816e-01,-2.807616814970970154e-02,3.164115923937060870e-06,1.104687094688415527e+00,-5.399383371695876122e-04,7.559824269264936447e-03,-8.546038627624511719e+00,4.193503409624099731e-03,-4.832006059587001801e-03,-3.764194902032613754e-03,-7.596889495849609375e+00,2.206074568675830960e-04,0.000000000000000000e+00,3.603224968173890375e-06,1.000000000000000000e+00
1.896134853363037109e+00,6.307263793945312500e+02,5.216945266723632812e+01,5.216945266723632812e+01,-3.410654664039611816e-01,-2.807616814970970154e-02,3.164115923937060870e-06,1.104687094688415527e+00,-5.399383371695876122e-04,7.559824269264936447e-03,-8.546038627624511719e+00,4.193503409624099731e-03,-4.832006059587001801e-03,-3.764194902032613754e-03,-7.596889495849609375e+00,2.206074568675830960e-04,0.000000000000000000e+00,3.603224968173890375e-06,1.000000000000000000e+00
1.896134853363037109e+00,6.307263793945312500e+02,5.216945266723632812e+01,5.216945266723632812e+01,-3.410654664039611816e-01,-2.807616814970970154e-02,3.164115923937060870e-06,1.104687094688415527e+00,-5.399383371695876122e-04,7.559824269264936447e-03,-8.546038627624511719e+00,4.193503409624099731e-03,-4.832006059587001801e-03,-3.764194902032613754e-03,-7.596889495849609375e+00,2.206074568675830960e-04,0.000000000000000000e+00,3.603224968173890375e-06,1.000000000000000000e+00
2.195794820785522461e+00,6.307590942382812500e+02,5.216946792602539062e+01,5.216946792602539062e+01,2.940123081207275391e-01,-2.520751953125000000e-02,-3.051756903005298227e-05,4.132461326662451029e-04,7.076873316691489890e-06,3.677002387121319771e-03,-1.976486109197139740e-02,-1.649157056817784905e-04,5.210295785218477249e-04,1.633814186789095402e-03,2.299071550369262695e+00,5.839635152369737625e-03,0.000000000000000000e+00,-7.872339483583346009e-05,1.000000000000000000e+00
2.195794820785522461e+00,6.307590942382812500e+02,5.216946792602539062e+01,5.216946792602539062e+01,2.940123081207275391e-01,-2.520751953125000000e-02,-3.051756903005298227e-05,4.132461326662451029e-04,7.076873316691489890e-06,3.677002387121319771e-03,-1.976486109197139740e-02,-1.649157056817784905e-04,5.210295785218477249e-04,1.633814186789095402e-03,2.299071550369262695e+00,5.839635152369737625e-03,0.000000000000000000e+00,-7.872339483583346009e-05,1.000000000000000000e+00
2.195794820785522461e+00,6.307590942382812500e+02,5.216946792602539062e+01,5.216946792602539062e+01,2.940123081207275391e-01,-2.520751953125000000e-02,-3.051756903005298227e-05,4.132461326662451029e-04,7.076873316691489890e-06,3.677002387121319771e-03,-1.976486109197139740e-02,-1.649157056817784905e-04,5.210295785218477249e-04,1.633814186789095402e-03,2.299071550369262695e+00,5.839635152369737625e-03,0.000000000000000000e+00,-7.872339483583346009e-05,1.000000000000000000e+00
2.195794820785522461e+00,6.307590942382812500e+02,5.216946792602539062e+01,5.216946792602539062e+01,2.940123081207275391e-01,-2.520751953125000000e-02,-3.051756903005298227e-05,4.132461326662451029e-04,7.076873316691489890e-06,3.677002387121319771e-03,-1.976486109197139740e-02,-1.649157056817784905e-04,5.210295785218477249e-04,1.633814186789095402e-03,2.299071550369262695e+00,5.839635152369737625e-03,0.000000000000000000e+00,-7.872339483583346009e-05,1.000000000000000000e+00
2.195794820785522461e+00,6.307590942382812500e+02,5.216946792602539062e+01,5.216946792602539062e+01,2.940123081207275391e-01,-2.520751953125000000e-02,-3.051756903005298227e-05,4.132461326662451029e-04,7.076873316691489890e-06,3.677002387121319771e-03,-1.976486109197139740e-02,-1.649157056817784905e-04,5.210295785218477249e-04,1.633814186789095402e-03,2.299071550369262695e+00,5.839635152369737625e-03,0.000000000000000000e+00,-7.872339483583346009e-05,1.000000000000000000e+00
2.195794820785522461e+00,6.307590942382812500e+02,5.216946792602539062e+01,5.216946792602539062e+01,2.940123081207275391e-01,-2.520751953125000000e-02,-3.051756903005298227e-05,4.132461326662451029e-04,7.076873316691489890e-06,3.677002387121319771e-03,-1.976486109197139740e-02,-1.649157056817784905e-04,5.210295785218477249e-04,1.633814186789095402e-03,2.299071550369262695e+00,5.839635152369737625e-03,0.000000000000000000e+00,-7.872339483583346009e-05,1.000000000000000000e+00
2.195794820785522461e+00,6.307590942382812500e+02,5.216946792602539062e+01,5.216946792602539062e+01,2.940123081207275391e-01,-2.520751953125000000e-02,-3.051756903005298227e-05,4.132461326662451029e-04,7.076873316691489890e-06,3.677002387121319771e-03,-1.976486109197139740e-02,-1.649157056817784905e-04,5.210295785218477249e-04,1.633814186789095402e-03,2.299071550369262695e+00,5.839635152369737625e-03,0.000000000000000000e+00,-7.872339483583346009e-05,1.000000000000000000e+00
2.195794820785522461e+00,6.307590942382812500e+02,5.216946792602539062e+01,5.216946792602539062e+01,2.940123081207275391e-01,-2.520751953125000000e-02,-3.051756903005298227e-05,4.132461326662451029e-04,7.076873316691489890e-06,3.677002387121319771e-03,-1.976486109197139740e-02,-1.649157056817784905e-04,5.210295785218477249e-04,1.633814186789095402e-03,2.299071550369262695e+00,5.839635152369737625e-03,0.000000000000000000e+00,-7.872339483583346009e-05,1.000000000000000000e+00
2.195794820785522461e+00,6.307590942382812500e+02,5.216946792602539062e+01,5.216946792602539062e+01,2.940123081207275391e-01,-2.520751953125000000e-02,-3.051756903005298227e-05,4.132461326662451029e-04,7.076873316691489890e-06,3.677002387121319771e-03,-1.976486109197139740e-02,-1.649157056817784905e-04,5.210295785218477249e-04,1.633814186789095402e-03,2.299071550369262695e+00,5.839635152369737625e-03,0.000000000000000000e+00,-7.872339483583346009e-05,1.000000000000000000e+00
2.195794820785522461e+00,6.307590942382812500e+02,5.216946792602539062e+01,5.216946792602539062e+01,2.940123081207275391e-01,-2.520751953125000000e-02,-3.051756903005298227e-05,4.132461326662451029e-04,7.076873316691489890e-06,3.677002387121319771e-03,-1.976486109197139740e-02,-1.649157056817784905e-04,5.210295785218477249e-04,1.633814186789095402e-03,2.299071550369262695e+00,5.839635152369737625e-03,0.000000000000000000e+00,-7.872339483583346009e-05,1.000000000000000000e+00
2.374083757400512695e+00,6.307584838867187500e+02,5.216947174072265625e+01,5.216947174072265625e+01,1.806994676589965820e-01,-2.468871884047985077e-02,-6.103514533606357872e-05,7.608032319694757462e-04,1.983109314096509479e-06,3.457354614511132240e-03,1.949403551407158375e-03,-2.857027538993861526e-05,-1.231976435519754887e-03,1.572579494677484035e-03,2.000762462615966797e+00,4.639690276235342026e-03,0.000000000000000000e+00,-1.290485233766958117e-04,1.000000000000000000e+00
2.374083757400512695e+00,6.307584838867187500e+02,5.216947174072265625e+01,5.216947174072265625e+01,1.806994676589965820e-01,-2.468871884047985077e-02,-6.103514533606357872e-05,7.608032319694757462e-04,1.983109314096509479e-06,3.457354614511132240e-03,1.949403551407158375e-03,-2.857027538993861526e-05,-1.231976435519754887e-03,1.572579494677484035e-03,2.000762462615966797e+00,4.639690276235342026e-03,0.000000000000000000e+00,-1.290485233766958117e-04,1.000000000000000000e+00
2.374083757400512695e+00,6.307584838867187500e+02,5.216947174072265625e+01,5.216947174072265625e+01,1.806994676589965820e-01,-2.468871884047985077e-02,-6.103514533606357872e-05,7.608032319694757462e-04,1.983109314096509479e-06,3.457354614511132240e-03,1.949403551407158375e-03,-2.857027538993861526e-05,-1.231976435519754887e-03,1.572579494677484035e-03,2.000762462615966797e+00,4.639690276235342026e-03,0.000000000000000000e+00,-1.290485233766958117e-04,1.000000000000000000e+00
2.447860002517700195e+00,6.307576904296875000e+02,5.216947937011718750e+01,5.216947937011718750e+01,2.818135917186737061e-02,-2.349853329360485077e-02,-1.525878469692543149e-04,-1.571719185449182987e-03,-6.687377208436373621e-06,-3.039997827727347612e-04,-3.161617368459701538e-02,-1.175240977318026125e-04,-5.098327249288558960e-02,1.096656545996665955e-03,1.245488286018371582e+00,2.347450936213135719e-03,0.000000000000000000e+00,-1.515992626082152128e-04,1.000000000000000000e+00
2.447860002517700195e+00,6.307576904296875000e+02,5.216947937011718750e+01,5.216947937011718750e+01,2.818135917186737061e-02,-2.349853329360485077e-02,-1.525878469692543149e-04,-1.571719185449182987e-03,-6.687377208436373621e-06,-3.039997827727347612e-04,-3.161617368459701538e-02,-1.175240977318026125e-04,-5.098327249288558960e-02,1.096656545996665955e-03,1.245488286018371582e+00,2.347450936213135719e-03,0.000000000000000000e+00,-1.515992626082152128e-04,1.000000000000000000e+00
2.500878810882568359e+00,6.307572631835937500e+02,5.216947937011718750e+01,5.216947937011718750e+01,-3.986098244786262512e-02,-2.352904900908470154e-02,-1.525878760730847716e-04,-9.519258746877312660e-04,-1.798849353917830740e-07,1.576724927872419357e-03,1.169006433337926865e-02,1.227393222507089376e-04,3.547278419137001038e-02,3.756789665203541517e-04,7.508408427238464355e-01,1.765810739016160369e-04,0.000000000000000000e+00,-2.070244372589513659e-04,1.000000000000000000e+00
2.500878810882568359e+00,6.307572631835937500e+02,5.216947937011718750e+01,5.216947937011718750e+01,-3.986098244786262512e-02,-2.352904900908470154e-02,-1.525878760730847716e-04,-9.519258746877312660e-04,-1.798849353917830740e-07,1.576724927872419357e-03,1.169006433337926865e-02,1.227393222507089376e-04,3.547278419137001038e-02,3.756789665203541517e-04,7.508408427238464355e-01,1.765810739016160369e-04,0.000000000000000000e+00,-2.070244372589513659e-04,1.000000000000000000e+00
2.560195446014404297e+00,6.307572021484375000e+02,5.216947937011718750e+01,5.216947937011718750e+01,-4.998332262039184570e-02,-2.352904900908470154e-02,-1.525878760730847716e-04,-3.742497938219457865e-04,7.597765261380118318e-07,5.391359445638954639e-04,9.738855063915252686e-03,1.584144956723321229e-05,-1.749237813055515289e-02,-3.678239590954035521e-05,2.985584735870361328e-01,3.255758201703429222e-04,0.000000000000000000e+00,-2.060071856249123812e-04,1.000000000000000000e+00
2.560195446014404297e+00,6.307572021484375000e+02,5.216947937011718750e+01,5.216947937011718750e+01,-4.998332262039184570e-02,-2.352904900908470154e-02,-1.525878760730847716e-04,-3.742497938219457865e-04,7.597765261380118318e-07,5.391359445638954639e-04,9.738855063915252686e-03,1.584144956723321229e-05,-1.749237813055515289e-02,-3.678239590954035521e-05,2.985584735870361328e-01,3.255758201703429222e-04,0.000000000000000000e+00,-2.060071856249123812e-04,1.000000000000000000e+00
2.560195446014404297e+00,6.307572021484375000e+02,5.216947937011718750e+01,5.216947937011718750e+01,-4.998332262039184570e-02,-2.352904900908470154e-02,-1.525878760730847716e-04,-3.742497938219457865e-04,7.597765261380118318e-07,5.391359445638954639e-04,9.738855063915252686e-03,1.584144956723321229e-05,-1.749237813055515289e-02,-3.678239590954035521e-05,2.985584735870361328e-01,3.255758201703429222e-04,0.000000000000000000e+00,-2.060071856249123812e-04,1.000000000000000000e+00
2.618730545043945312e+00,6.307570800781250000e+02,5.216947937011718750e+01,5.216947937011718750e+01,-7.079491019248962402e-02,-2.349853329360485077e-02,-1.525878906250000000e-04,-4.575396305881440639e-04,1.358337613055482507e-06,-6.622286164201796055e-04,-1.422904198989272118e-03,1.022567812469787896e-05,-2.052383124828338623e-02,-1.799064484657719731e-04,3.626679778099060059e-01,4.225953016430139542e-04,0.000000000000000000e+00,-2.060179976979270577e-04,1.000000000000000000e+00
2.618730545043945312e+00,6.307570800781250000e+02,5.216947937011718750e+01,5.216947937011718750e+01,-7.079491019248962402e-02,-2.349853329360485077e-02,-1.525878906250000000e-04,-4.575396305881440639e-04,1.358337613055482507e-06,-6.622286164201796055e-04,-1.422904198989272118e-03,1.022567812469787896e-05,-2.052383124828338623e-02,-1.799064484657719731e-04,3.626679778099060059e-01,4.225953016430139542e-04,0.000000000000000000e+00,-2.060179976979270577e-04,1.000000000000000000e+00
2.677334070205688477e+00,6.307569580078125000e+02,5.216947937011718750e+01,5.216947937011718750e+01,-9.121716767549514771e-02,-2.346801757812500000e-02,-1.220703125000000000e-04,-4.231383209116756916e-04,1.832362386267050169e-06,1.589733146829530597e-04,5.870177410542964935e-04,8.088672984740696847e-06,1.401284243911504745e-02,-2.858720254153013229e-04,3.348690569400787354e-01,4.678613622672855854e-04,0.000000000000000000e+00,-2.070351765723899007e-04,1.000000000000000000e+00
2.677334070205688477e+00,6.307569580078125000e+02,5.216947937011718750e+01,5.216947937011718750e+01,-9.121716767549514771e-02,-2.346801757812500000e-02,-1.220703125000000000e-04,-4.231383209116756916e-04,1.832362386267050169e-06,1.589733146829530597e-04,5.870177410542964935e-04,8.088672984740696847e-06,1.401284243911504745e-02,-2.858720254153013229e-04,3.348690569400787354e-01,4.678613622672855854e-04,0.000000000000000000e+00,-2.070351765723899007e-04,1.000000000000000000e+00
2.677334070205688477e+00,6.307569580078125000e+02,5.216947937011718750e+01,5.216947937011718750e+01,-9.121716767549514771e-02,-2.346801757812500000e-02,-1.220703125000000000e-04,-4.231383209116756916e-04,1.832362386267050169e-06,1.589733146829530597e-04,5.870177410542964935e-04,8.088672984740696847e-06,1.401284243911504745e-02,-2.858720254153013229e-04,3.348690569400787354e-01,4.678613622672855854e-04,0.000000000000000000e+00,-2.070351765723899007e-04,1.000000000000000000e+00
2.677334070205688477e+00,6.307568969726562500e+02,5.216947937011718750e+01,5.216947937011718750e+01,-1.089141890406608582e-01,-2.343749813735485077e-02,-9.155273437500000000e-05,-3.551983390934765339e-04,1.883078880382527132e-06,3.438922285567969084e-04,8.744915248826146126e-04,6.527989171445369720e-07,2.380189485847949982e-03,-2.566538460087031126e-04,2.808872759342193604e-01,4.662708670366555452e-04,0.000000000000000000e+00,-2.080632402794435620e-04,1.000000000000000000e+00
2.755024909973144531e+00,6.307568969726562500e+02,5.216947937011718750e+01,5.216947937011718750e+01,-1.089141890406608582e-01,-2.343749813735485077e-02,-9.155273437500000000e-05,-3.551983390934765339e-04,1.883078880382527132e-06,3.438922285567969084e-04,8.744915248826146126e-04,6.527989171445369720e-07,2.380189485847949982e-03,-2.566538460087031126e-04,2.808872759342193604e-01,4.662708670366555452e-04,0.000000000000000000e+00,-2.080632402794435620e-04,1.000000000000000000e+00
2.755024909973144531e+00,6.307568969726562500e+02,5.216947937011718750e+01,5.216947937011718750e+01,-1.089141890406608582e-01,-2.343749813735485077e-02,-9.155273437500000000e-05,-3.551983390934765339e-04,1.883078880382527132e-06,3.438922285567969084e-04,8.744915248826146126e-04,6.527989171445369720e-07,2.380189485847949982e-03,-2.566538460087031126e-04,2.808872759342193604e-01,4.662708670366555452e-04,0.000000000000000000e+00,-2.080632402794435620e-04,1.000000000000000000e+00
2.755024909973144531e+00,6.307568969726562500e+02,5.216947937011718750e+01,5.216947937011718750e+01,-1.089141890406608582e-01,-2.343749813735485077e-02,-9.155273437500000000e-05,-3.551983390934765339e-04,1.883078880382527132e-06,3.438922285567969084e-04,8.744915248826146126e-04,6.527989171445369720e-07,2.380189485847949982e-03,-2.566538460087031126e-04,2.808872759342193604e-01,4.662708670366555452e-04,0.000000000000000000e+00,-2.080632402794435620e-04,1.000000000000000000e+00
2.830169916152954102e+00,6.307567749023437500e+02,5.216947937011718750e+01,5.216947937011718750e+01,-1.273488700389862061e-01,-2.337646670639514923e-02,-6.103515261202119291e-05,-2.637981087900698185e-04,1.892851059892564081e-06,-1.585904683452099562e-04,1.216318109072744846e-03,1.300442988849681569e-07,-6.686840672045946121e-03,-3.413469821680337191e-04,2.082907259464263916e-01,4.280387074686586857e-04,0.000000000000000000e+00,-2.090806083288043737e-04,1.000000000000000000e+00
2.830169916152954102e+00,6.307567749023437500e+02,5.216947937011718750e+01,5.216947937011718750e+01,-1.273488700389862061e-01,-2.337646670639514923e-02,-6.103515261202119291e-05,-2.637981087900698185e-04,1.892851059892564081e-06,-1.585904683452099562e-04,1.216318109072744846e-03,1.300442988849681569e-07,-6.686840672045946121e-03,-3.413469821680337191e-04,2.082907259464263916e-01,4.280387074686586857e-04,0.000000000000000000e+00,-2.090806083288043737e-04,1.000000000000000000e+00
2.830169916152954102e+00,6.307567749023437500e+02,5.216947937011718750e+01,5.216947937011718750e+01,-1.273488700389862061e-01,-2.337646670639514923e-02,-6.103515261202119291e-05,-2.637981087900698185e-04,1.892851059892564081e-06,-1.585904683452099562e-04,1.216318109072744846e-03,1.300442988849681569e-07,-6.686840672045946121e-03,-3.413469821680337191e-04,2.082907259464263916e-01,4.280387074686586857e-04,0.000000000000000000e+00,-2.090806083288043737e-04,1.000000000000000000e+00
2.830169916152954102e+00,6.307567749023437500e+02,5.216947937011718750e+01,5.216947937011718750e+01,-1.273488700389862061e-01,-2.337646670639514923e-02,-6.103515261202119291e-05,-2.637981087900698185e-04,1.892851059892564081e-06,-1.585904683452099562e-04,1.216318109072744846e-03,1.300442988849681569e-07,-6.686840672045946121e-03,-3.413469821680337191e-04,2.082907259464263916e-01,4.280387074686586857e-04,0.000000000000000000e+00,-2.090806083288043737e-04,1.000000000000000000e+00
2.830169916152954102e+00,6.307567749023437500e+02,5.216947937011718750e+01,5.216947937011718750e+01,-1.273488700389862061e-01,-2.337646670639514923e-02,-6.103515261202119291e-05,-2.637981087900698185e-04,1.892851059892564081e-06,-1.585904683452099562e-04,1.216318109072744846e-03,1.300442988849681569e-07,-6.686840672045946121e-03,-3.413469821680337191e-04,2.082907259464263916e-01,4.280387074686586857e-04,0.000000000000000000e+00,-2.090806083288043737e-04,1.000000000000000000e+00
2.917726278305053711e+00,6.307567138671875000e+02,5.216947937011718750e+01,5.216947937011718750e+01,-1.402579247951507568e-01,-2.334594354033470154e-02,-3.051757812500000000e-05,-1.894338056445121765e-04,1.898481855278078001e-06,5.701543414033949375e-04,8.493306231684982777e-04,6.431051957633826532e-08,8.323149755597114563e-03,-3.619180642999708652e-04,1.496346890926361084e-01,3.328516031615436077e-04,0.000000000000000000e+00,-2.111257927026599646e-04,1.000000000000000000e+00
