# Time,X,Y,Z,Roll,Pitch,Yaw,Vx,Vy,Vz,Ax,Ay,Az,Wx,Wy,Wz,Throttle,Steer,Brake
0.000000000000000000e+00,6.619573364257812500e+02,2.123829650878906250e+02,2.123829650878906250e+02,-4.974426329135894775e-02,-6.865447235107421875e+01,1.268978863954544067e-01,2.968423366546630859e+00,-8.529060363769531250e+00,1.973826783796539530e-06,-8.369877934455871582e-01,-1.271589159965515137e+00,-5.023644553148187697e-05,-5.746095627546310425e-02,-1.009062454104423523e-01,-1.331744956970214844e+01,5.000000000000000000e-01,-6.420189887285232544e-02,0.000000000000000000e+00
1.045818328857421875e-01,6.619573364257812500e+02,2.123829650878906250e+02,2.123829650878906250e+02,-4.974426329135894775e-02,-6.865447235107421875e+01,1.268978863954544067e-01,2.968423366546630859e+00,-8.529060363769531250e+00,1.973826783796539530e-06,-8.369877934455871582e-01,-1.271589159965515137e+00,-5.023644553148187697e-05,-5.746095627546310425e-02,-1.009062454104423523e-01,-1.331744956970214844e+01,5.000000000000000000e-01,-6.420189887285232544e-02,0.000000000000000000e+00
1.045818328857421875e-01,6.619573364257812500e+02,2.123829650878906250e+02,2.123829650878906250e+02,-4.974426329135894775e-02,-6.865447235107421875e+01,1.268978863954544067e-01,2.968423366546630859e+00,-8.529060363769531250e+00,1.973826783796539530e-06,-8.369877934455871582e-01,-1.271589159965515137e+00,-5.023644553148187697e-05,-5.746095627546310425e-02,-1.009062454104423523e-01,-1.331744956970214844e+01,5.000000000000000000e-01,-6.420189887285232544e-02,0.000000000000000000e+00
1.045818328857421875e-01,6.619573364257812500e+02,2.123829650878906250e+02,2.123829650878906250e+02,-4.974426329135894775e-02,-6.865447235107421875e+01,1.268978863954544067e-01,2.968423366546630859e+00,-8.529060363769531250e+00,1.973826783796539530e-06,-8.369877934455871582e-01,-1.271589159965515137e+00,-5.023644553148187697e-05,-5.746095627546310425e-02,-1.009062454104423523e-01,-1.331744956970214844e+01,5.000000000000000000e-01,-6.420189887285232544e-02,0.000000000000000000e+00
1.045818328857421875e-01,6.619573364257812500e+02,2.123829650878906250e+02,2.123829650878906250e+02,-4.974426329135894775e-02,-6.865447235107421875e+01,1.268978863954544067e-01,2.968423366546630859e+00,-8.529060363769531250e+00,1.973826783796539530e-06,-8.369877934455871582e-01,-1.271589159965515137e+00,-5.023644553148187697e-05,-5.746095627546310425e-02,-1.009062454104423523e-01,-1.331744956970214844e+01,5.000000000000000000e-01,-6.420189887285232544e-02,0.000000000000000000e+00
1.045818328857421875e-01,6.619573364257812500e+02,2.123829650878906250e+02,2.123829650878906250e+02,-4.974426329135894775e-02,-6.865447235107421875e+01,1.268978863954544067e-01,2.968423366546630859e+00,-8.529060363769531250e+00,1.973826783796539530e-06,-8.369877934455871582e-01,-1.271589159965515137e+00,-5.023644553148187697e-05,-5.746095627546310425e-02,-1.009062454104423523e-01,-1.331744956970214844e+01,5.000000000000000000e-01,-6.420189887285232544e-02,0.000000000000000000e+00
1.045818328857421875e-01,6.622603149414062500e+02,2.115343322753906250e+02,2.115343322753906250e+02,-6.421060115098953247e-02,-6.982668304443359375e+01,1.038840264081954956e-01,2.849809885025024414e+00,-8.522580146789550781e+00,-7.628123199765468598e-08,-1.132792592048645020e+00,6.188791990280151367e-02,-1.957911626959685236e-05,3.092863261699676514e-01,-2.931058406829833984e-02,-1.098079490661621094e+01,5.000000000000000000e-01,-5.087683722376823425e-02,0.000000000000000000e+00
2.092907428741455078e-01,6.622603149414062500e+02,2.115343322753906250e+02,2.115343322753906250e+02,-6.421060115098953247e-02,-6.982668304443359375e+01,1.038840264081954956e-01,2.849809885025024414e+00,-8.522580146789550781e+00,-7.628123199765468598e-08,-1.132792592048645020e+00,6.188791990280151367e-02,-1.957911626959685236e-05,3.092863261699676514e-01,-2.931058406829833984e-02,-1.098079490661621094e+01,5.000000000000000000e-01,-5.087683722376823425e-02,0.000000000000000000e+00
2.092907428741455078e-01,6.622603149414062500e+02,2.115343322753906250e+02,2.115343322753906250e+02,-6.421060115098953247e-02,-6.982668304443359375e+01,1.038840264081954956e-01,2.849809885025024414e+00,-8.522580146789550781e+00,-7.628123199765468598e-08,-1.132792592048645020e+00,6.188791990280151367e-02,-1.957911626959685236e-05,3.092863261699676514e-01,-2.931058406829833984e-02,-1.098079490661621094e+01,5.000000000000000000e-01,-5.087683722376823425e-02,0.000000000000000000e+00
2.092907428741455078e-01,6.622603149414062500e+02,2.115343322753906250e+02,2.115343322753906250e+02,-6.421060115098953247e-02,-6.982668304443359375e+01,1.038840264081954956e-01,2.849809885025024414e+00,-8.522580146789550781e+00,-7.628123199765468598e-08,-1.132792592048645020e+00,6.188791990280151367e-02,-1.957911626959685236e-05,3.092863261699676514e-01,-2.931058406829833984e-02,-1.098079490661621094e+01,5.000000000000000000e-01,-5.087683722376823425e-02,0.000000000000000000e+00
2.092907428741455078e-01,6.622603149414062500e+02,2.115343322753906250e+02,2.115343322753906250e+02,-6.421060115098953247e-02,-6.982668304443359375e+01,1.038840264081954956e-01,2.849809885025024414e+00,-8.522580146789550781e+00,-7.628123199765468598e-08,-1.132792592048645020e+00,6.188791990280151367e-02,-1.957911626959685236e-05,3.092863261699676514e-01,-2.931058406829833984e-02,-1.098079490661621094e+01,5.000000000000000000e-01,-5.087683722376823425e-02,0.000000000000000000e+00
2.092907428741455078e-01,6.625376586914062500e+02,2.106877441406250000e+02,2.106877441406250000e+02,-1.016263812780380249e-01,-7.109954833984375000e+01,1.335962116718292236e-01,2.525487661361694336e+00,-8.491851806640625000e+00,-7.475560323655372486e-06,-4.346400260925292969e+00,4.118054807186126709e-01,-9.916135604726150632e-05,3.125750422477722168e-01,3.317725956439971924e-01,-1.351000118255615234e+01,5.000000000000000000e-01,-7.405417412519454956e-02,0.000000000000000000e+00
2.839093208312988281e-01,6.625376586914062500e+02,2.106877441406250000e+02,2.106877441406250000e+02,-1.016263812780380249e-01,-7.109954833984375000e+01,1.335962116718292236e-01,2.525487661361694336e+00,-8.491851806640625000e+00,-7.475560323655372486e-06,-4.346400260925292969e+00,4.118054807186126709e-01,-9.916135604726150632e-05,3.125750422477722168e-01,3.317725956439971924e-01,-1.351000118255615234e+01,5.000000000000000000e-01,-7.405417412519454956e-02,0.000000000000000000e+00
2.839093208312988281e-01,6.625376586914062500e+02,2.106877441406250000e+02,2.106877441406250000e+02,-1.016263812780380249e-01,-7.109954833984375000e+01,1.335962116718292236e-01,2.525487661361694336e+00,-8.491851806640625000e+00,-7.475560323655372486e-06,-4.346400260925292969e+00,4.118054807186126709e-01,-9.916135604726150632e-05,3.125750422477722168e-01,3.317725956439971924e-01,-1.351000118255615234e+01,5.000000000000000000e-01,-7.405417412519454956e-02,0.000000000000000000e+00
2.839093208312988281e-01,6.625376586914062500e+02,2.106877441406250000e+02,2.106877441406250000e+02,-1.016263812780380249e-01,-7.109954833984375000e+01,1.335962116718292236e-01,2.525487661361694336e+00,-8.491851806640625000e+00,-7.475560323655372486e-06,-4.346400260925292969e+00,4.118054807186126709e-01,-9.916135604726150632e-05,3.125750422477722168e-01,3.317725956439971924e-01,-1.351000118255615234e+01,5.000000000000000000e-01,-7.405417412519454956e-02,0.000000000000000000e+00
2.839093208312988281e-01,6.625376586914062500e+02,2.106877441406250000e+02,2.106877441406250000e+02,-1.016263812780380249e-01,-7.109954833984375000e+01,1.335962116718292236e-01,2.525487661361694336e+00,-8.491851806640625000e+00,-7.475560323655372486e-06,-4.346400260925292969e+00,4.118054807186126709e-01,-9.916135604726150632e-05,3.125750422477722168e-01,3.317725956439971924e-01,-1.351000118255615234e+01,5.000000000000000000e-01,-7.405417412519454956e-02,0.000000000000000000e+00
3.569011688232421875e-01,6.627298583984375000e+02,2.100608215332031250e+02,2.100608215332031250e+02,-1.300331354141235352e-01,-7.206591033935546875e+01,1.278413087129592896e-01,2.385407924652099609e+00,-8.419623374938964844e+00,-5.454202437249477953e-06,-1.919114828109741211e+00,9.895410537719726562e-01,2.769292586890514940e-05,3.801201283931732178e-01,1.720018871128559113e-02,-1.266663169860839844e+01,5.000000000000000000e-01,-6.300811469554901123e-02,0.000000000000000000e+00
3.569011688232421875e-01,6.627298583984375000e+02,2.100608215332031250e+02,2.100608215332031250e+02,-1.300331354141235352e-01,-7.206591033935546875e+01,1.278413087129592896e-01,2.385407924652099609e+00,-8.419623374938964844e+00,-5.454202437249477953e-06,-1.919114828109741211e+00,9.895410537719726562e-01,2.769292586890514940e-05,3.801201283931732178e-01,1.720018871128559113e-02,-1.266663169860839844e+01,5.000000000000000000e-01,-6.300811469554901123e-02,0.000000000000000000e+00
3.569011688232421875e-01,6.627298583984375000e+02,2.100608215332031250e+02,2.100608215332031250e+02,-1.300331354141235352e-01,-7.206591033935546875e+01,1.278413087129592896e-01,2.385407924652099609e+00,-8.419623374938964844e+00,-5.454202437249477953e-06,-1.919114828109741211e+00,9.895410537719726562e-01,2.769292586890514940e-05,3.801201283931732178e-01,1.720018871128559113e-02,-1.266663169860839844e+01,5.000000000000000000e-01,-6.300811469554901123e-02,0.000000000000000000e+00
3.569011688232421875e-01,6.627298583984375000e+02,2.100608215332031250e+02,2.100608215332031250e+02,-1.300331354141235352e-01,-7.206591033935546875e+01,1.278413087129592896e-01,2.385407924652099609e+00,-8.419623374938964844e+00,-5.454202437249477953e-06,-1.919114828109741211e+00,9.895410537719726562e-01,2.769292586890514940e-05,3.801201283931732178e-01,1.720018871128559113e-02,-1.266663169860839844e+01,5.000000000000000000e-01,-6.300811469554901123e-02,0.000000000000000000e+00
4.765405654907226562e-01,6.629082641601562500e+02,2.094528503417968750e+02,2.094528503417968750e+02,-1.539046466350555420e-01,-7.291004180908203125e+01,1.105184108018875122e-01,2.278790235519409180e+00,-8.336673736572265625e+00,-1.334949160991527606e-06,-8.911586999893188477e-01,6.933304667472839355e-01,3.443057721597142518e-05,3.460333645343780518e-01,-1.021714061498641968e-01,-1.102788066864013672e+01,5.000000000000000000e-01,-5.257295817136764526e-02,0.000000000000000000e+00
4.765405654907226562e-01,6.629082641601562500e+02,2.094528503417968750e+02,2.094528503417968750e+02,-1.539046466350555420e-01,-7.291004180908203125e+01,1.105184108018875122e-01,2.278790235519409180e+00,-8.336673736572265625e+00,-1.334949160991527606e-06,-8.911586999893188477e-01,6.933304667472839355e-01,3.443057721597142518e-05,3.460333645343780518e-01,-1.021714061498641968e-01,-1.102788066864013672e+01,5.000000000000000000e-01,-5.257295817136764526e-02,0.000000000000000000e+00
4.765405654907226562e-01,6.629082641601562500e+02,2.094528503417968750e+02,2.094528503417968750e+02,-1.539046466350555420e-01,-7.291004180908203125e+01,1.105184108018875122e-01,2.278790235519409180e+00,-8.336673736572265625e+00,-1.334949160991527606e-06,-8.911586999893188477e-01,6.933304667472839355e-01,3.443057721597142518e-05,3.460333645343780518e-01,-1.021714061498641968e-01,-1.102788066864013672e+01,5.000000000000000000e-01,-5.257295817136764526e-02,0.000000000000000000e+00
4.765405654907226562e-01,6.629082641601562500e+02,2.094528503417968750e+02,2.094528503417968750e+02,-1.539046466350555420e-01,-7.291004180908203125e+01,1.105184108018875122e-01,2.278790235519409180e+00,-8.336673736572265625e+00,-1.334949160991527606e-06,-8.911586999893188477e-01,6.933304667472839355e-01,3.443057721597142518e-05,3.460333645343780518e-01,-1.021714061498641968e-01,-1.102788066864013672e+01,5.000000000000000000e-01,-5.257295817136764526e-02,0.000000000000000000e+00
4.765405654907226562e-01,6.629082641601562500e+02,2.094528503417968750e+02,2.094528503417968750e+02,-1.539046466350555420e-01,-7.291004180908203125e+01,1.105184108018875122e-01,2.278790235519409180e+00,-8.336673736572265625e+00,-1.334949160991527606e-06,-8.911586999893188477e-01,6.933304667472839355e-01,3.443057721597142518e-05,3.460333645343780518e-01,-1.021714061498641968e-01,-1.102788066864013672e+01,5.000000000000000000e-01,-5.257295817136764526e-02,0.000000000000000000e+00
4.765405654907226562e-01,6.629082641601562500e+02,2.094528503417968750e+02,2.094528503417968750e+02,-1.539046466350555420e-01,-7.291004180908203125e+01,1.105184108018875122e-01,2.278790235519409180e+00,-8.336673736572265625e+00,-1.334949160991527606e-06,-8.911586999893188477e-01,6.933304667472839355e-01,3.443057721597142518e-05,3.460333645343780518e-01,-1.021714061498641968e-01,-1.102788066864013672e+01,5.000000000000000000e-01,-5.257295817136764526e-02,0.000000000000000000e+00
4.765405654907226562e-01,6.629082641601562500e+02,2.094528503417968750e+02,2.094528503417968750e+02,-1.539046466350555420e-01,-7.291004180908203125e+01,1.105184108018875122e-01,2.278790235519409180e+00,-8.336673736572265625e+00,-1.334949160991527606e-06,-8.911586999893188477e-01,6.933304667472839355e-01,3.443057721597142518e-05,3.460333645343780518e-01,-1.021714061498641968e-01,-1.102788066864013672e+01,5.000000000000000000e-01,-5.257295817136764526e-02,0.000000000000000000e+00
6.200885772705078125e-01,6.631282958984375000e+02,2.086270141601562500e+02,2.086270141601562500e+02,-1.798388659954071045e-01,-7.419627380371093750e+01,1.372323334217071533e-01,1.949596166610717773e+00,-8.264277458190917969e+00,-8.467216503049712628e-06,-2.293268203735351562e+00,5.043349266052246094e-01,-4.968559005646966398e-05,1.578255146741867065e-01,2.360032498836517334e-01,-1.366914367675781250e+01,5.000000000000000000e-01,-7.777230441570281982e-02,0.000000000000000000e+00
6.200885772705078125e-01,6.631282958984375000e+02,2.086270141601562500e+02,2.086270141601562500e+02,-1.798388659954071045e-01,-7.419627380371093750e+01,1.372323334217071533e-01,1.949596166610717773e+00,-8.264277458190917969e+00,-8.467216503049712628e-06,-2.293268203735351562e+00,5.043349266052246094e-01,-4.968559005646966398e-05,1.578255146741867065e-01,2.360032498836517334e-01,-1.366914367675781250e+01,5.000000000000000000e-01,-7.777230441570281982e-02,0.000000000000000000e+00
6.200885772705078125e-01,6.631282958984375000e+02,2.086270141601562500e+02,2.086270141601562500e+02,-1.798388659954071045e-01,-7.419627380371093750e+01,1.372323334217071533e-01,1.949596166610717773e+00,-8.264277458190917969e+00,-8.467216503049712628e-06,-2.293268203735351562e+00,5.043349266052246094e-01,-4.968559005646966398e-05,1.578255146741867065e-01,2.360032498836517334e-01,-1.366914367675781250e+01,5.000000000000000000e-01,-7.777230441570281982e-02,0.000000000000000000e+00
6.200885772705078125e-01,6.631282958984375000e+02,2.086270141601562500e+02,2.086270141601562500e+02,-1.798388659954071045e-01,-7.419627380371093750e+01,1.372323334217071533e-01,1.949596166610717773e+00,-8.264277458190917969e+00,-8.467216503049712628e-06,-2.293268203735351562e+00,5.043349266052246094e-01,-4.968559005646966398e-05,1.578255146741867065e-01,2.360032498836517334e-01,-1.366914367675781250e+01,5.000000000000000000e-01,-7.777230441570281982e-02,0.000000000000000000e+00
6.200885772705078125e-01,6.631282958984375000e+02,2.086270141601562500e+02,2.086270141601562500e+02,-1.798388659954071045e-01,-7.419627380371093750e+01,1.372323334217071533e-01,1.949596166610717773e+00,-8.264277458190917969e+00,-8.467216503049712628e-06,-2.293268203735351562e+00,5.043349266052246094e-01,-4.968559005646966398e-05,1.578255146741867065e-01,2.360032498836517334e-01,-1.366914367675781250e+01,5.000000000000000000e-01,-7.777230441570281982e-02,0.000000000000000000e+00
6.200885772705078125e-01,6.631282958984375000e+02,2.086270141601562500e+02,2.086270141601562500e+02,-1.798388659954071045e-01,-7.419627380371093750e+01,1.372323334217071533e-01,1.949596166610717773e+00,-8.264277458190917969e+00,-8.467216503049712628e-06,-2.293268203735351562e+00,5.043349266052246094e-01,-4.968559005646966398e-05,1.578255146741867065e-01,2.360032498836517334e-01,-1.366914367675781250e+01,5.000000000000000000e-01,-7.777230441570281982e-02,0.000000000000000000e+00
7.946169376373291016e-01,6.633267211914062500e+02,2.078103637695312500e+02,2.078103637695312500e+02,-1.953434050083160400e-01,-7.548935699462890625e+01,1.253239661455154419e-01,1.771705031394958496e+00,-8.162819862365722656e+00,-2.936827286248444580e-06,-1.019267797470092773e+00,5.813243985176086426e-01,3.168762486893683672e-05,1.409385204315185547e-01,-7.456529885530471802e-02,-1.257367134094238281e+01,5.000000000000000000e-01,-6.588407605886459351e-02,0.000000000000000000e+00
7.946169376373291016e-01,6.633267211914062500e+02,2.078103637695312500e+02,2.078103637695312500e+02,-1.953434050083160400e-01,-7.548935699462890625e+01,1.253239661455154419e-01,1.771705031394958496e+00,-8.162819862365722656e+00,-2.936827286248444580e-06,-1.019267797470092773e+00,5.813243985176086426e-01,3.168762486893683672e-05,1.409385204315185547e-01,-7.456529885530471802e-02,-1.257367134094238281e+01,5.000000000000000000e-01,-6.588407605886459351e-02,0.000000000000000000e+00
7.946169376373291016e-01,6.633267211914062500e+02,2.078103637695312500e+02,2.078103637695312500e+02,-1.953434050083160400e-01,-7.548935699462890625e+01,1.253239661455154419e-01,1.771705031394958496e+00,-8.162819862365722656e+00,-2.936827286248444580e-06,-1.019267797470092773e+00,5.813243985176086426e-01,3.168762486893683672e-05,1.409385204315185547e-01,-7.456529885530471802e-02,-1.257367134094238281e+01,5.000000000000000000e-01,-6.588407605886459351e-02,0.000000000000000000e+00
8.783230781555175781e-01,6.635095214843750000e+02,2.070033721923828125e+02,2.070033721923828125e+02,-2.024536281824111938e-01,-7.657615661621093750e+01,9.604452550411224365e-02,1.658666849136352539e+00,-8.057185173034667969e+00,2.707983639993472025e-06,-1.350416898727416992e+00,1.261970639228820801e+00,6.743604171788319945e-05,8.914782106876373291e-02,-1.774025410413742065e-01,-1.010899829864501953e+01,5.000000000000000000e-01,-5.091432854533195496e-02,0.000000000000000000e+00
8.783230781555175781e-01,6.635095214843750000e+02,2.070033721923828125e+02,2.070033721923828125e+02,-2.024536281824111938e-01,-7.657615661621093750e+01,9.604452550411224365e-02,1.658666849136352539e+00,-8.057185173034667969e+00,2.707983639993472025e-06,-1.350416898727416992e+00,1.261970639228820801e+00,6.743604171788319945e-05,8.914782106876373291e-02,-1.774025410413742065e-01,-1.010899829864501953e+01,5.000000000000000000e-01,-5.091432854533195496e-02,0.000000000000000000e+00
8.783230781555175781e-01,6.635095214843750000e+02,2.070033721923828125e+02,2.070033721923828125e+02,-2.024536281824111938e-01,-7.657615661621093750e+01,9.604452550411224365e-02,1.658666849136352539e+00,-8.057185173034667969e+00,2.707983639993472025e-06,-1.350416898727416992e+00,1.261970639228820801e+00,6.743604171788319945e-05,8.914782106876373291e-02,-1.774025410413742065e-01,-1.010899829864501953e+01,5.000000000000000000e-01,-5.091432854533195496e-02,0.000000000000000000e+00
9.483780860900878906e-01,6.636456298828125000e+02,2.063316192626953125e+02,2.063316192626953125e+02,-2.001313567161560059e-01,-7.755348205566406250e+01,1.172292008996009827e-01,1.420726776123046875e+00,-8.077010154724121094e+00,1.601949293217330705e-06,-3.396474838256835938e+00,-2.829916477203369141e-01,-1.578808405611198395e-05,-1.923599690198898315e-01,1.940320879220962524e-01,-1.247860622406005859e+01,1.000000000000000000e+00,-7.402932643890380859e-02,0.000000000000000000e+00
9.483780860900878906e-01,6.636456298828125000e+02,2.063316192626953125e+02,2.063316192626953125e+02,-2.001313567161560059e-01,-7.755348205566406250e+01,1.172292008996009827e-01,1.420726776123046875e+00,-8.077010154724121094e+00,1.601949293217330705e-06,-3.396474838256835938e+00,-2.829916477203369141e-01,-1.578808405611198395e-05,-1.923599690198898315e-01,1.940320879220962524e-01,-1.247860622406005859e+01,1.000000000000000000e+00,-7.402932643890380859e-02,0.000000000000000000e+00
9.483780860900878906e-01,6.636456298828125000e+02,2.063316192626953125e+02,2.063316192626953125e+02,-2.001313567161560059e-01,-7.755348205566406250e+01,1.172292008996009827e-01,1.420726776123046875e+00,-8.077010154724121094e+00,1.601949293217330705e-06,-3.396474838256835938e+00,-2.829916477203369141e-01,-1.578808405611198395e-05,-1.923599690198898315e-01,1.940320879220962524e-01,-1.247860622406005859e+01,1.000000000000000000e+00,-7.402932643890380859e-02,0.000000000000000000e+00
9.483780860900878906e-01,6.636456298828125000e+02,2.063316192626953125e+02,2.063316192626953125e+02,-2.001313567161560059e-01,-7.755348205566406250e+01,1.172292008996009827e-01,1.420726776123046875e+00,-8.077010154724121094e+00,1.601949293217330705e-06,-3.396474838256835938e+00,-2.829916477203369141e-01,-1.578808405611198395e-05,-1.923599690198898315e-01,1.940320879220962524e-01,-1.247860622406005859e+01,1.000000000000000000e+00,-7.402932643890380859e-02,0.000000000000000000e+00
9.483780860900878906e-01,6.637512207031250000e+02,2.057597351074218750e+02,2.057597351074218750e+02,-1.729745268821716309e-01,-7.842375183105468750e+01,1.175725385546684265e-01,1.348625183105468750e+00,-8.281188964843750000e+00,5.988235443510347977e-06,-9.150063395500183105e-01,-2.591134071350097656e+00,5.566422623815014958e-05,-5.207048058509826660e-01,-1.364828199148178101e-01,-1.244120788574218750e+01,1.000000000000000000e+00,-6.573420763015747070e-02,0.000000000000000000e+00
1.027177095413208008e+00,6.637512207031250000e+02,2.057597351074218750e+02,2.057597351074218750e+02,-1.729745268821716309e-01,-7.842375183105468750e+01,1.175725385546684265e-01,1.348625183105468750e+00,-8.281188964843750000e+00,5.988235443510347977e-06,-9.150063395500183105e-01,-2.591134071350097656e+00,5.566422623815014958e-05,-5.207048058509826660e-01,-1.364828199148178101e-01,-1.244120788574218750e+01,1.000000000000000000e+00,-6.573420763015747070e-02,0.000000000000000000e+00
1.027177095413208008e+00,6.637512207031250000e+02,2.057597351074218750e+02,2.057597351074218750e+02,-1.729745268821716309e-01,-7.842375183105468750e+01,1.175725385546684265e-01,1.348625183105468750e+00,-8.281188964843750000e+00,5.988235443510347977e-06,-9.150063395500183105e-01,-2.591134071350097656e+00,5.566422623815014958e-05,-5.207048058509826660e-01,-1.364828199148178101e-01,-1.244120788574218750e+01,1.000000000000000000e+00,-6.573420763015747070e-02,0.000000000000000000e+00
1.095043420791625977e+00,6.638657836914062500e+02,2.050951385498046875e+02,2.050951385498046875e+02,-1.209967955946922302e-01,-7.934923553466796875e+01,1.044916957616806030e-01,1.304711699485778809e+00,-8.556300163269042969e+00,1.497986249887617305e-05,-6.470584869384765625e-01,-4.053721904754638672e+00,1.324902550550177693e-04,-6.086900234222412109e-01,-2.454937696456909180e-01,-1.145516109466552734e+01,5.000000000000000000e-01,-5.615626648068428040e-02,0.000000000000000000e+00
1.095043420791625977e+00,6.638657836914062500e+02,2.050951385498046875e+02,2.050951385498046875e+02,-1.209967955946922302e-01,-7.934923553466796875e+01,1.044916957616806030e-01,1.304711699485778809e+00,-8.556300163269042969e+00,1.497986249887617305e-05,-6.470584869384765625e-01,-4.053721904754638672e+00,1.324902550550177693e-04,-6.086900234222412109e-01,-2.454937696456909180e-01,-1.145516109466552734e+01,5.000000000000000000e-01,-5.615626648068428040e-02,0.000000000000000000e+00
1.095043420791625977e+00,6.638657836914062500e+02,2.050951385498046875e+02,2.050951385498046875e+02,-1.209967955946922302e-01,-7.934923553466796875e+01,1.044916957616806030e-01,1.304711699485778809e+00,-8.556300163269042969e+00,1.497986249887617305e-05,-6.470584869384765625e-01,-4.053721904754638672e+00,1.324902550550177693e-04,-6.086900234222412109e-01,-2.454937696456909180e-01,-1.145516109466552734e+01,5.000000000000000000e-01,-5.615626648068428040e-02,0.000000000000000000e+00
1.095043420791625977e+00,6.638657836914062500e+02,2.050951385498046875e+02,2.050951385498046875e+02,-1.209967955946922302e-01,-7.934923553466796875e+01,1.044916957616806030e-01,1.304711699485778809e+00,-8.556300163269042969e+00,1.497986249887617305e-05,-6.470584869384765625e-01,-4.053721904754638672e+00,1.324902550550177693e-04,-6.086900234222412109e-01,-2.454937696456909180e-01,-1.145516109466552734e+01,5.000000000000000000e-01,-5.615626648068428040e-02,0.000000000000000000e+00
1.168572425842285156e+00,6.639548950195312500e+02,2.045100555419921875e+02,2.045100555419921875e+02,-9.039071947336196899e-02,-8.023065185546875000e+01,1.249839067459106445e-01,1.107958555221557617e+00,-8.683141708374023438e+00,5.511489234777400270e-06,-2.675857543945312500e+00,-1.725054502487182617e+00,-1.287705817958340049e-04,-3.742760419845581055e-01,2.557059526443481445e-01,-1.374818325042724609e+01,5.000000000000000000e-01,-7.863856852054595947e-02,0.000000000000000000e+00
1.168572425842285156e+00,6.639548950195312500e+02,2.045100555419921875e+02,2.045100555419921875e+02,-9.039071947336196899e-02,-8.023065185546875000e+01,1.249839067459106445e-01,1.107958555221557617e+00,-8.683141708374023438e+00,5.511489234777400270e-06,-2.675857543945312500e+00,-1.725054502487182617e+00,-1.287705817958340049e-04,-3.742760419845581055e-01,2.557059526443481445e-01,-1.374818325042724609e+01,5.000000000000000000e-01,-7.863856852054595947e-02,0.000000000000000000e+00
1.168572425842285156e+00,6.639548950195312500e+02,2.045100555419921875e+02,2.045100555419921875e+02,-9.039071947336196899e-02,-8.023065185546875000e+01,1.249839067459106445e-01,1.107958555221557617e+00,-8.683141708374023438e+00,5.511489234777400270e-06,-2.675857543945312500e+00,-1.725054502487182617e+00,-1.287705817958340049e-04,-3.742760419845581055e-01,2.557059526443481445e-01,-1.374818325042724609e+01,5.000000000000000000e-01,-7.863856852054595947e-02,0.000000000000000000e+00
1.168572425842285156e+00,6.639548950195312500e+02,2.045100555419921875e+02,2.045100555419921875e+02,-9.039071947336196899e-02,-8.023065185546875000e+01,1.249839067459106445e-01,1.107958555221557617e+00,-8.683141708374023438e+00,5.511489234777400270e-06,-2.675857543945312500e+00,-1.725054502487182617e+00,-1.287705817958340049e-04,-3.742760419845581055e-01,2.557059526443481445e-01,-1.374818325042724609e+01,5.000000000000000000e-01,-7.863856852054595947e-02,0.000000000000000000e+00
1.168572425842285156e+00,6.640411376953125000e+02,2.038715362548828125e+02,2.038715362548828125e+02,-8.093090355396270752e-02,-8.124422454833984375e+01,1.302248239517211914e-01,9.725704193115234375e-01,-8.710983276367187500e+00,1.115634859161218628e-06,-1.804009795188903809e+00,-3.709812760353088379e-01,-5.857355426996946335e-05,-4.157416988164186478e-03,1.251378282904624939e-02,-1.378737258911132812e+01,5.000000000000000000e-01,-7.087075710296630859e-02,0.000000000000000000e+00
1.243620872497558594e+00,6.640411376953125000e+02,2.038715362548828125e+02,2.038715362548828125e+02,-8.093090355396270752e-02,-8.124422454833984375e+01,1.302248239517211914e-01,9.725704193115234375e-01,-8.710983276367187500e+00,1.115634859161218628e-06,-1.804009795188903809e+00,-3.709812760353088379e-01,-5.857355426996946335e-05,-4.157416988164186478e-03,1.251378282904624939e-02,-1.378737258911132812e+01,5.000000000000000000e-01,-7.087075710296630859e-02,0.000000000000000000e+00
1.243620872497558594e+00,6.640411376953125000e+02,2.038715362548828125e+02,2.038715362548828125e+02,-8.093090355396270752e-02,-8.124422454833984375e+01,1.302248239517211914e-01,9.725704193115234375e-01,-8.710983276367187500e+00,1.115634859161218628e-06,-1.804009795188903809e+00,-3.709812760353088379e-01,-5.857355426996946335e-05,-4.157416988164186478e-03,1.251378282904624939e-02,-1.378737258911132812e+01,5.000000000000000000e-01,-7.087075710296630859e-02,0.000000000000000000e+00
1.243620872497558594e+00,6.640411376953125000e+02,2.038715362548828125e+02,2.038715362548828125e+02,-8.093090355396270752e-02,-8.124422454833984375e+01,1.302248239517211914e-01,9.725704193115234375e-01,-8.710983276367187500e+00,1.115634859161218628e-06,-1.804009795188903809e+00,-3.709812760353088379e-01,-5.857355426996946335e-05,-4.157416988164186478e-03,1.251378282904624939e-02,-1.378737258911132812e+01,5.000000000000000000e-01,-7.087075710296630859e-02,0.000000000000000000e+00
1.312042951583862305e+00,6.641202392578125000e+02,2.032209472656250000e+02,2.032209472656250000e+02,-9.115570038557052612e-02,-8.220689392089843750e+01,1.171660348773002625e-01,8.725526928901672363e-01,-8.670035362243652344e+00,7.056130471028154716e-07,-1.461775660514831543e+00,5.984605550765991211e-01,-5.992536898702383041e-06,2.294660061597824097e-01,-1.176603138446807861e-01,-1.236200428009033203e+01,5.000000000000000000e-01,-5.975690484046936035e-02,0.000000000000000000e+00
1.312042951583862305e+00,6.641202392578125000e+02,2.032209472656250000e+02,2.032209472656250000e+02,-9.115570038557052612e-02,-8.220689392089843750e+01,1.171660348773002625e-01,8.725526928901672363e-01,-8.670035362243652344e+00,7.056130471028154716e-07,-1.461775660514831543e+00,5.984605550765991211e-01,-5.992536898702383041e-06,2.294660061597824097e-01,-1.176603138446807861e-01,-1.236200428009033203e+01,5.000000000000000000e-01,-5.975690484046936035e-02,0.000000000000000000e+00
1.383129358291625977e+00,6.641856689453125000e+02,2.026316375732421875e+02,2.026316375732421875e+02,-1.090712845325469971e-01,-8.296794128417968750e+01,9.901983290910720825e-02,8.043845295906066895e-01,-8.602128982543945312e+00,-1.287284021600498818e-06,-9.589478969573974609e-01,9.552652835845947266e-01,-2.803485404001548886e-05,3.133857846260070801e-01,-1.856944710016250610e-01,-1.051256179809570312e+01,5.000000000000000000e-01,-4.851499199867248535e-02,0.000000000000000000e+00
1.383129358291625977e+00,6.641856689453125000e+02,2.026316375732421875e+02,2.026316375732421875e+02,-1.090712845325469971e-01,-8.296794128417968750e+01,9.901983290910720825e-02,8.043845295906066895e-01,-8.602128982543945312e+00,-1.287284021600498818e-06,-9.589478969573974609e-01,9.552652835845947266e-01,-2.803485404001548886e-05,3.133857846260070801e-01,-1.856944710016250610e-01,-1.051256179809570312e+01,5.000000000000000000e-01,-4.851499199867248535e-02,0.000000000000000000e+00
1.383129358291625977e+00,6.641856689453125000e+02,2.026316375732421875e+02,2.026316375732421875e+02,-1.090712845325469971e-01,-8.296794128417968750e+01,9.901983290910720825e-02,8.043845295906066895e-01,-8.602128982543945312e+00,-1.287284021600498818e-06,-9.589478969573974609e-01,9.552652835845947266e-01,-2.803485404001548886e-05,3.133857846260070801e-01,-1.856944710016250610e-01,-1.051256179809570312e+01,5.000000000000000000e-01,-4.851499199867248535e-02,0.000000000000000000e+00
1.450951814651489258e+00,6.642424926757812500e+02,2.020244293212890625e+02,2.020244293212890625e+02,-1.308595836162567139e-01,-8.377856445312500000e+01,1.106735691428184509e-01,6.097751855850219727e-01,-8.525637626647949219e+00,-5.730767497880151495e-06,-2.869393825531005859e+00,1.127817511558532715e+00,-6.551641126861795783e-05,2.832868397235870361e-01,2.173601984977722168e-01,-1.182412624359130859e+01,5.000000000000000000e-01,-6.689453125000000000e-02,0.000000000000000000e+00
1.450951814651489258e+00,6.642424926757812500e+02,2.020244293212890625e+02,2.020244293212890625e+02,-1.308595836162567139e-01,-8.377856445312500000e+01,1.106735691428184509e-01,6.097751855850219727e-01,-8.525637626647949219e+00,-5.730767497880151495e-06,-2.869393825531005859e+00,1.127817511558532715e+00,-6.551641126861795783e-05,2.832868397235870361e-01,2.173601984977722168e-01,-1.182412624359130859e+01,5.000000000000000000e-01,-6.689453125000000000e-02,0.000000000000000000e+00
1.450951814651489258e+00,6.642424926757812500e+02,2.020244293212890625e+02,2.020244293212890625e+02,-1.308595836162567139e-01,-8.377856445312500000e+01,1.106735691428184509e-01,6.097751855850219727e-01,-8.525637626647949219e+00,-5.730767497880151495e-06,-2.869393825531005859e+00,1.127817511558532715e+00,-6.551641126861795783e-05,2.832868397235870361e-01,2.173601984977722168e-01,-1.182412624359130859e+01,5.000000000000000000e-01,-6.689453125000000000e-02,0.000000000000000000e+00
1.527701377868652344e+00,6.642877197265625000e+02,2.014505157470703125e+02,2.014505157470703125e+02,-1.499021500349044800e-01,-8.456383514404296875e+01,1.096098423004150391e-01,5.010080337524414062e-01,-8.442914009094238281e+00,-6.627136826864443719e-06,-1.417169690132141113e+00,1.077838301658630371e+00,-1.167914615507470444e-05,2.687200605869293213e-01,-3.034698218107223511e-02,-1.144795799255371094e+01,5.000000000000000000e-01,-5.967995896935462952e-02,0.000000000000000000e+00
1.527701377868652344e+00,6.642877197265625000e+02,2.014505157470703125e+02,2.014505157470703125e+02,-1.499021500349044800e-01,-8.456383514404296875e+01,1.096098423004150391e-01,5.010080337524414062e-01,-8.442914009094238281e+00,-6.627136826864443719e-06,-1.417169690132141113e+00,1.077838301658630371e+00,-1.167914615507470444e-05,2.687200605869293213e-01,-3.034698218107223511e-02,-1.144795799255371094e+01,5.000000000000000000e-01,-5.967995896935462952e-02,0.000000000000000000e+00
1.527701377868652344e+00,6.642877197265625000e+02,2.014505157470703125e+02,2.014505157470703125e+02,-1.499021500349044800e-01,-8.456383514404296875e+01,1.096098423004150391e-01,5.010080337524414062e-01,-8.442914009094238281e+00,-6.627136826864443719e-06,-1.417169690132141113e+00,1.077838301658630371e+00,-1.167914615507470444e-05,2.687200605869293213e-01,-3.034698218107223511e-02,-1.144795799255371094e+01,5.000000000000000000e-01,-5.967995896935462952e-02,0.000000000000000000e+00
1.600134611129760742e+00,6.643310546875000000e+02,2.008078308105468750e+02,2.008078308105468750e+02,-1.676333248615264893e-01,-8.537742614746093750e+01,9.517286717891693115e-02,4.123862683773040771e-01,-8.347589492797851562e+00,-2.879654175558243878e-06,-1.223495960235595703e+00,1.316032886505126953e+00,5.173706085770390928e-05,2.164136171340942383e-01,-1.415560394525527954e-01,-1.019810962677001953e+01,5.000000000000000000e-01,-5.136359110474586487e-02,0.000000000000000000e+00
1.600134611129760742e+00,6.643310546875000000e+02,2.008078308105468750e+02,2.008078308105468750e+02,-1.676333248615264893e-01,-8.537742614746093750e+01,9.517286717891693115e-02,4.123862683773040771e-01,-8.347589492797851562e+00,-2.879654175558243878e-06,-1.223495960235595703e+00,1.316032886505126953e+00,5.173706085770390928e-05,2.164136171340942383e-01,-1.415560394525527954e-01,-1.019810962677001953e+01,5.000000000000000000e-01,-5.136359110474586487e-02,0.000000000000000000e+00
1.600134611129760742e+00,6.643310546875000000e+02,2.008078308105468750e+02,2.008078308105468750e+02,-1.676333248615264893e-01,-8.537742614746093750e+01,9.517286717891693115e-02,4.123862683773040771e-01,-8.347589492797851562e+00,-2.879654175558243878e-06,-1.223495960235595703e+00,1.316032886505126953e+00,5.173706085770390928e-05,2.164136171340942383e-01,-1.415560394525527954e-01,-1.019810962677001953e+01,5.000000000000000000e-01,-5.136359110474586487e-02,0.000000000000000000e+00
1.600134611129760742e+00,6.643310546875000000e+02,2.008078308105468750e+02,2.008078308105468750e+02,-1.676333248615264893e-01,-8.537742614746093750e+01,9.517286717891693115e-02,4.123862683773040771e-01,-8.347589492797851562e+00,-2.879654175558243878e-06,-1.223495960235595703e+00,1.316032886505126953e+00,5.173706085770390928e-05,2.164136171340942383e-01,-1.415560394525527954e-01,-1.019810962677001953e+01,5.000000000000000000e-01,-5.136359110474586487e-02,0.000000000000000000e+00
1.600134611129760742e+00,6.643310546875000000e+02,2.008078308105468750e+02,2.008078308105468750e+02,-1.676333248615264893e-01,-8.537742614746093750e+01,9.517286717891693115e-02,4.123862683773040771e-01,-8.347589492797851562e+00,-2.879654175558243878e-06,-1.223495960235595703e+00,1.316032886505126953e+00,5.173706085770390928e-05,2.164136171340942383e-01,-1.415560394525527954e-01,-1.019810962677001953e+01,5.000000000000000000e-01,-5.136359110474586487e-02,0.000000000000000000e+00
1.600134611129760742e+00,6.643644409179687500e+02,2.002076568603515625e+02,2.002076568603515625e+02,-1.796544492244720459e-01,-8.608386230468750000e+01,8.583805710077285767e-02,3.164902925491333008e-01,-8.260291099548339844e+00,-2.135921022272668779e-06,-8.311399221420288086e-01,7.566238045692443848e-01,6.446008683269610628e-06,1.498662084341049194e-01,-9.051579982042312622e-02,-9.533314704895019531e+00,5.000000000000000000e-01,-4.968054592609405518e-02,0.000000000000000000e+00
1.715513467788696289e+00,6.643644409179687500e+02,2.002076568603515625e+02,2.002076568603515625e+02,-1.796544492244720459e-01,-8.608386230468750000e+01,8.583805710077285767e-02,3.164902925491333008e-01,-8.260291099548339844e+00,-2.135921022272668779e-06,-8.311399221420288086e-01,7.566238045692443848e-01,6.446008683269610628e-06,1.498662084341049194e-01,-9.051579982042312622e-02,-9.533314704895019531e+00,5.000000000000000000e-01,-4.968054592609405518e-02,0.000000000000000000e+00
1.715513467788696289e+00,6.643644409179687500e+02,2.002076568603515625e+02,2.002076568603515625e+02,-1.796544492244720459e-01,-8.608386230468750000e+01,8.583805710077285767e-02,3.164902925491333008e-01,-8.260291099548339844e+00,-2.135921022272668779e-06,-8.311399221420288086e-01,7.566238045692443848e-01,6.446008683269610628e-06,1.498662084341049194e-01,-9.051579982042312622e-02,-9.533314704895019531e+00,5.000000000000000000e-01,-4.968054592609405518e-02,0.000000000000000000e+00
1.715513467788696289e+00,6.644006958007812500e+02,1.993845520019531250e+02,1.993845520019531250e+02,-1.802964955568313599e-01,-8.693575286865234375e+01,6.708563119173049927e-02,2.306943237781524658e-01,-8.272312164306640625e+00,1.582835466251708567e-06,-8.790422081947326660e-01,-1.231645643711090088e-01,3.810137059190310538e-05,-1.779092699289321899e-01,-1.228124275803565979e-01,-8.117060661315917969e+00,1.000000000000000000e+00,-4.136766865849494934e-02,0.000000000000000000e+00
1.813115119934082031e+00,6.644006958007812500e+02,1.993845520019531250e+02,1.993845520019531250e+02,-1.802964955568313599e-01,-8.693575286865234375e+01,6.708563119173049927e-02,2.306943237781524658e-01,-8.272312164306640625e+00,1.582835466251708567e-06,-8.790422081947326660e-01,-1.231645643711090088e-01,3.810137059190310538e-05,-1.779092699289321899e-01,-1.228124275803565979e-01,-8.117060661315917969e+00,1.000000000000000000e+00,-4.136766865849494934e-02,0.000000000000000000e+00
1.813115119934082031e+00,6.644006958007812500e+02,1.993845520019531250e+02,1.993845520019531250e+02,-1.802964955568313599e-01,-8.693575286865234375e+01,6.708563119173049927e-02,2.306943237781524658e-01,-8.272312164306640625e+00,1.582835466251708567e-06,-8.790422081947326660e-01,-1.231645643711090088e-01,3.810137059190310538e-05,-1.779092699289321899e-01,-1.228124275803565979e-01,-8.117060661315917969e+00,1.000000000000000000e+00,-4.136766865849494934e-02,0.000000000000000000e+00
1.813115119934082031e+00,6.644006958007812500e+02,1.993845520019531250e+02,1.993845520019531250e+02,-1.802964955568313599e-01,-8.693575286865234375e+01,6.708563119173049927e-02,2.306943237781524658e-01,-8.272312164306640625e+00,1.582835466251708567e-06,-8.790422081947326660e-01,-1.231645643711090088e-01,3.810137059190310538e-05,-1.779092699289321899e-01,-1.228124275803565979e-01,-8.117060661315917969e+00,1.000000000000000000e+00,-4.136766865849494934e-02,0.000000000000000000e+00
1.813115119934082031e+00,6.644293823242187500e+02,1.985596466064453125e+02,1.985596466064453125e+02,-1.321095079183578491e-01,-8.761266326904296875e+01,4.502840340137481689e-02,1.950564980506896973e-01,-8.606778144836425781e+00,1.244342547579435632e-05,-4.292693436145782471e-01,-4.028752803802490234e+00,1.308193750446662307e-04,-6.565119624137878418e-01,-1.729250699281692505e-01,-6.460676670074462891e+00,1.000000000000000000e+00,-3.044662438333034515e-02,0.000000000000000000e+00
1.896134853363037109e+00,6.644293823242187500e+02,1.985596466064453125e+02,1.985596466064453125e+02,-1.321095079183578491e-01,-8.761266326904296875e+01,4.502840340137481689e-02,1.950564980506896973e-01,-8.606778144836425781e+00,1.244342547579435632e-05,-4.292693436145782471e-01,-4.028752803802490234e+00,1.308193750446662307e-04,-6.565119624137878418e-01,-1.729250699281692505e-01,-6.460676670074462891e+00,1.000000000000000000e+00,-3.044662438333034515e-02,0.000000000000000000e+00
1.896134853363037109e+00,6.644293823242187500e+02,1.985596466064453125e+02,1.985596466064453125e+02,-1.321095079183578491e-01,-8.761266326904296875e+01,4.502840340137481689e-02,1.950564980506896973e-01,-8.606778144836425781e+00,1.244342547579435632e-05,-4.292693436145782471e-01,-4.028752803802490234e+00,1.308193750446662307e-04,-6.565119624137878418e-01,-1.729250699281692505e-01,-6.460676670074462891e+00,1.000000000000000000e+00,-3.044662438333034515e-02,0.000000000000000000e+00
1.896134853363037109e+00,6.644293823242187500e+02,1.985596466064453125e+02,1.985596466064453125e+02,-1.321095079183578491e-01,-8.761266326904296875e+01,4.502840340137481689e-02,1.950564980506896973e-01,-8.606778144836425781e+00,1.244342547579435632e-05,-4.292693436145782471e-01,-4.028752803802490234e+00,1.308193750446662307e-04,-6.565119624137878418e-01,-1.729250699281692505e-01,-6.460676670074462891e+00,1.000000000000000000e+00,-3.044662438333034515e-02,0.000000000000000000e+00
1.896134853363037109e+00,6.644293823242187500e+02,1.985596466064453125e+02,1.985596466064453125e+02,-1.321095079183578491e-01,-8.761266326904296875e+01,4.502840340137481689e-02,1.950564980506896973e-01,-8.606778144836425781e+00,1.244342547579435632e-05,-4.292693436145782471e-01,-4.028752803802490234e+00,1.308193750446662307e-04,-6.565119624137878418e-01,-1.729250699281692505e-01,-6.460676670074462891e+00,1.000000000000000000e+00,-3.044662438333034515e-02,0.000000000000000000e+00
1.896134853363037109e+00,6.644293823242187500e+02,1.985596466064453125e+02,1.985596466064453125e+02,-1.321095079183578491e-01,-8.761266326904296875e+01,4.502840340137481689e-02,1.950564980506896973e-01,-8.606778144836425781e+00,1.244342547579435632e-05,-4.292693436145782471e-01,-4.028752803802490234e+00,1.308193750446662307e-04,-6.565119624137878418e-01,-1.729250699281692505e-01,-6.460676670074462891e+00,1.000000000000000000e+00,-3.044662438333034515e-02,0.000000000000000000e+00
1.896134853363037109e+00,6.644293823242187500e+02,1.985596466064453125e+02,1.985596466064453125e+02,-1.321095079183578491e-01,-8.761266326904296875e+01,4.502840340137481689e-02,1.950564980506896973e-01,-8.606778144836425781e+00,1.244342547579435632e-05,-4.292693436145782471e-01,-4.028752803802490234e+00,1.308193750446662307e-04,-6.565119624137878418e-01,-1.729250699281692505e-01,-6.460676670074462891e+00,1.000000000000000000e+00,-3.044662438333034515e-02,0.000000000000000000e+00
1.896134853363037109e+00,6.644293823242187500e+02,1.985596466064453125e+02,1.985596466064453125e+02,-1.321095079183578491e-01,-8.761266326904296875e+01,4.502840340137481689e-02,1.950564980506896973e-01,-8.606778144836425781e+00,1.244342547579435632e-05,-4.292693436145782471e-01,-4.028752803802490234e+00,1.308193750446662307e-04,-6.565119624137878418e-01,-1.729250699281692505e-01,-6.460676670074462891e+00,1.000000000000000000e+00,-3.044662438333034515e-02,0.000000000000000000e+00
2.195794820785522461e+00,6.644861450195312500e+02,1.961326446533203125e+02,1.961326446533203125e+02,-5.307056754827499390e-02,-8.878234100341796875e+01,-5.981445312500000000e-03,1.340407133102416992e-01,-9.028616905212402344e+00,-2.793857447613845579e-06,-1.983145773410797119e-01,6.380254626274108887e-01,-1.403235219186171889e-04,2.614814043045043945e-01,-1.321230381727218628e-01,-2.688287734985351562e+00,5.000000000000000000e-01,-1.063363254070281982e-02,0.000000000000000000e+00
2.195794820785522461e+00,6.644861450195312500e+02,1.961326446533203125e+02,1.961326446533203125e+02,-5.307056754827499390e-02,-8.878234100341796875e+01,-5.981445312500000000e-03,1.340407133102416992e-01,-9.028616905212402344e+00,-2.793857447613845579e-06,-1.983145773410797119e-01,6.380254626274108887e-01,-1.403235219186171889e-04,2.614814043045043945e-01,-1.321230381727218628e-01,-2.688287734985351562e+00,5.000000000000000000e-01,-1.063363254070281982e-02,0.000000000000000000e+00
2.195794820785522461e+00,6.644861450195312500e+02,1.961326446533203125e+02,1.961326446533203125e+02,-5.307056754827499390e-02,-8.878234100341796875e+01,-5.981445312500000000e-03,1.340407133102416992e-01,-9.028616905212402344e+00,-2.793857447613845579e-06,-1.983145773410797119e-01,6.380254626274108887e-01,-1.403235219186171889e-04,2.614814043045043945e-01,-1.321230381727218628e-01,-2.688287734985351562e+00,5.000000000000000000e-01,-1.063363254070281982e-02,0.000000000000000000e+00
2.195794820785522461e+00,6.644861450195312500e+02,1.961326446533203125e+02,1.961326446533203125e+02,-5.307056754827499390e-02,-8.878234100341796875e+01,-5.981445312500000000e-03,1.340407133102416992e-01,-9.028616905212402344e+00,-2.793857447613845579e-06,-1.983145773410797119e-01,6.380254626274108887e-01,-1.403235219186171889e-04,2.614814043045043945e-01,-1.321230381727218628e-01,-2.688287734985351562e+00,5.000000000000000000e-01,-1.063363254070281982e-02,0.000000000000000000e+00
2.195794820785522461e+00,6.644861450195312500e+02,1.961326446533203125e+02,1.961326446533203125e+02,-5.307056754827499390e-02,-8.878234100341796875e+01,-5.981445312500000000e-03,1.340407133102416992e-01,-9.028616905212402344e+00,-2.793857447613845579e-06,-1.983145773410797119e-01,6.380254626274108887e-01,-1.403235219186171889e-04,2.614814043045043945e-01,-1.321230381727218628e-01,-2.688287734985351562e+00,5.000000000000000000e-01,-1.063363254070281982e-02,0.000000000000000000e+00
2.195794820785522461e+00,6.644861450195312500e+02,1.961326446533203125e+02,1.961326446533203125e+02,-5.307056754827499390e-02,-8.878234100341796875e+01,-5.981445312500000000e-03,1.340407133102416992e-01,-9.028616905212402344e+00,-2.793857447613845579e-06,-1.983145773410797119e-01,6.380254626274108887e-01,-1.403235219186171889e-04,2.614814043045043945e-01,-1.321230381727218628e-01,-2.688287734985351562e+00,5.000000000000000000e-01,-1.063363254070281982e-02,0.000000000000000000e+00
2.195794820785522461e+00,6.644861450195312500e+02,1.961326446533203125e+02,1.961326446533203125e+02,-5.307056754827499390e-02,-8.878234100341796875e+01,-5.981445312500000000e-03,1.340407133102416992e-01,-9.028616905212402344e+00,-2.793857447613845579e-06,-1.983145773410797119e-01,6.380254626274108887e-01,-1.403235219186171889e-04,2.614814043045043945e-01,-1.321230381727218628e-01,-2.688287734985351562e+00,5.000000000000000000e-01,-1.063363254070281982e-02,0.000000000000000000e+00
2.195794820785522461e+00,6.644861450195312500e+02,1.961326446533203125e+02,1.961326446533203125e+02,-5.307056754827499390e-02,-8.878234100341796875e+01,-5.981445312500000000e-03,1.340407133102416992e-01,-9.028616905212402344e+00,-2.793857447613845579e-06,-1.983145773410797119e-01,6.380254626274108887e-01,-1.403235219186171889e-04,2.614814043045043945e-01,-1.321230381727218628e-01,-2.688287734985351562e+00,5.000000000000000000e-01,-1.063363254070281982e-02,0.000000000000000000e+00
2.195794820785522461e+00,6.644861450195312500e+02,1.961326446533203125e+02,1.961326446533203125e+02,-5.307056754827499390e-02,-8.878234100341796875e+01,-5.981445312500000000e-03,1.340407133102416992e-01,-9.028616905212402344e+00,-2.793857447613845579e-06,-1.983145773410797119e-01,6.380254626274108887e-01,-1.403235219186171889e-04,2.614814043045043945e-01,-1.321230381727218628e-01,-2.688287734985351562e+00,5.000000000000000000e-01,-1.063363254070281982e-02,0.000000000000000000e+00
2.195794820785522461e+00,6.644861450195312500e+02,1.961326446533203125e+02,1.961326446533203125e+02,-5.307056754827499390e-02,-8.878234100341796875e+01,-5.981445312500000000e-03,1.340407133102416992e-01,-9.028616905212402344e+00,-2.793857447613845579e-06,-1.983145773410797119e-01,6.380254626274108887e-01,-1.403235219186171889e-04,2.614814043045043945e-01,-1.321230381727218628e-01,-2.688287734985351562e+00,5.000000000000000000e-01,-1.063363254070281982e-02,0.000000000000000000e+00
2.374083757400512695e+00,6.644945068359375000e+02,1.956554412841796875e+02,1.956554412841796875e+02,-7.043290883302688599e-02,-8.890383911132812500e+01,-1.397704798728227615e-02,1.283315122127532959e-01,-8.972304344177246094e+00,-4.567493760987417772e-06,-3.202218189835548401e-02,3.158499896526336670e-01,-9.948100341716781259e-06,3.642069995403289795e-01,-1.312176585197448730e-01,-2.100169897079467773e+00,5.000000000000000000e-01,-7.646942045539617538e-03,0.000000000000000000e+00
2.374083757400512695e+00,6.644945068359375000e+02,1.956554412841796875e+02,1.956554412841796875e+02,-7.043290883302688599e-02,-8.890383911132812500e+01,-1.397704798728227615e-02,1.283315122127532959e-01,-8.972304344177246094e+00,-4.567493760987417772e-06,-3.202218189835548401e-02,3.158499896526336670e-01,-9.948100341716781259e-06,3.642069995403289795e-01,-1.312176585197448730e-01,-2.100169897079467773e+00,5.000000000000000000e-01,-7.646942045539617538e-03,0.000000000000000000e+00
2.374083757400512695e+00,6.644945068359375000e+02,1.956554412841796875e+02,1.956554412841796875e+02,-7.043290883302688599e-02,-8.890383911132812500e+01,-1.397704798728227615e-02,1.283315122127532959e-01,-8.972304344177246094e+00,-4.567493760987417772e-06,-3.202218189835548401e-02,3.158499896526336670e-01,-9.948100341716781259e-06,3.642069995403289795e-01,-1.312176585197448730e-01,-2.100169897079467773e+00,5.000000000000000000e-01,-7.646942045539617538e-03,0.000000000000000000e+00
2.447860002517700195e+00,6.645084228515625000e+02,1.947662811279296875e+02,1.947662811279296875e+02,-1.111135110259056091e-01,-8.906566619873046875e+01,-2.615356072783470154e-02,1.137313172221183777e-01,-8.835668563842773438e+00,-5.873654572496889159e-06,-1.978983283042907715e-01,1.852029561996459961e+00,-1.770435483194887638e-05,4.036809802055358887e-01,-7.728224247694015503e-02,-1.401314258575439453e+00,5.000000000000000000e-01,-5.894578993320465088e-03,0.000000000000000000e+00
2.447860002517700195e+00,6.645084228515625000e+02,1.947662811279296875e+02,1.947662811279296875e+02,-1.111135110259056091e-01,-8.906566619873046875e+01,-2.615356072783470154e-02,1.137313172221183777e-01,-8.835668563842773438e+00,-5.873654572496889159e-06,-1.978983283042907715e-01,1.852029561996459961e+00,-1.770435483194887638e-05,4.036809802055358887e-01,-7.728224247694015503e-02,-1.401314258575439453e+00,5.000000000000000000e-01,-5.894578993320465088e-03,0.000000000000000000e+00
2.500878810882568359e+00,6.645174560546875000e+02,1.941195068359375000e+02,1.941195068359375000e+02,-1.380244493484497070e-01,-8.914923095703125000e+01,-3.320313245058059692e-02,1.080928221344947815e-01,-8.724880218505859375e+00,-7.018006726866587996e-06,-1.063489541411399841e-01,2.089604616165161133e+00,-2.158388997486326844e-05,3.440808057785034180e-01,-7.877948135137557983e-02,-1.005348563194274902e+00,5.000000000000000000e-01,-3.984505776315927505e-03,0.000000000000000000e+00
2.500878810882568359e+00,6.645174560546875000e+02,1.941195068359375000e+02,1.941195068359375000e+02,-1.380244493484497070e-01,-8.914923095703125000e+01,-3.320313245058059692e-02,1.080928221344947815e-01,-8.724880218505859375e+00,-7.018006726866587996e-06,-1.063489541411399841e-01,2.089604616165161133e+00,-2.158388997486326844e-05,3.440808057785034180e-01,-7.877948135137557983e-02,-1.005348563194274902e+00,5.000000000000000000e-01,-3.984505776315927505e-03,0.000000000000000000e+00
2.560195446014404297e+00,6.645235595703125000e+02,1.936597290039062500e+02,1.936597290039062500e+02,-1.542939692735671997e-01,-8.919371795654296875e+01,-3.784180060029029846e-02,1.059462651610374451e-01,-8.644790649414062500e+00,-5.139622771821450442e-06,-3.618811070919036865e-02,1.350204110145568848e+00,3.166706665069796145e-05,2.897602915763854980e-01,-7.810395210981369019e-02,-7.612829208374023438e-01,5.000000000000000000e-01,-2.743312390521168709e-03,0.000000000000000000e+00
2.560195446014404297e+00,6.645235595703125000e+02,1.936597290039062500e+02,1.936597290039062500e+02,-1.542939692735671997e-01,-8.919371795654296875e+01,-3.784180060029029846e-02,1.059462651610374451e-01,-8.644790649414062500e+00,-5.139622771821450442e-06,-3.618811070919036865e-02,1.350204110145568848e+00,3.166706665069796145e-05,2.897602915763854980e-01,-7.810395210981369019e-02,-7.612829208374023438e-01,5.000000000000000000e-01,-2.743312390521168709e-03,0.000000000000000000e+00
2.560195446014404297e+00,6.645235595703125000e+02,1.936597290039062500e+02,1.936597290039062500e+02,-1.542939692735671997e-01,-8.919371795654296875e+01,-3.784180060029029846e-02,1.059462651610374451e-01,-8.644790649414062500e+00,-5.139622771821450442e-06,-3.618811070919036865e-02,1.350204110145568848e+00,3.166706665069796145e-05,2.897602915763854980e-01,-7.810395210981369019e-02,-7.612829208374023438e-01,5.000000000000000000e-01,-2.743312390521168709e-03,0.000000000000000000e+00
2.618730545043945312e+00,6.645302734375000000e+02,1.931503143310546875e+02,1.931503143310546875e+02,-1.695252805948257446e-01,-8.923046875000000000e+01,-4.257202148437500000e-02,1.035300791263580322e-01,-8.556700706481933594e+00,-5.149077423993730918e-06,-4.127755761146545410e-02,1.504908084869384766e+00,-1.615210720729010063e-07,2.346509993076324463e-01,-6.650093197822570801e-02,-5.545933842658996582e-01,5.000000000000000000e-01,-2.045004628598690033e-03,0.000000000000000000e+00
2.618730545043945312e+00,6.645302734375000000e+02,1.931503143310546875e+02,1.931503143310546875e+02,-1.695252805948257446e-01,-8.923046875000000000e+01,-4.257202148437500000e-02,1.035300791263580322e-01,-8.556700706481933594e+00,-5.149077423993730918e-06,-4.127755761146545410e-02,1.504908084869384766e+00,-1.615210720729010063e-07,2.346509993076324463e-01,-6.650093197822570801e-02,-5.545933842658996582e-01,5.000000000000000000e-01,-2.045004628598690033e-03,0.000000000000000000e+00
2.677334070205688477e+00,6.645365600585937500e+02,1.926526336669921875e+02,1.926526336669921875e+02,-1.810614764690399170e-01,-8.925677490234375000e+01,-4.635619372129440308e-02,1.016351357102394104e-01,-8.472399711608886719e+00,-4.138340955250896513e-06,-3.233497217297554016e-02,1.438496947288513184e+00,1.724702451610937715e-05,1.765089333057403564e-01,-5.549684166908264160e-02,-4.022825062274932861e-01,5.000000000000000000e-01,-1.474326010793447495e-03,0.000000000000000000e+00
2.677334070205688477e+00,6.645365600585937500e+02,1.926526336669921875e+02,1.926526336669921875e+02,-1.810614764690399170e-01,-8.925677490234375000e+01,-4.635619372129440308e-02,1.016351357102394104e-01,-8.472399711608886719e+00,-4.138340955250896513e-06,-3.233497217297554016e-02,1.438496947288513184e+00,1.724702451610937715e-05,1.765089333057403564e-01,-5.549684166908264160e-02,-4.022825062274932861e-01,5.000000000000000000e-01,-1.474326010793447495e-03,0.000000000000000000e+00
2.677334070205688477e+00,6.645365600585937500e+02,1.926526336669921875e+02,1.926526336669921875e+02,-1.810614764690399170e-01,-8.925677490234375000e+01,-4.635619372129440308e-02,1.016351357102394104e-01,-8.472399711608886719e+00,-4.138340955250896513e-06,-3.233497217297554016e-02,1.438496947288513184e+00,1.724702451610937715e-05,1.765089333057403564e-01,-5.549684166908264160e-02,-4.022825062274932861e-01,5.000000000000000000e-01,-1.474326010793447495e-03,0.000000000000000000e+00
2.677334070205688477e+00,6.645426635742187500e+02,1.921591796875000000e+02,1.921591796875000000e+02,-1.894830912351608276e-01,-8.927731323242187500e+01,-4.916382580995559692e-02,9.850764274597167969e-02,-8.391242980957031250e+00,-3.251552925576106645e-06,-4.025562107563018799e-02,1.044611334800720215e+00,1.141431948781246319e-05,1.258209794759750366e-01,-4.056586697697639465e-02,-3.268854320049285889e-01,5.000000000000000000e-01,-1.402500667609274387e-03,0.000000000000000000e+00
2.755024909973144531e+00,6.645426635742187500e+02,1.921591796875000000e+02,1.921591796875000000e+02,-1.894830912351608276e-01,-8.927731323242187500e+01,-4.916382580995559692e-02,9.850764274597167969e-02,-8.391242980957031250e+00,-3.251552925576106645e-06,-4.025562107563018799e-02,1.044611334800720215e+00,1.141431948781246319e-05,1.258209794759750366e-01,-4.056586697697639465e-02,-3.268854320049285889e-01,5.000000000000000000e-01,-1.402500667609274387e-03,0.000000000000000000e+00
2.755024909973144531e+00,6.645426635742187500e+02,1.921591796875000000e+02,1.921591796875000000e+02,-1.894830912351608276e-01,-8.927731323242187500e+01,-4.916382580995559692e-02,9.850764274597167969e-02,-8.391242980957031250e+00,-3.251552925576106645e-06,-4.025562107563018799e-02,1.044611334800720215e+00,1.141431948781246319e-05,1.258209794759750366e-01,-4.056586697697639465e-02,-3.268854320049285889e-01,5.000000000000000000e-01,-1.402500667609274387e-03,0.000000000000000000e+00
2.755024909973144531e+00,6.645426635742187500e+02,1.921591796875000000e+02,1.921591796875000000e+02,-1.894830912351608276e-01,-8.927731323242187500e+01,-4.916382580995559692e-02,9.850764274597167969e-02,-8.391242980957031250e+00,-3.251552925576106645e-06,-4.025562107563018799e-02,1.044611334800720215e+00,1.141431948781246319e-05,1.258209794759750366e-01,-4.056586697697639465e-02,-3.268854320049285889e-01,5.000000000000000000e-01,-1.402500667609274387e-03,0.000000000000000000e+00
2.830169916152954102e+00,6.645502929687500000e+02,1.915121307373046875e+02,1.915121307373046875e+02,-1.966547966003417969e-01,-8.929890441894531250e+01,-5.215454101562500000e-02,9.530583024024963379e-02,-8.289090156555175781e+00,-2.307533122802851722e-06,-4.260845109820365906e-02,1.359409332275390625e+00,1.256264113180804998e-05,7.168372720479965210e-02,-3.204927220940589905e-02,-2.561608254909515381e-01,5.000000000000000000e-01,-1.161411870270967484e-03,0.000000000000000000e+00
2.830169916152954102e+00,6.645502929687500000e+02,1.915121307373046875e+02,1.915121307373046875e+02,-1.966547966003417969e-01,-8.929890441894531250e+01,-5.215454101562500000e-02,9.530583024024963379e-02,-8.289090156555175781e+00,-2.307533122802851722e-06,-4.260845109820365906e-02,1.359409332275390625e+00,1.256264113180804998e-05,7.168372720479965210e-02,-3.204927220940589905e-02,-2.561608254909515381e-01,5.000000000000000000e-01,-1.161411870270967484e-03,0.000000000000000000e+00
2.830169916152954102e+00,6.645502929687500000e+02,1.915121307373046875e+02,1.915121307373046875e+02,-1.966547966003417969e-01,-8.929890441894531250e+01,-5.215454101562500000e-02,9.530583024024963379e-02,-8.289090156555175781e+00,-2.307533122802851722e-06,-4.260845109820365906e-02,1.359409332275390625e+00,1.256264113180804998e-05,7.168372720479965210e-02,-3.204927220940589905e-02,-2.561608254909515381e-01,5.000000000000000000e-01,-1.161411870270967484e-03,0.000000000000000000e+00
2.830169916152954102e+00,6.645502929687500000e+02,1.915121307373046875e+02,1.915121307373046875e+02,-1.966547966003417969e-01,-8.929890441894531250e+01,-5.215454101562500000e-02,9.530583024024963379e-02,-8.289090156555175781e+00,-2.307533122802851722e-06,-4.260845109820365906e-02,1.359409332275390625e+00,1.256264113180804998e-05,7.168372720479965210e-02,-3.204927220940589905e-02,-2.561608254909515381e-01,5.000000000000000000e-01,-1.161411870270967484e-03,0.000000000000000000e+00
2.830169916152954102e+00,6.645502929687500000e+02,1.915121307373046875e+02,1.915121307373046875e+02,-1.966547966003417969e-01,-8.929890441894531250e+01,-5.215454101562500000e-02,9.530583024024963379e-02,-8.289090156555175781e+00,-2.307533122802851722e-06,-4.260845109820365906e-02,1.359409332275390625e+00,1.256264113180804998e-05,7.168372720479965210e-02,-3.204927220940589905e-02,-2.561608254909515381e-01,5.000000000000000000e-01,-1.161411870270967484e-03,0.000000000000000000e+00
