# Time,X,Y,Z,Roll,Pitch,Yaw,Vx,Vy,Vz,Ax,Ay,Az,Wx,Wy,Wz,Throttle,Steer,Brake
0.000000000000000000e+00,6.322576904296875000e+02,1.455821075439453125e+02,1.455821075439453125e+02,-1.730974763631820679e-01,2.343672513961791992e-01,-4.882812208961695433e-04,9.554360389709472656e+00,3.910746797919273376e-02,3.814157878423429793e-08,-1.401670724153518677e-01,-6.406760658137500286e-04,5.470537871588021517e-07,-2.075225438602501526e-06,2.422910416498780251e-03,-4.116573254577815533e-04,5.000000000000000000e-01,4.463063305593095720e-06,0.000000000000000000e+00
1.045818328857421875e-01,6.322576904296875000e+02,1.455821075439453125e+02,1.455821075439453125e+02,-1.730974763631820679e-01,2.343672513961791992e-01,-4.882812208961695433e-04,9.554360389709472656e+00,3.910746797919273376e-02,3.814157878423429793e-08,-1.401670724153518677e-01,-6.406760658137500286e-04,5.470537871588021517e-07,-2.075225438602501526e-06,2.422910416498780251e-03,-4.116573254577815533e-04,5.000000000000000000e-01,4.463063305593095720e-06,0.000000000000000000e+00
1.045818328857421875e-01,6.322576904296875000e+02,1.455821075439453125e+02,1.455821075439453125e+02,-1.730974763631820679e-01,2.343672513961791992e-01,-4.882812208961695433e-04,9.554360389709472656e+00,3.910746797919273376e-02,3.814157878423429793e-08,-1.401670724153518677e-01,-6.406760658137500286e-04,5.470537871588021517e-07,-2.075225438602501526e-06,2.422910416498780251e-03,-4.116573254577815533e-04,5.000000000000000000e-01,4.463063305593095720e-06,0.000000000000000000e+00
1.045818328857421875e-01,6.322576904296875000e+02,1.455821075439453125e+02,1.455821075439453125e+02,-1.730974763631820679e-01,2.343672513961791992e-01,-4.882812208961695433e-04,9.554360389709472656e+00,3.910746797919273376e-02,3.814157878423429793e-08,-1.401670724153518677e-01,-6.406760658137500286e-04,5.470537871588021517e-07,-2.075225438602501526e-06,2.422910416498780251e-03,-4.116573254577815533e-04,5.000000000000000000e-01,4.463063305593095720e-06,0.000000000000000000e+00
1.045818328857421875e-01,6.322576904296875000e+02,1.455821075439453125e+02,1.455821075439453125e+02,-1.730974763631820679e-01,2.343672513961791992e-01,-4.882812208961695433e-04,9.554360389709472656e+00,3.910746797919273376e-02,3.814157878423429793e-08,-1.401670724153518677e-01,-6.406760658137500286e-04,5.470537871588021517e-07,-2.075225438602501526e-06,2.422910416498780251e-03,-4.116573254577815533e-04,5.000000000000000000e-01,4.463063305593095720e-06,0.000000000000000000e+00
1.045818328857421875e-01,6.322576904296875000e+02,1.455821075439453125e+02,1.455821075439453125e+02,-1.730974763631820679e-01,2.343672513961791992e-01,-4.882812208961695433e-04,9.554360389709472656e+00,3.910746797919273376e-02,3.814157878423429793e-08,-1.401670724153518677e-01,-6.406760658137500286e-04,5.470537871588021517e-07,-2.075225438602501526e-06,2.422910416498780251e-03,-4.116573254577815533e-04,5.000000000000000000e-01,4.463063305593095720e-06,0.000000000000000000e+00
1.045818328857421875e-01,6.332120971679687500e+02,1.455860290527343750e+02,1.455860290527343750e+02,-1.733023822307586670e-01,2.342834472656250000e-01,-4.577637009788304567e-04,9.537102699279785156e+00,3.901088610291481018e-02,-1.907030622305683210e-07,-1.648158729076385498e-01,-9.223844972439110279e-04,-2.185531684517627582e-06,-5.125696407048963010e-05,1.587284612469375134e-03,-9.778458625078201294e-04,5.000000000000000000e-01,2.261665201785945101e-07,0.000000000000000000e+00
2.092907428741455078e-01,6.332120971679687500e+02,1.455860290527343750e+02,1.455860290527343750e+02,-1.733023822307586670e-01,2.342834472656250000e-01,-4.577637009788304567e-04,9.537102699279785156e+00,3.901088610291481018e-02,-1.907030622305683210e-07,-1.648158729076385498e-01,-9.223844972439110279e-04,-2.185531684517627582e-06,-5.125696407048963010e-05,1.587284612469375134e-03,-9.778458625078201294e-04,5.000000000000000000e-01,2.261665201785945101e-07,0.000000000000000000e+00
2.092907428741455078e-01,6.332120971679687500e+02,1.455860290527343750e+02,1.455860290527343750e+02,-1.733023822307586670e-01,2.342834472656250000e-01,-4.577637009788304567e-04,9.537102699279785156e+00,3.901088610291481018e-02,-1.907030622305683210e-07,-1.648158729076385498e-01,-9.223844972439110279e-04,-2.185531684517627582e-06,-5.125696407048963010e-05,1.587284612469375134e-03,-9.778458625078201294e-04,5.000000000000000000e-01,2.261665201785945101e-07,0.000000000000000000e+00
2.092907428741455078e-01,6.332120971679687500e+02,1.455860290527343750e+02,1.455860290527343750e+02,-1.733023822307586670e-01,2.342834472656250000e-01,-4.577637009788304567e-04,9.537102699279785156e+00,3.901088610291481018e-02,-1.907030622305683210e-07,-1.648158729076385498e-01,-9.223844972439110279e-04,-2.185531684517627582e-06,-5.125696407048963010e-05,1.587284612469375134e-03,-9.778458625078201294e-04,5.000000000000000000e-01,2.261665201785945101e-07,0.000000000000000000e+00
2.092907428741455078e-01,6.332120971679687500e+02,1.455860290527343750e+02,1.455860290527343750e+02,-1.733023822307586670e-01,2.342834472656250000e-01,-4.577637009788304567e-04,9.537102699279785156e+00,3.901088610291481018e-02,-1.907030622305683210e-07,-1.648158729076385498e-01,-9.223844972439110279e-04,-2.185531684517627582e-06,-5.125696407048963010e-05,1.587284612469375134e-03,-9.778458625078201294e-04,5.000000000000000000e-01,2.261665201785945101e-07,0.000000000000000000e+00
2.092907428741455078e-01,6.341648559570312500e+02,1.455899047851562500e+02,1.455899047851562500e+02,-1.734321564435958862e-01,2.340856492519378662e-01,-4.577636718750000000e-04,9.519882202148437500e+00,3.887808322906494141e-02,3.051249279906187439e-07,-2.307802885770797729e-01,-1.779756159521639347e-03,6.644832865276839584e-06,-4.038894621771760285e-05,1.032358035445213318e-03,-2.305743284523487091e-03,5.000000000000000000e-01,-9.627143299439921975e-06,0.000000000000000000e+00
2.839093208312988281e-01,6.341648559570312500e+02,1.455899047851562500e+02,1.455899047851562500e+02,-1.734321564435958862e-01,2.340856492519378662e-01,-4.577636718750000000e-04,9.519882202148437500e+00,3.887808322906494141e-02,3.051249279906187439e-07,-2.307802885770797729e-01,-1.779756159521639347e-03,6.644832865276839584e-06,-4.038894621771760285e-05,1.032358035445213318e-03,-2.305743284523487091e-03,5.000000000000000000e-01,-9.627143299439921975e-06,0.000000000000000000e+00
2.839093208312988281e-01,6.341648559570312500e+02,1.455899047851562500e+02,1.455899047851562500e+02,-1.734321564435958862e-01,2.340856492519378662e-01,-4.577636718750000000e-04,9.519882202148437500e+00,3.887808322906494141e-02,3.051249279906187439e-07,-2.307802885770797729e-01,-1.779756159521639347e-03,6.644832865276839584e-06,-4.038894621771760285e-05,1.032358035445213318e-03,-2.305743284523487091e-03,5.000000000000000000e-01,-9.627143299439921975e-06,0.000000000000000000e+00
2.839093208312988281e-01,6.341648559570312500e+02,1.455899047851562500e+02,1.455899047851562500e+02,-1.734321564435958862e-01,2.340856492519378662e-01,-4.577636718750000000e-04,9.519882202148437500e+00,3.887808322906494141e-02,3.051249279906187439e-07,-2.307802885770797729e-01,-1.779756159521639347e-03,6.644832865276839584e-06,-4.038894621771760285e-05,1.032358035445213318e-03,-2.305743284523487091e-03,5.000000000000000000e-01,-9.627143299439921975e-06,0.000000000000000000e+00
2.839093208312988281e-01,6.341648559570312500e+02,1.455899047851562500e+02,1.455899047851562500e+02,-1.734321564435958862e-01,2.340856492519378662e-01,-4.577636718750000000e-04,9.519882202148437500e+00,3.887808322906494141e-02,3.051249279906187439e-07,-2.307802885770797729e-01,-1.779756159521639347e-03,6.644832865276839584e-06,-4.038894621771760285e-05,1.032358035445213318e-03,-2.305743284523487091e-03,5.000000000000000000e-01,-9.627143299439921975e-06,0.000000000000000000e+00
3.569011688232421875e-01,6.348612670898437500e+02,1.455927886962890625e+02,1.455927886962890625e+02,-1.802145242691040039e-01,2.298268675804138184e-01,-4.577636136673390865e-04,9.156136512756347656e+00,3.724327310919761658e-02,-2.097770277487143176e-07,-4.983374118804931641e+00,-2.239716053009033203e-02,-7.054239176795817912e-06,-9.477674611844122410e-04,1.497538834810256958e-01,-9.602544456720352173e-02,5.000000000000000000e-01,1.115037321142153814e-05,0.000000000000000000e+00
3.569011688232421875e-01,6.348612670898437500e+02,1.455927886962890625e+02,1.455927886962890625e+02,-1.802145242691040039e-01,2.298268675804138184e-01,-4.577636136673390865e-04,9.156136512756347656e+00,3.724327310919761658e-02,-2.097770277487143176e-07,-4.983374118804931641e+00,-2.239716053009033203e-02,-7.054239176795817912e-06,-9.477674611844122410e-04,1.497538834810256958e-01,-9.602544456720352173e-02,5.000000000000000000e-01,1.115037321142153814e-05,0.000000000000000000e+00
3.569011688232421875e-01,6.348612670898437500e+02,1.455927886962890625e+02,1.455927886962890625e+02,-1.802145242691040039e-01,2.298268675804138184e-01,-4.577636136673390865e-04,9.156136512756347656e+00,3.724327310919761658e-02,-2.097770277487143176e-07,-4.983374118804931641e+00,-2.239716053009033203e-02,-7.054239176795817912e-06,-9.477674611844122410e-04,1.497538834810256958e-01,-9.602544456720352173e-02,5.000000000000000000e-01,1.115037321142153814e-05,0.000000000000000000e+00
3.569011688232421875e-01,6.348612670898437500e+02,1.455927886962890625e+02,1.455927886962890625e+02,-1.802145242691040039e-01,2.298268675804138184e-01,-4.577636136673390865e-04,9.156136512756347656e+00,3.724327310919761658e-02,-2.097770277487143176e-07,-4.983374118804931641e+00,-2.239716053009033203e-02,-7.054239176795817912e-06,-9.477674611844122410e-04,1.497538834810256958e-01,-9.602544456720352173e-02,5.000000000000000000e-01,1.115037321142153814e-05,0.000000000000000000e+00
4.765405654907226562e-01,6.355117187500000000e+02,1.455954895019531250e+02,1.455954895019531250e+02,-1.915526390075683594e-01,2.225413322448730469e-01,-4.272460646461695433e-04,8.755990028381347656e+00,3.516495972871780396e-02,-1.477979367336956784e-06,-3.344604730606079102e+00,-1.737147942185401917e-02,-1.060020713339326903e-05,-1.701549859717488289e-03,1.478152573108673096e-01,-9.786625951528549194e-02,5.000000000000000000e-01,1.254790404345840216e-04,0.000000000000000000e+00
4.765405654907226562e-01,6.355117187500000000e+02,1.455954895019531250e+02,1.455954895019531250e+02,-1.915526390075683594e-01,2.225413322448730469e-01,-4.272460646461695433e-04,8.755990028381347656e+00,3.516495972871780396e-02,-1.477979367336956784e-06,-3.344604730606079102e+00,-1.737147942185401917e-02,-1.060020713339326903e-05,-1.701549859717488289e-03,1.478152573108673096e-01,-9.786625951528549194e-02,5.000000000000000000e-01,1.254790404345840216e-04,0.000000000000000000e+00
4.765405654907226562e-01,6.355117187500000000e+02,1.455954895019531250e+02,1.455954895019531250e+02,-1.915526390075683594e-01,2.225413322448730469e-01,-4.272460646461695433e-04,8.755990028381347656e+00,3.516495972871780396e-02,-1.477979367336956784e-06,-3.344604730606079102e+00,-1.737147942185401917e-02,-1.060020713339326903e-05,-1.701549859717488289e-03,1.478152573108673096e-01,-9.786625951528549194e-02,5.000000000000000000e-01,1.254790404345840216e-04,0.000000000000000000e+00
4.765405654907226562e-01,6.355117187500000000e+02,1.455954895019531250e+02,1.455954895019531250e+02,-1.915526390075683594e-01,2.225413322448730469e-01,-4.272460646461695433e-04,8.755990028381347656e+00,3.516495972871780396e-02,-1.477979367336956784e-06,-3.344604730606079102e+00,-1.737147942185401917e-02,-1.060020713339326903e-05,-1.701549859717488289e-03,1.478152573108673096e-01,-9.786625951528549194e-02,5.000000000000000000e-01,1.254790404345840216e-04,0.000000000000000000e+00
4.765405654907226562e-01,6.355117187500000000e+02,1.455954895019531250e+02,1.455954895019531250e+02,-1.915526390075683594e-01,2.225413322448730469e-01,-4.272460646461695433e-04,8.755990028381347656e+00,3.516495972871780396e-02,-1.477979367336956784e-06,-3.344604730606079102e+00,-1.737147942185401917e-02,-1.060020713339326903e-05,-1.701549859717488289e-03,1.478152573108673096e-01,-9.786625951528549194e-02,5.000000000000000000e-01,1.254790404345840216e-04,0.000000000000000000e+00
4.765405654907226562e-01,6.355117187500000000e+02,1.455954895019531250e+02,1.455954895019531250e+02,-1.915526390075683594e-01,2.225413322448730469e-01,-4.272460646461695433e-04,8.755990028381347656e+00,3.516495972871780396e-02,-1.477979367336956784e-06,-3.344604730606079102e+00,-1.737147942185401917e-02,-1.060020713339326903e-05,-1.701549859717488289e-03,1.478152573108673096e-01,-9.786625951528549194e-02,5.000000000000000000e-01,1.254790404345840216e-04,0.000000000000000000e+00
4.765405654907226562e-01,6.355117187500000000e+02,1.455954895019531250e+02,1.455954895019531250e+02,-1.915526390075683594e-01,2.225413322448730469e-01,-4.272460646461695433e-04,8.755990028381347656e+00,3.516495972871780396e-02,-1.477979367336956784e-06,-3.344604730606079102e+00,-1.737147942185401917e-02,-1.060020713339326903e-05,-1.701549859717488289e-03,1.478152573108673096e-01,-9.786625951528549194e-02,5.000000000000000000e-01,1.254790404345840216e-04,0.000000000000000000e+00
6.200885772705078125e-01,6.363585205078125000e+02,1.455989532470703125e+02,1.455989532470703125e+02,-2.031229883432388306e-01,2.157574146986007690e-01,-3.356933302711695433e-04,8.273064613342285156e+00,3.294103220105171204e-02,-3.871272383548785001e-06,-3.364208459854125977e+00,-1.549256965517997742e-02,-1.667242213443387300e-05,-1.160418149083852768e-03,8.745621889829635620e-02,-5.351845920085906982e-02,5.000000000000000000e-01,3.583285433705896139e-04,0.000000000000000000e+00
6.200885772705078125e-01,6.363585205078125000e+02,1.455989532470703125e+02,1.455989532470703125e+02,-2.031229883432388306e-01,2.157574146986007690e-01,-3.356933302711695433e-04,8.273064613342285156e+00,3.294103220105171204e-02,-3.871272383548785001e-06,-3.364208459854125977e+00,-1.549256965517997742e-02,-1.667242213443387300e-05,-1.160418149083852768e-03,8.745621889829635620e-02,-5.351845920085906982e-02,5.000000000000000000e-01,3.583285433705896139e-04,0.000000000000000000e+00
6.200885772705078125e-01,6.363585205078125000e+02,1.455989532470703125e+02,1.455989532470703125e+02,-2.031229883432388306e-01,2.157574146986007690e-01,-3.356933302711695433e-04,8.273064613342285156e+00,3.294103220105171204e-02,-3.871272383548785001e-06,-3.364208459854125977e+00,-1.549256965517997742e-02,-1.667242213443387300e-05,-1.160418149083852768e-03,8.745621889829635620e-02,-5.351845920085906982e-02,5.000000000000000000e-01,3.583285433705896139e-04,0.000000000000000000e+00
6.200885772705078125e-01,6.363585205078125000e+02,1.455989532470703125e+02,1.455989532470703125e+02,-2.031229883432388306e-01,2.157574146986007690e-01,-3.356933302711695433e-04,8.273064613342285156e+00,3.294103220105171204e-02,-3.871272383548785001e-06,-3.364208459854125977e+00,-1.549256965517997742e-02,-1.667242213443387300e-05,-1.160418149083852768e-03,8.745621889829635620e-02,-5.351845920085906982e-02,5.000000000000000000e-01,3.583285433705896139e-04,0.000000000000000000e+00
6.200885772705078125e-01,6.363585205078125000e+02,1.455989532470703125e+02,1.455989532470703125e+02,-2.031229883432388306e-01,2.157574146986007690e-01,-3.356933302711695433e-04,8.273064613342285156e+00,3.294103220105171204e-02,-3.871272383548785001e-06,-3.364208459854125977e+00,-1.549256965517997742e-02,-1.667242213443387300e-05,-1.160418149083852768e-03,8.745621889829635620e-02,-5.351845920085906982e-02,5.000000000000000000e-01,3.583285433705896139e-04,0.000000000000000000e+00
6.200885772705078125e-01,6.363585205078125000e+02,1.455989532470703125e+02,1.455989532470703125e+02,-2.031229883432388306e-01,2.157574146986007690e-01,-3.356933302711695433e-04,8.273064613342285156e+00,3.294103220105171204e-02,-3.871272383548785001e-06,-3.364208459854125977e+00,-1.549256965517997742e-02,-1.667242213443387300e-05,-1.160418149083852768e-03,8.745621889829635620e-02,-5.351845920085906982e-02,5.000000000000000000e-01,3.583285433705896139e-04,0.000000000000000000e+00
7.946169376373291016e-01,6.371619873046875000e+02,1.456021881103515625e+02,1.456021881103515625e+02,-2.081568390130996704e-01,2.133549004793167114e-01,-3.051757230423390865e-04,7.884534358978271484e+00,3.146735206246376038e-02,-1.964241619134554639e-06,-2.226172685623168945e+00,-8.443785831332206726e-03,1.092676666303304955e-05,-3.263204125687479973e-04,2.195145934820175171e-02,-7.496182341128587723e-03,1.000000000000000000e+00,5.358510534279048443e-04,0.000000000000000000e+00
7.946169376373291016e-01,6.371619873046875000e+02,1.456021881103515625e+02,1.456021881103515625e+02,-2.081568390130996704e-01,2.133549004793167114e-01,-3.051757230423390865e-04,7.884534358978271484e+00,3.146735206246376038e-02,-1.964241619134554639e-06,-2.226172685623168945e+00,-8.443785831332206726e-03,1.092676666303304955e-05,-3.263204125687479973e-04,2.195145934820175171e-02,-7.496182341128587723e-03,1.000000000000000000e+00,5.358510534279048443e-04,0.000000000000000000e+00
7.946169376373291016e-01,6.371619873046875000e+02,1.456021881103515625e+02,1.456021881103515625e+02,-2.081568390130996704e-01,2.133549004793167114e-01,-3.051757230423390865e-04,7.884534358978271484e+00,3.146735206246376038e-02,-1.964241619134554639e-06,-2.226172685623168945e+00,-8.443785831332206726e-03,1.092676666303304955e-05,-3.263204125687479973e-04,2.195145934820175171e-02,-7.496182341128587723e-03,1.000000000000000000e+00,5.358510534279048443e-04,0.000000000000000000e+00
7.946169376373291016e-01,6.371619873046875000e+02,1.456021881103515625e+02,1.456021881103515625e+02,-2.081568390130996704e-01,2.133549004793167114e-01,-3.051757230423390865e-04,7.884534358978271484e+00,3.146735206246376038e-02,-1.964241619134554639e-06,-2.226172685623168945e+00,-8.443785831332206726e-03,1.092676666303304955e-05,-3.263204125687479973e-04,2.195145934820175171e-02,-7.496182341128587723e-03,1.000000000000000000e+00,5.358510534279048443e-04,0.000000000000000000e+00
8.783230781555175781e-01,6.379363403320312500e+02,1.456052856445312500e+02,1.456052856445312500e+02,-2.062717080116271973e-01,2.161331325769424438e-01,-3.356933302711695433e-04,7.665494441986083984e+00,3.125760331749916077e-02,-1.907030799941367150e-08,-2.616772413253784180e+00,-2.505774842575192451e-03,2.323809712834190577e-05,6.041307933628559113e-04,-4.595633223652839661e-02,4.615673795342445374e-02,1.000000000000000000e+00,6.957163568586111069e-04,0.000000000000000000e+00
8.783230781555175781e-01,6.379363403320312500e+02,1.456052856445312500e+02,1.456052856445312500e+02,-2.062717080116271973e-01,2.161331325769424438e-01,-3.356933302711695433e-04,7.665494441986083984e+00,3.125760331749916077e-02,-1.907030799941367150e-08,-2.616772413253784180e+00,-2.505774842575192451e-03,2.323809712834190577e-05,6.041307933628559113e-04,-4.595633223652839661e-02,4.615673795342445374e-02,1.000000000000000000e+00,6.957163568586111069e-04,0.000000000000000000e+00
9.483780860900878906e-01,6.385745239257812500e+02,1.456078338623046875e+02,1.456078338623046875e+02,-2.005616575479507446e-01,2.204987853765487671e-01,-3.662109083961695433e-04,7.607661724090576172e+00,3.115476481616497040e-02,5.721247475776181091e-07,-8.255329728126525879e-01,-1.467967871576547623e-03,8.439012162853032351e-06,7.514347089454531670e-04,-8.252649009227752686e-02,5.912585556507110596e-02,1.000000000000000000e+00,5.668269004672765732e-04,0.000000000000000000e+00
9.483780860900878906e-01,6.385745239257812500e+02,1.456078338623046875e+02,1.456078338623046875e+02,-2.005616575479507446e-01,2.204987853765487671e-01,-3.662109083961695433e-04,7.607661724090576172e+00,3.115476481616497040e-02,5.721247475776181091e-07,-8.255329728126525879e-01,-1.467967871576547623e-03,8.439012162853032351e-06,7.514347089454531670e-04,-8.252649009227752686e-02,5.912585556507110596e-02,1.000000000000000000e+00,5.668269004672765732e-04,0.000000000000000000e+00
9.483780860900878906e-01,6.385745239257812500e+02,1.456078338623046875e+02,1.456078338623046875e+02,-2.005616575479507446e-01,2.204987853765487671e-01,-3.662109083961695433e-04,7.607661724090576172e+00,3.115476481616497040e-02,5.721247475776181091e-07,-8.255329728126525879e-01,-1.467967871576547623e-03,8.439012162853032351e-06,7.514347089454531670e-04,-8.252649009227752686e-02,5.912585556507110596e-02,1.000000000000000000e+00,5.668269004672765732e-04,0.000000000000000000e+00
9.483780860900878906e-01,6.385745239257812500e+02,1.456078338623046875e+02,1.456078338623046875e+02,-2.005616575479507446e-01,2.204987853765487671e-01,-3.662109083961695433e-04,7.607661724090576172e+00,3.115476481616497040e-02,5.721247475776181091e-07,-8.255329728126525879e-01,-1.467967871576547623e-03,8.439012162853032351e-06,7.514347089454531670e-04,-8.252649009227752686e-02,5.912585556507110596e-02,1.000000000000000000e+00,5.668269004672765732e-04,0.000000000000000000e+00
9.483780860900878906e-01,6.391082153320312500e+02,1.456100006103515625e+02,1.456100006103515625e+02,-1.940319985151290894e-01,2.249642163515090942e-01,-3.967284865211695433e-04,7.629730701446533203e+00,3.151715546846389771e-02,5.625889798466232605e-07,2.800666689872741699e-01,4.598923958837985992e-03,-1.210137980933723156e-07,1.034218817949295044e-03,-9.853775054216384888e-02,6.811678409576416016e-02,1.000000000000000000e+00,4.993256879970431328e-04,0.000000000000000000e+00
1.027177095413208008e+00,6.391082153320312500e+02,1.456100006103515625e+02,1.456100006103515625e+02,-1.940319985151290894e-01,2.249642163515090942e-01,-3.967284865211695433e-04,7.629730701446533203e+00,3.151715546846389771e-02,5.625889798466232605e-07,2.800666689872741699e-01,4.598923958837985992e-03,-1.210137980933723156e-07,1.034218817949295044e-03,-9.853775054216384888e-02,6.811678409576416016e-02,1.000000000000000000e+00,4.993256879970431328e-04,0.000000000000000000e+00
1.027177095413208008e+00,6.391082153320312500e+02,1.456100006103515625e+02,1.456100006103515625e+02,-1.940319985151290894e-01,2.249642163515090942e-01,-3.967284865211695433e-04,7.629730701446533203e+00,3.151715546846389771e-02,5.625889798466232605e-07,2.800666689872741699e-01,4.598923958837985992e-03,-1.210137980933723156e-07,1.034218817949295044e-03,-9.853775054216384888e-02,6.811678409576416016e-02,1.000000000000000000e+00,4.993256879970431328e-04,0.000000000000000000e+00
1.095043420791625977e+00,6.397128906250000000e+02,1.456124572753906250e+02,1.456124572753906250e+02,-1.859382241964340210e-01,2.303699702024459839e-01,-4.577637009788304567e-04,7.708908081054687500e+00,3.217709809541702271e-02,1.220510739585733972e-06,1.166666626930236816e+00,9.724154137074947357e-03,9.694376785773783922e-06,1.142863300628960133e-03,-1.014128401875495911e-01,7.128240168094635010e-02,1.000000000000000000e+00,4.072000447195023298e-04,0.000000000000000000e+00
1.095043420791625977e+00,6.397128906250000000e+02,1.456124572753906250e+02,1.456124572753906250e+02,-1.859382241964340210e-01,2.303699702024459839e-01,-4.577637009788304567e-04,7.708908081054687500e+00,3.217709809541702271e-02,1.220510739585733972e-06,1.166666626930236816e+00,9.724154137074947357e-03,9.694376785773783922e-06,1.142863300628960133e-03,-1.014128401875495911e-01,7.128240168094635010e-02,1.000000000000000000e+00,4.072000447195023298e-04,0.000000000000000000e+00
1.095043420791625977e+00,6.397128906250000000e+02,1.456124572753906250e+02,1.456124572753906250e+02,-1.859382241964340210e-01,2.303699702024459839e-01,-4.577637009788304567e-04,7.708908081054687500e+00,3.217709809541702271e-02,1.220510739585733972e-06,1.166666626930236816e+00,9.724154137074947357e-03,9.694376785773783922e-06,1.142863300628960133e-03,-1.014128401875495911e-01,7.128240168094635010e-02,1.000000000000000000e+00,4.072000447195023298e-04,0.000000000000000000e+00
1.095043420791625977e+00,6.397128906250000000e+02,1.456124572753906250e+02,1.456124572753906250e+02,-1.859382241964340210e-01,2.303699702024459839e-01,-4.577637009788304567e-04,7.708908081054687500e+00,3.217709809541702271e-02,1.220510739585733972e-06,1.166666626930236816e+00,9.724154137074947357e-03,9.694376785773783922e-06,1.142863300628960133e-03,-1.014128401875495911e-01,7.128240168094635010e-02,1.000000000000000000e+00,4.072000447195023298e-04,0.000000000000000000e+00
1.168572425842285156e+00,6.402401123046875000e+02,1.456146087646484375e+02,1.456146087646484375e+02,-1.794768720865249634e-01,2.344386577606201172e-01,-4.577636718750000000e-04,7.811231136322021484e+00,3.250139579176902771e-02,3.184839897585334256e-06,1.391601204872131348e+00,4.410472698509693146e-03,2.671502261364366859e-05,7.219940889626741409e-04,-9.346611797809600830e-02,5.730450525879859924e-02,1.000000000000000000e+00,1.888510305434465408e-04,0.000000000000000000e+00
1.168572425842285156e+00,6.402401123046875000e+02,1.456146087646484375e+02,1.456146087646484375e+02,-1.794768720865249634e-01,2.344386577606201172e-01,-4.577636718750000000e-04,7.811231136322021484e+00,3.250139579176902771e-02,3.184839897585334256e-06,1.391601204872131348e+00,4.410472698509693146e-03,2.671502261364366859e-05,7.219940889626741409e-04,-9.346611797809600830e-02,5.730450525879859924e-02,1.000000000000000000e+00,1.888510305434465408e-04,0.000000000000000000e+00
1.168572425842285156e+00,6.402401123046875000e+02,1.456146087646484375e+02,1.456146087646484375e+02,-1.794768720865249634e-01,2.344386577606201172e-01,-4.577636718750000000e-04,7.811231136322021484e+00,3.250139579176902771e-02,3.184839897585334256e-06,1.391601204872131348e+00,4.410472698509693146e-03,2.671502261364366859e-05,7.219940889626741409e-04,-9.346611797809600830e-02,5.730450525879859924e-02,1.000000000000000000e+00,1.888510305434465408e-04,0.000000000000000000e+00
1.168572425842285156e+00,6.402401123046875000e+02,1.456146087646484375e+02,1.456146087646484375e+02,-1.794768720865249634e-01,2.344386577606201172e-01,-4.577636718750000000e-04,7.811231136322021484e+00,3.250139579176902771e-02,3.184839897585334256e-06,1.391601204872131348e+00,4.410472698509693146e-03,2.671502261364366859e-05,7.219940889626741409e-04,-9.346611797809600830e-02,5.730450525879859924e-02,1.000000000000000000e+00,1.888510305434465408e-04,0.000000000000000000e+00
1.168572425842285156e+00,6.408203125000000000e+02,1.456169891357421875e+02,1.456169891357421875e+02,-1.729130595922470093e-01,2.381645143032073975e-01,-4.882811626885086298e-04,7.947742938995361328e+00,3.312957286834716797e-02,2.927349669334944338e-06,1.818982362747192383e+00,8.370287716388702393e-03,-3.430986680541536771e-06,7.995720952749252319e-04,-8.448068052530288696e-02,4.968417063355445862e-02,1.000000000000000000e+00,8.191466622520238161e-05,0.000000000000000000e+00
1.243620872497558594e+00,6.408203125000000000e+02,1.456169891357421875e+02,1.456169891357421875e+02,-1.729130595922470093e-01,2.381645143032073975e-01,-4.882811626885086298e-04,7.947742938995361328e+00,3.312957286834716797e-02,2.927349669334944338e-06,1.818982362747192383e+00,8.370287716388702393e-03,-3.430986680541536771e-06,7.995720952749252319e-04,-8.448068052530288696e-02,4.968417063355445862e-02,1.000000000000000000e+00,8.191466622520238161e-05,0.000000000000000000e+00
1.243620872497558594e+00,6.408203125000000000e+02,1.456169891357421875e+02,1.456169891357421875e+02,-1.729130595922470093e-01,2.381645143032073975e-01,-4.882811626885086298e-04,7.947742938995361328e+00,3.312957286834716797e-02,2.927349669334944338e-06,1.818982362747192383e+00,8.370287716388702393e-03,-3.430986680541536771e-06,7.995720952749252319e-04,-8.448068052530288696e-02,4.968417063355445862e-02,1.000000000000000000e+00,8.191466622520238161e-05,0.000000000000000000e+00
1.243620872497558594e+00,6.408203125000000000e+02,1.456169891357421875e+02,1.456169891357421875e+02,-1.729130595922470093e-01,2.381645143032073975e-01,-4.882811626885086298e-04,7.947742938995361328e+00,3.312957286834716797e-02,2.927349669334944338e-06,1.818982362747192383e+00,8.370287716388702393e-03,-3.430986680541536771e-06,7.995720952749252319e-04,-8.448068052530288696e-02,4.968417063355445862e-02,1.000000000000000000e+00,8.191466622520238161e-05,0.000000000000000000e+00
1.312042951583862305e+00,6.414205322265625000e+02,1.456194610595703125e+02,1.456194610595703125e+02,-1.678792089223861694e-01,2.404205948114395142e-01,-5.187987699173390865e-04,7.997358798980712891e+00,3.334860876202583313e-02,1.106096192415861879e-06,7.251440286636352539e-01,3.201245795935392380e-03,-2.661792132130358368e-05,7.605355931445956230e-04,-4.801831766963005066e-02,1.210224535316228867e-02,0.000000000000000000e+00,-2.251366822747513652e-05,1.000000000000000000e+00
1.312042951583862305e+00,6.414205322265625000e+02,1.456194610595703125e+02,1.456194610595703125e+02,-1.678792089223861694e-01,2.404205948114395142e-01,-5.187987699173390865e-04,7.997358798980712891e+00,3.334860876202583313e-02,1.106096192415861879e-06,7.251440286636352539e-01,3.201245795935392380e-03,-2.661792132130358368e-05,7.605355931445956230e-04,-4.801831766963005066e-02,1.210224535316228867e-02,0.000000000000000000e+00,-2.251366822747513652e-05,1.000000000000000000e+00
1.312042951583862305e+00,6.419610595703125000e+02,1.456217193603515625e+02,1.456217193603515625e+02,-1.674147546291351318e-01,2.385100126266479492e-01,-5.493164062500000000e-04,7.798778533935546875e+00,3.234807774424552917e-02,-9.535438216801139788e-09,-2.793505430221557617e+00,-1.407485641539096832e-02,-1.569402229506522417e-05,2.286926173837855458e-04,2.298695966601371765e-02,-5.606875196099281311e-02,0.000000000000000000e+00,-9.610487177269533277e-05,1.000000000000000000e+00
1.383129358291625977e+00,6.419610595703125000e+02,1.456217193603515625e+02,1.456217193603515625e+02,-1.674147546291351318e-01,2.385100126266479492e-01,-5.493164062500000000e-04,7.798778533935546875e+00,3.234807774424552917e-02,-9.535438216801139788e-09,-2.793505430221557617e+00,-1.407485641539096832e-02,-1.569402229506522417e-05,2.286926173837855458e-04,2.298695966601371765e-02,-5.606875196099281311e-02,0.000000000000000000e+00,-9.610487177269533277e-05,1.000000000000000000e+00
1.383129358291625977e+00,6.419610595703125000e+02,1.456217193603515625e+02,1.456217193603515625e+02,-1.674147546291351318e-01,2.385100126266479492e-01,-5.493164062500000000e-04,7.798778533935546875e+00,3.234807774424552917e-02,-9.535438216801139788e-09,-2.793505430221557617e+00,-1.407485641539096832e-02,-1.569402229506522417e-05,2.286926173837855458e-04,2.298695966601371765e-02,-5.606875196099281311e-02,0.000000000000000000e+00,-9.610487177269533277e-05,1.000000000000000000e+00
1.450951814651489258e+00,6.424969482421875000e+02,1.456240081787109375e+02,1.456240081787109375e+02,-1.721753925085067749e-01,2.313297092914581299e-01,-5.493164062500000000e-04,7.345539569854736328e+00,3.023424372076988220e-02,4.195570397769188276e-07,-6.682726860046386719e+00,-3.116717003285884857e-02,6.326702077785739675e-06,-5.101762362755835056e-04,9.034910798072814941e-02,-1.340675055980682373e-01,0.000000000000000000e+00,-7.543696119682863355e-05,1.000000000000000000e+00
1.450951814651489258e+00,6.424969482421875000e+02,1.456240081787109375e+02,1.456240081787109375e+02,-1.721753925085067749e-01,2.313297092914581299e-01,-5.493164062500000000e-04,7.345539569854736328e+00,3.023424372076988220e-02,4.195570397769188276e-07,-6.682726860046386719e+00,-3.116717003285884857e-02,6.326702077785739675e-06,-5.101762362755835056e-04,9.034910798072814941e-02,-1.340675055980682373e-01,0.000000000000000000e+00,-7.543696119682863355e-05,1.000000000000000000e+00
1.450951814651489258e+00,6.424969482421875000e+02,1.456240081787109375e+02,1.456240081787109375e+02,-1.721753925085067749e-01,2.313297092914581299e-01,-5.493164062500000000e-04,7.345539569854736328e+00,3.023424372076988220e-02,4.195570397769188276e-07,-6.682726860046386719e+00,-3.116717003285884857e-02,6.326702077785739675e-06,-5.101762362755835056e-04,9.034910798072814941e-02,-1.340675055980682373e-01,0.000000000000000000e+00,-7.543696119682863355e-05,1.000000000000000000e+00
1.450951814651489258e+00,6.424969482421875000e+02,1.456240081787109375e+02,1.456240081787109375e+02,-1.721753925085067749e-01,2.313297092914581299e-01,-5.493164062500000000e-04,7.345539569854736328e+00,3.023424372076988220e-02,4.195570397769188276e-07,-6.682726860046386719e+00,-3.116717003285884857e-02,6.326702077785739675e-06,-5.101762362755835056e-04,9.034910798072814941e-02,-1.340675055980682373e-01,0.000000000000000000e+00,-7.543696119682863355e-05,1.000000000000000000e+00
1.527701377868652344e+00,6.429741210937500000e+02,1.456260833740234375e+02,1.456260833740234375e+02,-1.793539226055145264e-01,2.205625474452972412e-01,-5.493163480423390865e-04,6.821462631225585938e+00,2.789903059601783752e-02,-4.281416750018252060e-06,-6.828402996063232422e+00,-3.042640350759029388e-02,-6.125082290964201093e-05,-8.769726264290511608e-04,1.129508838057518005e-01,-1.734472513198852539e-01,0.000000000000000000e+00,1.054704189300537109e-04,1.000000000000000000e+00
1.527701377868652344e+00,6.429741210937500000e+02,1.456260833740234375e+02,1.456260833740234375e+02,-1.793539226055145264e-01,2.205625474452972412e-01,-5.493163480423390865e-04,6.821462631225585938e+00,2.789903059601783752e-02,-4.281416750018252060e-06,-6.828402996063232422e+00,-3.042640350759029388e-02,-6.125082290964201093e-05,-8.769726264290511608e-04,1.129508838057518005e-01,-1.734472513198852539e-01,0.000000000000000000e+00,1.054704189300537109e-04,1.000000000000000000e+00
1.600134611129760742e+00,6.434678955078125000e+02,1.456282043457031250e+02,1.456282043457031250e+02,-1.883492916822433472e-01,2.077166736125946045e-01,-5.187987699173390865e-04,6.168751239776611328e+00,2.501898072659969330e-02,-3.194318423993536271e-06,-9.011214256286621094e+00,-3.976144269108772278e-02,1.500828147982247174e-05,-1.010169275104999542e-03,1.147305890917778015e-01,-1.680169701576232910e-01,0.000000000000000000e+00,3.959937312174588442e-04,1.000000000000000000e+00
1.600134611129760742e+00,6.434678955078125000e+02,1.456282043457031250e+02,1.456282043457031250e+02,-1.883492916822433472e-01,2.077166736125946045e-01,-5.187987699173390865e-04,6.168751239776611328e+00,2.501898072659969330e-02,-3.194318423993536271e-06,-9.011214256286621094e+00,-3.976144269108772278e-02,1.500828147982247174e-05,-1.010169275104999542e-03,1.147305890917778015e-01,-1.680169701576232910e-01,0.000000000000000000e+00,3.959937312174588442e-04,1.000000000000000000e+00
1.600134611129760742e+00,6.434678955078125000e+02,1.456282043457031250e+02,1.456282043457031250e+02,-1.883492916822433472e-01,2.077166736125946045e-01,-5.187987699173390865e-04,6.168751239776611328e+00,2.501898072659969330e-02,-3.194318423993536271e-06,-9.011214256286621094e+00,-3.976144269108772278e-02,1.500828147982247174e-05,-1.010169275104999542e-03,1.147305890917778015e-01,-1.680169701576232910e-01,0.000000000000000000e+00,3.959937312174588442e-04,1.000000000000000000e+00
1.600134611129760742e+00,6.434678955078125000e+02,1.456282043457031250e+02,1.456282043457031250e+02,-1.883492916822433472e-01,2.077166736125946045e-01,-5.187987699173390865e-04,6.168751239776611328e+00,2.501898072659969330e-02,-3.194318423993536271e-06,-9.011214256286621094e+00,-3.976144269108772278e-02,1.500828147982247174e-05,-1.010169275104999542e-03,1.147305890917778015e-01,-1.680169701576232910e-01,0.000000000000000000e+00,3.959937312174588442e-04,1.000000000000000000e+00
1.600134611129760742e+00,6.434678955078125000e+02,1.456282043457031250e+02,1.456282043457031250e+02,-1.883492916822433472e-01,2.077166736125946045e-01,-5.187987699173390865e-04,6.168751239776611328e+00,2.501898072659969330e-02,-3.194318423993536271e-06,-9.011214256286621094e+00,-3.976144269108772278e-02,1.500828147982247174e-05,-1.010169275104999542e-03,1.147305890917778015e-01,-1.680169701576232910e-01,0.000000000000000000e+00,3.959937312174588442e-04,1.000000000000000000e+00
1.600134611129760742e+00,6.438862915039062500e+02,1.456300048828125000e+02,1.456300048828125000e+02,-1.961083859205245972e-01,1.973894834518432617e-01,-5.187987117096781731e-04,5.510659217834472656e+00,2.245205640792846680e-02,-4.872569661529269069e-06,-5.703748703002929688e+00,-2.224778756499290466e-02,-1.454556968383258209e-05,-6.907334318384528160e-04,1.030152365565299988e-01,-1.349750757217407227e-01,0.000000000000000000e+00,8.012182079255580902e-04,1.000000000000000000e+00
1.715513467788696289e+00,6.438862915039062500e+02,1.456300048828125000e+02,1.456300048828125000e+02,-1.961083859205245972e-01,1.973894834518432617e-01,-5.187987117096781731e-04,5.510659217834472656e+00,2.245205640792846680e-02,-4.872569661529269069e-06,-5.703748703002929688e+00,-2.224778756499290466e-02,-1.454556968383258209e-05,-6.907334318384528160e-04,1.030152365565299988e-01,-1.349750757217407227e-01,0.000000000000000000e+00,8.012182079255580902e-04,1.000000000000000000e+00
1.715513467788696289e+00,6.438862915039062500e+02,1.456300048828125000e+02,1.456300048828125000e+02,-1.961083859205245972e-01,1.973894834518432617e-01,-5.187987117096781731e-04,5.510659217834472656e+00,2.245205640792846680e-02,-4.872569661529269069e-06,-5.703748703002929688e+00,-2.224778756499290466e-02,-1.454556968383258209e-05,-6.907334318384528160e-04,1.030152365565299988e-01,-1.349750757217407227e-01,0.000000000000000000e+00,8.012182079255580902e-04,1.000000000000000000e+00
1.715513467788696289e+00,6.438862915039062500e+02,1.456300048828125000e+02,1.456300048828125000e+02,-1.961083859205245972e-01,1.973894834518432617e-01,-5.187987117096781731e-04,5.510659217834472656e+00,2.245205640792846680e-02,-4.872569661529269069e-06,-5.703748703002929688e+00,-2.224778756499290466e-02,-1.454556968383258209e-05,-6.907334318384528160e-04,1.030152365565299988e-01,-1.349750757217407227e-01,0.000000000000000000e+00,8.012182079255580902e-04,1.000000000000000000e+00
1.813115119934082031e+00,6.443823852539062500e+02,1.456321105957031250e+02,1.456321105957031250e+02,-2.049876302480697632e-01,1.857695132493972778e-01,-4.882812208961695433e-04,4.562547206878662109e+00,1.823432557284832001e-02,-1.030055992305278778e-02,-9.714097976684570312e+00,-4.321372509002685547e-02,-1.054868176579475403e-01,-8.166424813680350780e-04,7.122694700956344604e-02,-1.106424033641815186e-01,0.000000000000000000e+00,9.905898477882146835e-04,1.000000000000000000e+00
1.813115119934082031e+00,6.443823852539062500e+02,1.456321105957031250e+02,1.456321105957031250e+02,-2.049876302480697632e-01,1.857695132493972778e-01,-4.882812208961695433e-04,4.562547206878662109e+00,1.823432557284832001e-02,-1.030055992305278778e-02,-9.714097976684570312e+00,-4.321372509002685547e-02,-1.054868176579475403e-01,-8.166424813680350780e-04,7.122694700956344604e-02,-1.106424033641815186e-01,0.000000000000000000e+00,9.905898477882146835e-04,1.000000000000000000e+00
1.813115119934082031e+00,6.443823852539062500e+02,1.456321105957031250e+02,1.456321105957031250e+02,-2.049876302480697632e-01,1.857695132493972778e-01,-4.882812208961695433e-04,4.562547206878662109e+00,1.823432557284832001e-02,-1.030055992305278778e-02,-9.714097976684570312e+00,-4.321372509002685547e-02,-1.054868176579475403e-01,-8.166424813680350780e-04,7.122694700956344604e-02,-1.106424033641815186e-01,0.000000000000000000e+00,9.905898477882146835e-04,1.000000000000000000e+00
1.813115119934082031e+00,6.443823852539062500e+02,1.456321105957031250e+02,1.456321105957031250e+02,-2.049876302480697632e-01,1.857695132493972778e-01,-4.882812208961695433e-04,4.562547206878662109e+00,1.823432557284832001e-02,-1.030055992305278778e-02,-9.714097976684570312e+00,-4.321372509002685547e-02,-1.054868176579475403e-01,-8.166424813680350780e-04,7.122694700956344604e-02,-1.106424033641815186e-01,0.000000000000000000e+00,9.905898477882146835e-04,1.000000000000000000e+00
1.896134853363037109e+00,6.447736816406250000e+02,1.456337738037109375e+02,1.456337738037109375e+02,-2.114011794328689575e-01,1.776173561811447144e-01,-4.577636136673390865e-04,3.614286422729492188e+00,1.456037629395723343e-02,-1.970237586647272110e-03,-1.142211341857910156e+01,-4.425392672419548035e-02,1.003414765000343323e-01,-3.280260425526648760e-04,5.949890241026878357e-02,-7.417371124029159546e-02,0.000000000000000000e+00,1.338063622824847698e-03,1.000000000000000000e+00
1.896134853363037109e+00,6.447736816406250000e+02,1.456337738037109375e+02,1.456337738037109375e+02,-2.114011794328689575e-01,1.776173561811447144e-01,-4.577636136673390865e-04,3.614286422729492188e+00,1.456037629395723343e-02,-1.970237586647272110e-03,-1.142211341857910156e+01,-4.425392672419548035e-02,1.003414765000343323e-01,-3.280260425526648760e-04,5.949890241026878357e-02,-7.417371124029159546e-02,0.000000000000000000e+00,1.338063622824847698e-03,1.000000000000000000e+00
1.896134853363037109e+00,6.447736816406250000e+02,1.456337738037109375e+02,1.456337738037109375e+02,-2.114011794328689575e-01,1.776173561811447144e-01,-4.577636136673390865e-04,3.614286422729492188e+00,1.456037629395723343e-02,-1.970237586647272110e-03,-1.142211341857910156e+01,-4.425392672419548035e-02,1.003414765000343323e-01,-3.280260425526648760e-04,5.949890241026878357e-02,-7.417371124029159546e-02,0.000000000000000000e+00,1.338063622824847698e-03,1.000000000000000000e+00
1.896134853363037109e+00,6.447736816406250000e+02,1.456337738037109375e+02,1.456337738037109375e+02,-2.114011794328689575e-01,1.776173561811447144e-01,-4.577636136673390865e-04,3.614286422729492188e+00,1.456037629395723343e-02,-1.970237586647272110e-03,-1.142211341857910156e+01,-4.425392672419548035e-02,1.003414765000343323e-01,-3.280260425526648760e-04,5.949890241026878357e-02,-7.417371124029159546e-02,0.000000000000000000e+00,1.338063622824847698e-03,1.000000000000000000e+00
1.896134853363037109e+00,6.447736816406250000e+02,1.456337738037109375e+02,1.456337738037109375e+02,-2.114011794328689575e-01,1.776173561811447144e-01,-4.577636136673390865e-04,3.614286422729492188e+00,1.456037629395723343e-02,-1.970237586647272110e-03,-1.142211341857910156e+01,-4.425392672419548035e-02,1.003414765000343323e-01,-3.280260425526648760e-04,5.949890241026878357e-02,-7.417371124029159546e-02,0.000000000000000000e+00,1.338063622824847698e-03,1.000000000000000000e+00
1.896134853363037109e+00,6.447736816406250000e+02,1.456337738037109375e+02,1.456337738037109375e+02,-2.114011794328689575e-01,1.776173561811447144e-01,-4.577636136673390865e-04,3.614286422729492188e+00,1.456037629395723343e-02,-1.970237586647272110e-03,-1.142211341857910156e+01,-4.425392672419548035e-02,1.003414765000343323e-01,-3.280260425526648760e-04,5.949890241026878357e-02,-7.417371124029159546e-02,0.000000000000000000e+00,1.338063622824847698e-03,1.000000000000000000e+00
1.896134853363037109e+00,6.447736816406250000e+02,1.456337738037109375e+02,1.456337738037109375e+02,-2.114011794328689575e-01,1.776173561811447144e-01,-4.577636136673390865e-04,3.614286422729492188e+00,1.456037629395723343e-02,-1.970237586647272110e-03,-1.142211341857910156e+01,-4.425392672419548035e-02,1.003414765000343323e-01,-3.280260425526648760e-04,5.949890241026878357e-02,-7.417371124029159546e-02,0.000000000000000000e+00,1.338063622824847698e-03,1.000000000000000000e+00
2.195794820785522461e+00,6.453865966796875000e+02,1.456364593505859375e+02,1.456364593505859375e+02,-2.174390554428100586e-01,1.664631962776184082e-01,-4.882812500000000000e-04,1.132992267608642578e+00,4.807119723409414291e-03,2.158202463760972023e-03,-1.416826438903808594e+01,-5.785398557782173157e-02,2.260891906917095184e-02,8.679291931912302971e-04,-1.661591045558452606e-02,-1.219587549567222595e-01,0.000000000000000000e+00,1.912287552841007710e-03,1.000000000000000000e+00
2.195794820785522461e+00,6.453865966796875000e+02,1.456364593505859375e+02,1.456364593505859375e+02,-2.174390554428100586e-01,1.664631962776184082e-01,-4.882812500000000000e-04,1.132992267608642578e+00,4.807119723409414291e-03,2.158202463760972023e-03,-1.416826438903808594e+01,-5.785398557782173157e-02,2.260891906917095184e-02,8.679291931912302971e-04,-1.661591045558452606e-02,-1.219587549567222595e-01,0.000000000000000000e+00,1.912287552841007710e-03,1.000000000000000000e+00
2.195794820785522461e+00,6.453865966796875000e+02,1.456364593505859375e+02,1.456364593505859375e+02,-2.174390554428100586e-01,1.664631962776184082e-01,-4.882812500000000000e-04,1.132992267608642578e+00,4.807119723409414291e-03,2.158202463760972023e-03,-1.416826438903808594e+01,-5.785398557782173157e-02,2.260891906917095184e-02,8.679291931912302971e-04,-1.661591045558452606e-02,-1.219587549567222595e-01,0.000000000000000000e+00,1.912287552841007710e-03,1.000000000000000000e+00
2.195794820785522461e+00,6.453865966796875000e+02,1.456364593505859375e+02,1.456364593505859375e+02,-2.174390554428100586e-01,1.664631962776184082e-01,-4.882812500000000000e-04,1.132992267608642578e+00,4.807119723409414291e-03,2.158202463760972023e-03,-1.416826438903808594e+01,-5.785398557782173157e-02,2.260891906917095184e-02,8.679291931912302971e-04,-1.661591045558452606e-02,-1.219587549567222595e-01,0.000000000000000000e+00,1.912287552841007710e-03,1.000000000000000000e+00
2.195794820785522461e+00,6.453865966796875000e+02,1.456364593505859375e+02,1.456364593505859375e+02,-2.174390554428100586e-01,1.664631962776184082e-01,-4.882812500000000000e-04,1.132992267608642578e+00,4.807119723409414291e-03,2.158202463760972023e-03,-1.416826438903808594e+01,-5.785398557782173157e-02,2.260891906917095184e-02,8.679291931912302971e-04,-1.661591045558452606e-02,-1.219587549567222595e-01,0.000000000000000000e+00,1.912287552841007710e-03,1.000000000000000000e+00
2.195794820785522461e+00,6.453865966796875000e+02,1.456364593505859375e+02,1.456364593505859375e+02,-2.174390554428100586e-01,1.664631962776184082e-01,-4.882812500000000000e-04,1.132992267608642578e+00,4.807119723409414291e-03,2.158202463760972023e-03,-1.416826438903808594e+01,-5.785398557782173157e-02,2.260891906917095184e-02,8.679291931912302971e-04,-1.661591045558452606e-02,-1.219587549567222595e-01,0.000000000000000000e+00,1.912287552841007710e-03,1.000000000000000000e+00
2.195794820785522461e+00,6.453865966796875000e+02,1.456364593505859375e+02,1.456364593505859375e+02,-2.174390554428100586e-01,1.664631962776184082e-01,-4.882812500000000000e-04,1.132992267608642578e+00,4.807119723409414291e-03,2.158202463760972023e-03,-1.416826438903808594e+01,-5.785398557782173157e-02,2.260891906917095184e-02,8.679291931912302971e-04,-1.661591045558452606e-02,-1.219587549567222595e-01,0.000000000000000000e+00,1.912287552841007710e-03,1.000000000000000000e+00
2.195794820785522461e+00,6.453865966796875000e+02,1.456364593505859375e+02,1.456364593505859375e+02,-2.174390554428100586e-01,1.664631962776184082e-01,-4.882812500000000000e-04,1.132992267608642578e+00,4.807119723409414291e-03,2.158202463760972023e-03,-1.416826438903808594e+01,-5.785398557782173157e-02,2.260891906917095184e-02,8.679291931912302971e-04,-1.661591045558452606e-02,-1.219587549567222595e-01,0.000000000000000000e+00,1.912287552841007710e-03,1.000000000000000000e+00
2.195794820785522461e+00,6.453865966796875000e+02,1.456364593505859375e+02,1.456364593505859375e+02,-2.174390554428100586e-01,1.664631962776184082e-01,-4.882812500000000000e-04,1.132992267608642578e+00,4.807119723409414291e-03,2.158202463760972023e-03,-1.416826438903808594e+01,-5.785398557782173157e-02,2.260891906917095184e-02,8.679291931912302971e-04,-1.661591045558452606e-02,-1.219587549567222595e-01,0.000000000000000000e+00,1.912287552841007710e-03,1.000000000000000000e+00
2.195794820785522461e+00,6.453865966796875000e+02,1.456364593505859375e+02,1.456364593505859375e+02,-2.174390554428100586e-01,1.664631962776184082e-01,-4.882812500000000000e-04,1.132992267608642578e+00,4.807119723409414291e-03,2.158202463760972023e-03,-1.416826438903808594e+01,-5.785398557782173157e-02,2.260891906917095184e-02,8.679291931912302971e-04,-1.661591045558452606e-02,-1.219587549567222595e-01,0.000000000000000000e+00,1.912287552841007710e-03,1.000000000000000000e+00
2.374083757400512695e+00,6.454248046875000000e+02,1.456364593505859375e+02,1.456364593505859375e+02,-2.201848030090332031e-01,1.820811182260513306e-01,-1.831054833019152284e-04,4.156006574630737305e-01,1.793200499378144741e-03,2.391879213973879814e-03,-4.023758411407470703e+00,-1.690468937158584595e-02,1.310663181357085705e-03,-3.886822611093521118e-03,1.081394404172897339e-01,-5.605144426226615906e-03,0.000000000000000000e+00,2.016898943111300468e-03,1.000000000000000000e+00
2.374083757400512695e+00,6.454248046875000000e+02,1.456364593505859375e+02,1.456364593505859375e+02,-2.201848030090332031e-01,1.820811182260513306e-01,-1.831054833019152284e-04,4.156006574630737305e-01,1.793200499378144741e-03,2.391879213973879814e-03,-4.023758411407470703e+00,-1.690468937158584595e-02,1.310663181357085705e-03,-3.886822611093521118e-03,1.081394404172897339e-01,-5.605144426226615906e-03,0.000000000000000000e+00,2.016898943111300468e-03,1.000000000000000000e+00
2.374083757400512695e+00,6.454248046875000000e+02,1.456364593505859375e+02,1.456364593505859375e+02,-2.201848030090332031e-01,1.820811182260513306e-01,-1.831054833019152284e-04,4.156006574630737305e-01,1.793200499378144741e-03,2.391879213973879814e-03,-4.023758411407470703e+00,-1.690468937158584595e-02,1.310663181357085705e-03,-3.886822611093521118e-03,1.081394404172897339e-01,-5.605144426226615906e-03,0.000000000000000000e+00,2.016898943111300468e-03,1.000000000000000000e+00
2.447860002517700195e+00,6.454277954101562500e+02,1.456364746093750000e+02,1.456364746093750000e+02,-2.224114388227462769e-01,1.822733134031295776e-01,0.000000000000000000e+00,-2.181935087719466537e-06,-6.005083719173853751e-07,-8.434224873781204224e-04,-5.633287906646728516e+00,-2.431407198309898376e-02,-4.385289177298545837e-02,-3.528341039782389998e-05,-8.975106477737426758e-02,-3.630857463576830924e-06,0.000000000000000000e+00,1.373504288494586945e-03,1.000000000000000000e+00
2.447860002517700195e+00,6.454277954101562500e+02,1.456364746093750000e+02,1.456364746093750000e+02,-2.224114388227462769e-01,1.822733134031295776e-01,0.000000000000000000e+00,-2.181935087719466537e-06,-6.005083719173853751e-07,-8.434224873781204224e-04,-5.633287906646728516e+00,-2.431407198309898376e-02,-4.385289177298545837e-02,-3.528341039782389998e-05,-8.975106477737426758e-02,-3.630857463576830924e-06,0.000000000000000000e+00,1.373504288494586945e-03,1.000000000000000000e+00
2.500878810882568359e+00,6.454278564453125000e+02,1.456364746093750000e+02,1.456364746093750000e+02,-2.131975144147872925e-01,1.822726577520370483e-01,-6.103512714616954327e-05,-1.700326606624003034e-06,3.187514607816410717e-07,1.263050595298409462e-03,9.083728400582913309e-06,1.733837234496604651e-05,3.973067551851272583e-02,1.368688768707215786e-03,-1.356048732995986938e-01,-1.383564085699617863e-05,0.000000000000000000e+00,1.368223573081195354e-03,1.000000000000000000e+00
2.500878810882568359e+00,6.454278564453125000e+02,1.456364746093750000e+02,1.456364746093750000e+02,-2.131975144147872925e-01,1.822726577520370483e-01,-6.103512714616954327e-05,-1.700326606624003034e-06,3.187514607816410717e-07,1.263050595298409462e-03,9.083728400582913309e-06,1.733837234496604651e-05,3.973067551851272583e-02,1.368688768707215786e-03,-1.356048732995986938e-01,-1.383564085699617863e-05,0.000000000000000000e+00,1.368223573081195354e-03,1.000000000000000000e+00
2.500878810882568359e+00,6.454278564453125000e+02,1.456364746093750000e+02,1.456364746093750000e+02,-2.131975144147872925e-01,1.822726577520370483e-01,-6.103512714616954327e-05,-1.700326606624003034e-06,3.187514607816410717e-07,1.263050595298409462e-03,9.083728400582913309e-06,1.733837234496604651e-05,3.973067551851272583e-02,1.368688768707215786e-03,-1.356048732995986938e-01,-1.383564085699617863e-05,0.000000000000000000e+00,1.368223573081195354e-03,1.000000000000000000e+00
2.560195446014404297e+00,6.454279174804687500e+02,1.456364746093750000e+02,1.456364746093750000e+02,-2.061760723590850830e-01,1.822721958160400391e-01,-1.220703416038304567e-04,-2.102985490637365729e-06,6.073029794606554788e-07,1.913389191031455994e-03,-6.788296104787150398e-06,4.864597030973527580e-06,1.096384786069393158e-02,1.635217340663075447e-03,-1.286440193653106689e-01,-1.442989105271408334e-05,0.000000000000000000e+00,1.368238241411745548e-03,1.000000000000000000e+00
2.560195446014404297e+00,6.454279174804687500e+02,1.456364746093750000e+02,1.456364746093750000e+02,-2.061760723590850830e-01,1.822721958160400391e-01,-1.220703416038304567e-04,-2.102985490637365729e-06,6.073029794606554788e-07,1.913389191031455994e-03,-6.788296104787150398e-06,4.864597030973527580e-06,1.096384786069393158e-02,1.635217340663075447e-03,-1.286440193653106689e-01,-1.442989105271408334e-05,0.000000000000000000e+00,1.368238241411745548e-03,1.000000000000000000e+00
2.560195446014404297e+00,6.454279785156250000e+02,1.456364746093750000e+02,1.456364746093750000e+02,-1.991819590330123901e-01,1.822717189788818359e-01,-1.831054687500000000e-04,-1.479389311498380266e-06,5.704731051991984714e-07,-3.768838359974324703e-04,1.065337164618540555e-05,-6.291929821600206196e-07,-3.912649303674697876e-02,1.614173757843673229e-03,-1.105146631598472595e-01,-1.257176609215093777e-05,0.000000000000000000e+00,1.368248485960066319e-03,1.000000000000000000e+00
2.618730545043945312e+00,6.454279785156250000e+02,1.456364746093750000e+02,1.456364746093750000e+02,-1.991819590330123901e-01,1.822717189788818359e-01,-1.831054687500000000e-04,-1.479389311498380266e-06,5.704731051991984714e-07,-3.768838359974324703e-04,1.065337164618540555e-05,-6.291929821600206196e-07,-3.912649303674697876e-02,1.614173757843673229e-03,-1.105146631598472595e-01,-1.257176609215093777e-05,0.000000000000000000e+00,1.368248485960066319e-03,1.000000000000000000e+00
2.618730545043945312e+00,6.454279785156250000e+02,1.456364746093750000e+02,1.456364746093750000e+02,-1.934855878353118896e-01,1.822712570428848267e-01,-2.746582031250000000e-04,-1.380317257826391142e-06,5.014605335418309551e-07,-7.241142884595319629e-05,1.690547719590540510e-06,-1.177618059955420904e-06,5.195462144911289215e-03,1.419053645804524422e-03,-8.963426947593688965e-02,-1.034941396937938407e-05,0.000000000000000000e+00,1.368258730508387089e-03,1.000000000000000000e+00
2.677334070205688477e+00,6.454279785156250000e+02,1.456364746093750000e+02,1.456364746093750000e+02,-1.934855878353118896e-01,1.822712570428848267e-01,-2.746582031250000000e-04,-1.380317257826391142e-06,5.014605335418309551e-07,-7.241142884595319629e-05,1.690547719590540510e-06,-1.177618059955420904e-06,5.195462144911289215e-03,1.419053645804524422e-03,-8.963426947593688965e-02,-1.034941396937938407e-05,0.000000000000000000e+00,1.368258730508387089e-03,1.000000000000000000e+00
2.677334070205688477e+00,6.454279785156250000e+02,1.456364746093750000e+02,1.456364746093750000e+02,-1.934855878353118896e-01,1.822712570428848267e-01,-2.746582031250000000e-04,-1.380317257826391142e-06,5.014605335418309551e-07,-7.241142884595319629e-05,1.690547719590540510e-06,-1.177618059955420904e-06,5.195462144911289215e-03,1.419053645804524422e-03,-8.963426947593688965e-02,-1.034941396937938407e-05,0.000000000000000000e+00,1.368258730508387089e-03,1.000000000000000000e+00
2.677334070205688477e+00,6.454279785156250000e+02,1.456364746093750000e+02,1.456364746093750000e+02,-1.934855878353118896e-01,1.822712570428848267e-01,-2.746582031250000000e-04,-1.380317257826391142e-06,5.014605335418309551e-07,-7.241142884595319629e-05,1.690547719590540510e-06,-1.177618059955420904e-06,5.195462144911289215e-03,1.419053645804524422e-03,-8.963426947593688965e-02,-1.034941396937938407e-05,0.000000000000000000e+00,1.368258730508387089e-03,1.000000000000000000e+00
2.755024909973144531e+00,6.454279785156250000e+02,1.456364746093750000e+02,1.456364746093750000e+02,-1.889298558235168457e-01,1.822709739208221436e-01,-3.051757521461695433e-04,-1.185139808512758464e-06,4.087568754584935959e-07,-8.926037844503298402e-05,2.512232413209858350e-06,-1.193237949337344617e-06,-2.168717619497328997e-04,1.124963164329528809e-03,-7.093527913093566895e-02,-8.037286534090526402e-06,0.000000000000000000e+00,1.371402526274323463e-03,1.000000000000000000e+00
2.755024909973144531e+00,6.454279785156250000e+02,1.456364746093750000e+02,1.456364746093750000e+02,-1.889298558235168457e-01,1.822709739208221436e-01,-3.051757521461695433e-04,-1.185139808512758464e-06,4.087568754584935959e-07,-8.926037844503298402e-05,2.512232413209858350e-06,-1.193237949337344617e-06,-2.168717619497328997e-04,1.124963164329528809e-03,-7.093527913093566895e-02,-8.037286534090526402e-06,0.000000000000000000e+00,1.371402526274323463e-03,1.000000000000000000e+00
2.755024909973144531e+00,6.454279785156250000e+02,1.456364746093750000e+02,1.456364746093750000e+02,-1.889298558235168457e-01,1.822709739208221436e-01,-3.051757521461695433e-04,-1.185139808512758464e-06,4.087568754584935959e-07,-8.926037844503298402e-05,2.512232413209858350e-06,-1.193237949337344617e-06,-2.168717619497328997e-04,1.124963164329528809e-03,-7.093527913093566895e-02,-8.037286534090526402e-06,0.000000000000000000e+00,1.371402526274323463e-03,1.000000000000000000e+00
2.830169916152954102e+00,6.454280395507812500e+02,1.456364746093750000e+02,1.456364746093750000e+02,-1.865256279706954956e-01,1.822708994150161743e-01,-3.356933011673390865e-04,-9.315128295384056401e-07,8.154459862907970091e-08,-1.774130651028826833e-04,3.375167352714925073e-06,-4.354410975793143734e-06,-1.173101016320288181e-03,3.777327365241944790e-04,-3.423451259732246399e-02,-3.071419314437662251e-06,0.000000000000000000e+00,1.371408463455736637e-03,1.000000000000000000e+00
2.830169916152954102e+00,6.454280395507812500e+02,1.456364746093750000e+02,1.456364746093750000e+02,-1.865256279706954956e-01,1.822708994150161743e-01,-3.356933011673390865e-04,-9.315128295384056401e-07,8.154459862907970091e-08,-1.774130651028826833e-04,3.375167352714925073e-06,-4.354410975793143734e-06,-1.173101016320288181e-03,3.777327365241944790e-04,-3.423451259732246399e-02,-3.071419314437662251e-06,0.000000000000000000e+00,1.371408463455736637e-03,1.000000000000000000e+00
2.830169916152954102e+00,6.454280395507812500e+02,1.456364746093750000e+02,1.456364746093750000e+02,-1.865256279706954956e-01,1.822708994150161743e-01,-3.356933011673390865e-04,-9.315128295384056401e-07,8.154459862907970091e-08,-1.774130651028826833e-04,3.375167352714925073e-06,-4.354410975793143734e-06,-1.173101016320288181e-03,3.777327365241944790e-04,-3.423451259732246399e-02,-3.071419314437662251e-06,0.000000000000000000e+00,1.371408463455736637e-03,1.000000000000000000e+00
2.830169916152954102e+00,6.454280395507812500e+02,1.456364746093750000e+02,1.456364746093750000e+02,-1.865256279706954956e-01,1.822708994150161743e-01,-3.356933011673390865e-04,-9.315128295384056401e-07,8.154459862907970091e-08,-1.774130651028826833e-04,3.375167352714925073e-06,-4.354410975793143734e-06,-1.173101016320288181e-03,3.777327365241944790e-04,-3.423451259732246399e-02,-3.071419314437662251e-06,0.000000000000000000e+00,1.371408463455736637e-03,1.000000000000000000e+00
2.830169916152954102e+00,6.454280395507812500e+02,1.456364746093750000e+02,1.456364746093750000e+02,-1.865256279706954956e-01,1.822708994150161743e-01,-3.356933011673390865e-04,-9.315128295384056401e-07,8.154459862907970091e-08,-1.774130651028826833e-04,3.375167352714925073e-06,-4.354410975793143734e-06,-1.173101016320288181e-03,3.777327365241944790e-04,-3.423451259732246399e-02,-3.071419314437662251e-06,0.000000000000000000e+00,1.371408463455736637e-03,1.000000000000000000e+00
2.917726278305053711e+00,6.454280395507812500e+02,1.456364746093750000e+02,1.456364746093750000e+02,-1.836296319961547852e-01,1.822706758975982666e-01,-3.662109375000000000e-04,-8.120642860376392491e-07,1.342957318684057100e-07,2.014620404224842787e-04,1.364247395940765273e-06,6.024819754202326294e-07,4.327213857322931290e-03,5.797675112262368202e-04,-3.851582854986190796e-02,-4.050303232361329719e-06,0.000000000000000000e+00,1.371410442516207695e-03,1.000000000000000000e+00
