# Time,X,Y,Z,Roll,Pitch,Yaw,Vx,Vy,Vz,Ax,Ay,Az,Wx,Wy,Wz,Throttle,Steer,Brake
0.000000000000000000e+00,1.300872039794921875e+01,3.121630249023437500e+02,3.121630249023437500e+02,1.033885702490806580e-01,-8.938769531250000000e+01,1.127549912780523300e-04,5.846124887466430664e-02,-5.584290027618408203e+00,2.412454932709806599e-06,3.380166366696357727e-03,1.908546388149261475e-01,-1.941949631145689636e-05,-5.617186799645423889e-02,-7.488227449357509613e-03,1.337663054466247559e+00,5.000000000000000000e-01,-2.419608063064515591e-05,0.000000000000000000e+00
1.045818328857421875e-01,1.300872039794921875e+01,3.121630249023437500e+02,3.121630249023437500e+02,1.033885702490806580e-01,-8.938769531250000000e+01,1.127549912780523300e-04,5.846124887466430664e-02,-5.584290027618408203e+00,2.412454932709806599e-06,3.380166366696357727e-03,1.908546388149261475e-01,-1.941949631145689636e-05,-5.617186799645423889e-02,-7.488227449357509613e-03,1.337663054466247559e+00,5.000000000000000000e-01,-2.419608063064515591e-05,0.000000000000000000e+00
1.045818328857421875e-01,1.300872039794921875e+01,3.121630249023437500e+02,3.121630249023437500e+02,1.033885702490806580e-01,-8.938769531250000000e+01,1.127549912780523300e-04,5.846124887466430664e-02,-5.584290027618408203e+00,2.412454932709806599e-06,3.380166366696357727e-03,1.908546388149261475e-01,-1.941949631145689636e-05,-5.617186799645423889e-02,-7.488227449357509613e-03,1.337663054466247559e+00,5.000000000000000000e-01,-2.419608063064515591e-05,0.000000000000000000e+00
1.045818328857421875e-01,1.300872039794921875e+01,3.121630249023437500e+02,3.121630249023437500e+02,1.033885702490806580e-01,-8.938769531250000000e+01,1.127549912780523300e-04,5.846124887466430664e-02,-5.584290027618408203e+00,2.412454932709806599e-06,3.380166366696357727e-03,1.908546388149261475e-01,-1.941949631145689636e-05,-5.617186799645423889e-02,-7.488227449357509613e-03,1.337663054466247559e+00,5.000000000000000000e-01,-2.419608063064515591e-05,0.000000000000000000e+00
1.045818328857421875e-01,1.300872039794921875e+01,3.121630249023437500e+02,3.121630249023437500e+02,1.033885702490806580e-01,-8.938769531250000000e+01,1.127549912780523300e-04,5.846124887466430664e-02,-5.584290027618408203e+00,2.412454932709806599e-06,3.380166366696357727e-03,1.908546388149261475e-01,-1.941949631145689636e-05,-5.617186799645423889e-02,-7.488227449357509613e-03,1.337663054466247559e+00,5.000000000000000000e-01,-2.419608063064515591e-05,0.000000000000000000e+00
1.045818328857421875e-01,1.300872039794921875e+01,3.121630249023437500e+02,3.121630249023437500e+02,1.033885702490806580e-01,-8.938769531250000000e+01,1.127549912780523300e-04,5.846124887466430664e-02,-5.584290027618408203e+00,2.412454932709806599e-06,3.380166366696357727e-03,1.908546388149261475e-01,-1.941949631145689636e-05,-5.617186799645423889e-02,-7.488227449357509613e-03,1.337663054466247559e+00,5.000000000000000000e-01,-2.419608063064515591e-05,0.000000000000000000e+00
1.045818328857421875e-01,1.301448249816894531e+01,3.116080322265625000e+02,3.116080322265625000e+02,1.004925668239593506e-01,-8.937896728515625000e+01,8.673152478877454996e-05,5.752148479223251343e-02,-5.515991210937500000e+00,-4.386170644465892110e-07,-8.975015021860599518e-03,6.522731781005859375e-01,-2.722855060710571706e-05,1.049376502633094788e-01,-4.506570752710103989e-03,2.589253187179565430e+00,5.000000000000000000e-01,2.397809794274508022e-06,0.000000000000000000e+00
2.092907428741455078e-01,1.301448249816894531e+01,3.116080322265625000e+02,3.116080322265625000e+02,1.004925668239593506e-01,-8.937896728515625000e+01,8.673152478877454996e-05,5.752148479223251343e-02,-5.515991210937500000e+00,-4.386170644465892110e-07,-8.975015021860599518e-03,6.522731781005859375e-01,-2.722855060710571706e-05,1.049376502633094788e-01,-4.506570752710103989e-03,2.589253187179565430e+00,5.000000000000000000e-01,2.397809794274508022e-06,0.000000000000000000e+00
2.092907428741455078e-01,1.301448249816894531e+01,3.116080322265625000e+02,3.116080322265625000e+02,1.004925668239593506e-01,-8.937896728515625000e+01,8.673152478877454996e-05,5.752148479223251343e-02,-5.515991210937500000e+00,-4.386170644465892110e-07,-8.975015021860599518e-03,6.522731781005859375e-01,-2.722855060710571706e-05,1.049376502633094788e-01,-4.506570752710103989e-03,2.589253187179565430e+00,5.000000000000000000e-01,2.397809794274508022e-06,0.000000000000000000e+00
2.092907428741455078e-01,1.301448249816894531e+01,3.116080322265625000e+02,3.116080322265625000e+02,1.004925668239593506e-01,-8.937896728515625000e+01,8.673152478877454996e-05,5.752148479223251343e-02,-5.515991210937500000e+00,-4.386170644465892110e-07,-8.975015021860599518e-03,6.522731781005859375e-01,-2.722855060710571706e-05,1.049376502633094788e-01,-4.506570752710103989e-03,2.589253187179565430e+00,5.000000000000000000e-01,2.397809794274508022e-06,0.000000000000000000e+00
2.092907428741455078e-01,1.301448249816894531e+01,3.116080322265625000e+02,3.116080322265625000e+02,1.004925668239593506e-01,-8.937896728515625000e+01,8.673152478877454996e-05,5.752148479223251343e-02,-5.515991210937500000e+00,-4.386170644465892110e-07,-8.975015021860599518e-03,6.522731781005859375e-01,-2.722855060710571706e-05,1.049376502633094788e-01,-4.506570752710103989e-03,2.589253187179565430e+00,5.000000000000000000e-01,2.397809794274508022e-06,0.000000000000000000e+00
2.092907428741455078e-01,1.302019119262695312e+01,3.110600585937500000e+02,3.110600585937500000e+02,9.596415609121322632e-02,-8.937973022460937500e+01,4.307360795792192221e-04,5.665020644664764404e-02,-5.470157146453857422e+00,1.544694896438159049e-06,-1.167642697691917419e-02,6.142446994781494141e-01,2.657933146110735834e-05,-7.087140530347824097e-02,-3.712357720360159874e-03,2.615152835845947266e+00,1.000000000000000000e+00,-9.852818038780242205e-05,0.000000000000000000e+00
2.839093208312988281e-01,1.302019119262695312e+01,3.110600585937500000e+02,3.110600585937500000e+02,9.596415609121322632e-02,-8.937973022460937500e+01,4.307360795792192221e-04,5.665020644664764404e-02,-5.470157146453857422e+00,1.544694896438159049e-06,-1.167642697691917419e-02,6.142446994781494141e-01,2.657933146110735834e-05,-7.087140530347824097e-02,-3.712357720360159874e-03,2.615152835845947266e+00,1.000000000000000000e+00,-9.852818038780242205e-05,0.000000000000000000e+00
2.839093208312988281e-01,1.302019119262695312e+01,3.110600585937500000e+02,3.110600585937500000e+02,9.596415609121322632e-02,-8.937973022460937500e+01,4.307360795792192221e-04,5.665020644664764404e-02,-5.470157146453857422e+00,1.544694896438159049e-06,-1.167642697691917419e-02,6.142446994781494141e-01,2.657933146110735834e-05,-7.087140530347824097e-02,-3.712357720360159874e-03,2.615152835845947266e+00,1.000000000000000000e+00,-9.852818038780242205e-05,0.000000000000000000e+00
2.839093208312988281e-01,1.302019119262695312e+01,3.110600585937500000e+02,3.110600585937500000e+02,9.596415609121322632e-02,-8.937973022460937500e+01,4.307360795792192221e-04,5.665020644664764404e-02,-5.470157146453857422e+00,1.544694896438159049e-06,-1.167642697691917419e-02,6.142446994781494141e-01,2.657933146110735834e-05,-7.087140530347824097e-02,-3.712357720360159874e-03,2.615152835845947266e+00,1.000000000000000000e+00,-9.852818038780242205e-05,0.000000000000000000e+00
2.839093208312988281e-01,1.302019119262695312e+01,3.110600585937500000e+02,3.110600585937500000e+02,9.596415609121322632e-02,-8.937973022460937500e+01,4.307360795792192221e-04,5.665020644664764404e-02,-5.470157146453857422e+00,1.544694896438159049e-06,-1.167642697691917419e-02,6.142446994781494141e-01,2.657933146110735834e-05,-7.087140530347824097e-02,-3.712357720360159874e-03,2.615152835845947266e+00,1.000000000000000000e+00,-9.852818038780242205e-05,0.000000000000000000e+00
3.569011688232421875e-01,1.302467727661132812e+01,3.106471252441406250e+02,3.106471252441406250e+02,1.262833625078201294e-01,-8.940715789794921875e+01,1.151463293354026973e-04,5.884788557887077332e-02,-5.593299865722656250e+00,-5.616303496935870498e-06,3.010855615139007568e-02,-1.687075018882751465e+00,-9.810682240640744567e-05,-6.503279805183410645e-01,-1.187257096171379089e-02,-1.381091713905334473e+00,1.000000000000000000e+00,-4.217965397401712835e-05,0.000000000000000000e+00
3.569011688232421875e-01,1.302467727661132812e+01,3.106471252441406250e+02,3.106471252441406250e+02,1.262833625078201294e-01,-8.940715789794921875e+01,1.151463293354026973e-04,5.884788557887077332e-02,-5.593299865722656250e+00,-5.616303496935870498e-06,3.010855615139007568e-02,-1.687075018882751465e+00,-9.810682240640744567e-05,-6.503279805183410645e-01,-1.187257096171379089e-02,-1.381091713905334473e+00,1.000000000000000000e+00,-4.217965397401712835e-05,0.000000000000000000e+00
3.569011688232421875e-01,1.302467727661132812e+01,3.106471252441406250e+02,3.106471252441406250e+02,1.262833625078201294e-01,-8.940715789794921875e+01,1.151463293354026973e-04,5.884788557887077332e-02,-5.593299865722656250e+00,-5.616303496935870498e-06,3.010855615139007568e-02,-1.687075018882751465e+00,-9.810682240640744567e-05,-6.503279805183410645e-01,-1.187257096171379089e-02,-1.381091713905334473e+00,1.000000000000000000e+00,-4.217965397401712835e-05,0.000000000000000000e+00
3.569011688232421875e-01,1.302467727661132812e+01,3.106471252441406250e+02,3.106471252441406250e+02,1.262833625078201294e-01,-8.940715789794921875e+01,1.151463293354026973e-04,5.884788557887077332e-02,-5.593299865722656250e+00,-5.616303496935870498e-06,3.010855615139007568e-02,-1.687075018882751465e+00,-9.810682240640744567e-05,-6.503279805183410645e-01,-1.187257096171379089e-02,-1.381091713905334473e+00,1.000000000000000000e+00,-4.217965397401712835e-05,0.000000000000000000e+00
4.765405654907226562e-01,1.302901554107666016e+01,3.102285461425781250e+02,3.102285461425781250e+02,1.892918497323989868e-01,-8.939205932617187500e+01,-7.019058102741837502e-04,6.158958375453948975e-02,-5.817211627960205078e+00,-1.741155028867069632e-05,2.291634865105152130e-02,-1.871555447578430176e+00,-9.858998964773491025e-05,-9.112154841423034668e-01,-2.104913815855979919e-02,5.454334616661071777e-01,5.000000000000000000e-01,1.718793646432459354e-04,0.000000000000000000e+00
4.765405654907226562e-01,1.302901554107666016e+01,3.102285461425781250e+02,3.102285461425781250e+02,1.892918497323989868e-01,-8.939205932617187500e+01,-7.019058102741837502e-04,6.158958375453948975e-02,-5.817211627960205078e+00,-1.741155028867069632e-05,2.291634865105152130e-02,-1.871555447578430176e+00,-9.858998964773491025e-05,-9.112154841423034668e-01,-2.104913815855979919e-02,5.454334616661071777e-01,5.000000000000000000e-01,1.718793646432459354e-04,0.000000000000000000e+00
4.765405654907226562e-01,1.302901554107666016e+01,3.102285461425781250e+02,3.102285461425781250e+02,1.892918497323989868e-01,-8.939205932617187500e+01,-7.019058102741837502e-04,6.158958375453948975e-02,-5.817211627960205078e+00,-1.741155028867069632e-05,2.291634865105152130e-02,-1.871555447578430176e+00,-9.858998964773491025e-05,-9.112154841423034668e-01,-2.104913815855979919e-02,5.454334616661071777e-01,5.000000000000000000e-01,1.718793646432459354e-04,0.000000000000000000e+00
4.765405654907226562e-01,1.302901554107666016e+01,3.102285461425781250e+02,3.102285461425781250e+02,1.892918497323989868e-01,-8.939205932617187500e+01,-7.019058102741837502e-04,6.158958375453948975e-02,-5.817211627960205078e+00,-1.741155028867069632e-05,2.291634865105152130e-02,-1.871555447578430176e+00,-9.858998964773491025e-05,-9.112154841423034668e-01,-2.104913815855979919e-02,5.454334616661071777e-01,5.000000000000000000e-01,1.718793646432459354e-04,0.000000000000000000e+00
4.765405654907226562e-01,1.302901554107666016e+01,3.102285461425781250e+02,3.102285461425781250e+02,1.892918497323989868e-01,-8.939205932617187500e+01,-7.019058102741837502e-04,6.158958375453948975e-02,-5.817211627960205078e+00,-1.741155028867069632e-05,2.291634865105152130e-02,-1.871555447578430176e+00,-9.858998964773491025e-05,-9.112154841423034668e-01,-2.104913815855979919e-02,5.454334616661071777e-01,5.000000000000000000e-01,1.718793646432459354e-04,0.000000000000000000e+00
4.765405654907226562e-01,1.302901554107666016e+01,3.102285461425781250e+02,3.102285461425781250e+02,1.892918497323989868e-01,-8.939205932617187500e+01,-7.019058102741837502e-04,6.158958375453948975e-02,-5.817211627960205078e+00,-1.741155028867069632e-05,2.291634865105152130e-02,-1.871555447578430176e+00,-9.858998964773491025e-05,-9.112154841423034668e-01,-2.104913815855979919e-02,5.454334616661071777e-01,5.000000000000000000e-01,1.718793646432459354e-04,0.000000000000000000e+00
4.765405654907226562e-01,1.302901554107666016e+01,3.102285461425781250e+02,3.102285461425781250e+02,1.892918497323989868e-01,-8.939205932617187500e+01,-7.019058102741837502e-04,6.158958375453948975e-02,-5.817211627960205078e+00,-1.741155028867069632e-05,2.291634865105152130e-02,-1.871555447578430176e+00,-9.858998964773491025e-05,-9.112154841423034668e-01,-2.104913815855979919e-02,5.454334616661071777e-01,5.000000000000000000e-01,1.718793646432459354e-04,0.000000000000000000e+00
6.200885772705078125e-01,1.303526592254638672e+01,3.096334533691406250e+02,3.096334533691406250e+02,2.497936636209487915e-01,-8.938378906250000000e+01,-8.850113954395055771e-04,6.322148442268371582e-02,-6.009371757507324219e+00,-2.780450631689745933e-05,1.136832684278488159e-02,-1.338647127151489258e+00,-7.240055856527760625e-05,-2.885633707046508789e-01,-5.295242182910442352e-03,1.191077828407287598e+00,5.000000000000000000e-01,5.057198723079636693e-05,0.000000000000000000e+00
6.200885772705078125e-01,1.303526592254638672e+01,3.096334533691406250e+02,3.096334533691406250e+02,2.497936636209487915e-01,-8.938378906250000000e+01,-8.850113954395055771e-04,6.322148442268371582e-02,-6.009371757507324219e+00,-2.780450631689745933e-05,1.136832684278488159e-02,-1.338647127151489258e+00,-7.240055856527760625e-05,-2.885633707046508789e-01,-5.295242182910442352e-03,1.191077828407287598e+00,5.000000000000000000e-01,5.057198723079636693e-05,0.000000000000000000e+00
6.200885772705078125e-01,1.303526592254638672e+01,3.096334533691406250e+02,3.096334533691406250e+02,2.497936636209487915e-01,-8.938378906250000000e+01,-8.850113954395055771e-04,6.322148442268371582e-02,-6.009371757507324219e+00,-2.780450631689745933e-05,1.136832684278488159e-02,-1.338647127151489258e+00,-7.240055856527760625e-05,-2.885633707046508789e-01,-5.295242182910442352e-03,1.191077828407287598e+00,5.000000000000000000e-01,5.057198723079636693e-05,0.000000000000000000e+00
6.200885772705078125e-01,1.303526592254638672e+01,3.096334533691406250e+02,3.096334533691406250e+02,2.497936636209487915e-01,-8.938378906250000000e+01,-8.850113954395055771e-04,6.322148442268371582e-02,-6.009371757507324219e+00,-2.780450631689745933e-05,1.136832684278488159e-02,-1.338647127151489258e+00,-7.240055856527760625e-05,-2.885633707046508789e-01,-5.295242182910442352e-03,1.191077828407287598e+00,5.000000000000000000e-01,5.057198723079636693e-05,0.000000000000000000e+00
6.200885772705078125e-01,1.303526592254638672e+01,3.096334533691406250e+02,3.096334533691406250e+02,2.497936636209487915e-01,-8.938378906250000000e+01,-8.850113954395055771e-04,6.322148442268371582e-02,-6.009371757507324219e+00,-2.780450631689745933e-05,1.136832684278488159e-02,-1.338647127151489258e+00,-7.240055856527760625e-05,-2.885633707046508789e-01,-5.295242182910442352e-03,1.191077828407287598e+00,5.000000000000000000e-01,5.057198723079636693e-05,0.000000000000000000e+00
6.200885772705078125e-01,1.303526592254638672e+01,3.096334533691406250e+02,3.096334533691406250e+02,2.497936636209487915e-01,-8.938378906250000000e+01,-8.850113954395055771e-04,6.322148442268371582e-02,-6.009371757507324219e+00,-2.780450631689745933e-05,1.136832684278488159e-02,-1.338647127151489258e+00,-7.240055856527760625e-05,-2.885633707046508789e-01,-5.295242182910442352e-03,1.191077828407287598e+00,5.000000000000000000e-01,5.057198723079636693e-05,0.000000000000000000e+00
7.946169376373291016e-01,1.304135799407958984e+01,3.090296325683593750e+02,3.090296325683593750e+02,2.431547194719314575e-01,-8.938707733154296875e+01,2.453714143484830856e-03,5.971082672476768494e-02,-6.044184207916259766e+00,-4.958279987476998940e-06,-2.011511288583278656e-02,-1.994658559560775757e-01,1.309026556555181742e-04,2.562940716743469238e-01,1.173266395926475525e-02,1.901021242141723633e+00,5.000000000000000000e-01,-1.024409662932157516e-03,0.000000000000000000e+00
7.946169376373291016e-01,1.304135799407958984e+01,3.090296325683593750e+02,3.090296325683593750e+02,2.431547194719314575e-01,-8.938707733154296875e+01,2.453714143484830856e-03,5.971082672476768494e-02,-6.044184207916259766e+00,-4.958279987476998940e-06,-2.011511288583278656e-02,-1.994658559560775757e-01,1.309026556555181742e-04,2.562940716743469238e-01,1.173266395926475525e-02,1.901021242141723633e+00,5.000000000000000000e-01,-1.024409662932157516e-03,0.000000000000000000e+00
7.946169376373291016e-01,1.304135799407958984e+01,3.090296325683593750e+02,3.090296325683593750e+02,2.431547194719314575e-01,-8.938707733154296875e+01,2.453714143484830856e-03,5.971082672476768494e-02,-6.044184207916259766e+00,-4.958279987476998940e-06,-2.011511288583278656e-02,-1.994658559560775757e-01,1.309026556555181742e-04,2.562940716743469238e-01,1.173266395926475525e-02,1.901021242141723633e+00,5.000000000000000000e-01,-1.024409662932157516e-03,0.000000000000000000e+00
7.946169376373291016e-01,1.304135799407958984e+01,3.090296325683593750e+02,3.090296325683593750e+02,2.431547194719314575e-01,-8.938707733154296875e+01,2.453714143484830856e-03,5.971082672476768494e-02,-6.044184207916259766e+00,-4.958279987476998940e-06,-2.011511288583278656e-02,-1.994658559560775757e-01,1.309026556555181742e-04,2.562940716743469238e-01,1.173266395926475525e-02,1.901021242141723633e+00,5.000000000000000000e-01,-1.024409662932157516e-03,0.000000000000000000e+00
8.783230781555175781e-01,1.304730796813964844e+01,3.084269714355468750e+02,3.084269714355468750e+02,2.084915190935134888e-01,-8.939923095703125000e+01,3.707983298227190971e-03,5.789288878440856934e-02,-6.015779972076416016e+00,1.092728507501306012e-05,-2.171809598803520203e-02,3.393327593803405762e-01,1.897777838166803122e-04,3.654358983039855957e-01,-4.111446905881166458e-03,2.003019571304321289e+00,5.000000000000000000e-01,-1.002393430098891258e-03,0.000000000000000000e+00
8.783230781555175781e-01,1.304730796813964844e+01,3.084269714355468750e+02,3.084269714355468750e+02,2.084915190935134888e-01,-8.939923095703125000e+01,3.707983298227190971e-03,5.789288878440856934e-02,-6.015779972076416016e+00,1.092728507501306012e-05,-2.171809598803520203e-02,3.393327593803405762e-01,1.897777838166803122e-04,3.654358983039855957e-01,-4.111446905881166458e-03,2.003019571304321289e+00,5.000000000000000000e-01,-1.002393430098891258e-03,0.000000000000000000e+00
9.483780860900878906e-01,1.305227661132812500e+01,3.079236450195312500e+02,3.079236450195312500e+02,1.883834302425384521e-01,-8.941477203369140625e+01,3.279955824837088585e-03,5.800128728151321411e-02,-6.020103454589843750e+00,1.283466463064542040e-05,1.547334017232060432e-03,-6.171553954482078552e-02,2.722688441281206906e-05,1.690569967031478882e-01,-8.907254785299301147e-03,7.728728055953979492e-01,5.000000000000000000e-01,-8.010864257812500000e-04,0.000000000000000000e+00
9.483780860900878906e-01,1.305227661132812500e+01,3.079236450195312500e+02,3.079236450195312500e+02,1.883834302425384521e-01,-8.941477203369140625e+01,3.279955824837088585e-03,5.800128728151321411e-02,-6.020103454589843750e+00,1.283466463064542040e-05,1.547334017232060432e-03,-6.171553954482078552e-02,2.722688441281206906e-05,1.690569967031478882e-01,-8.907254785299301147e-03,7.728728055953979492e-01,5.000000000000000000e-01,-8.010864257812500000e-04,0.000000000000000000e+00
9.483780860900878906e-01,1.305227661132812500e+01,3.079236450195312500e+02,3.079236450195312500e+02,1.883834302425384521e-01,-8.941477203369140625e+01,3.279955824837088585e-03,5.800128728151321411e-02,-6.020103454589843750e+00,1.283466463064542040e-05,1.547334017232060432e-03,-6.171553954482078552e-02,2.722688441281206906e-05,1.690569967031478882e-01,-8.907254785299301147e-03,7.728728055953979492e-01,5.000000000000000000e-01,-8.010864257812500000e-04,0.000000000000000000e+00
9.483780860900878906e-01,1.305227661132812500e+01,3.079236450195312500e+02,3.079236450195312500e+02,1.883834302425384521e-01,-8.941477203369140625e+01,3.279955824837088585e-03,5.800128728151321411e-02,-6.020103454589843750e+00,1.283466463064542040e-05,1.547334017232060432e-03,-6.171553954482078552e-02,2.722688441281206906e-05,1.690569967031478882e-01,-8.907254785299301147e-03,7.728728055953979492e-01,5.000000000000000000e-01,-8.010864257812500000e-04,0.000000000000000000e+00
9.483780860900878906e-01,1.305645751953125000e+01,3.075020141601562500e+02,3.075020141601562500e+02,1.778854429721832275e-01,-8.943321990966796875e+01,2.869280055165290833e-03,5.797627195715904236e-02,-6.019012451171875000e+00,6.503147233161143959e-06,-3.174573357682675123e-04,1.384539436548948288e-02,-8.035021164687350392e-05,1.475377827882766724e-01,1.240170327946543694e-03,-9.364092946052551270e-01,5.000000000000000000e-01,-6.668090936727821827e-04,0.000000000000000000e+00
1.027177095413208008e+00,1.305645751953125000e+01,3.075020141601562500e+02,3.075020141601562500e+02,1.778854429721832275e-01,-8.943321990966796875e+01,2.869280055165290833e-03,5.797627195715904236e-02,-6.019012451171875000e+00,6.503147233161143959e-06,-3.174573357682675123e-04,1.384539436548948288e-02,-8.035021164687350392e-05,1.475377827882766724e-01,1.240170327946543694e-03,-9.364092946052551270e-01,5.000000000000000000e-01,-6.668090936727821827e-04,0.000000000000000000e+00
1.027177095413208008e+00,1.305645751953125000e+01,3.075020141601562500e+02,3.075020141601562500e+02,1.778854429721832275e-01,-8.943321990966796875e+01,2.869280055165290833e-03,5.797627195715904236e-02,-6.019012451171875000e+00,6.503147233161143959e-06,-3.174573357682675123e-04,1.384539436548948288e-02,-8.035021164687350392e-05,1.475377827882766724e-01,1.240170327946543694e-03,-9.364092946052551270e-01,5.000000000000000000e-01,-6.668090936727821827e-04,0.000000000000000000e+00
1.095043420791625977e+00,1.306054878234863281e+01,3.070289916992187500e+02,3.070289916992187500e+02,1.630229502916336060e-01,-8.943432617187500000e+01,7.942528463900089264e-03,5.015470832586288452e-02,-5.989212512969970703e+00,8.181235898518934846e-06,-1.152495518326759338e-01,4.390975534915924072e-01,2.472638152539730072e-05,2.235261201858520508e-01,4.853667318820953369e-02,1.330417633056640625e+00,5.000000000000000000e-01,-2.642495324835181236e-03,0.000000000000000000e+00
1.095043420791625977e+00,1.306054878234863281e+01,3.070289916992187500e+02,3.070289916992187500e+02,1.630229502916336060e-01,-8.943432617187500000e+01,7.942528463900089264e-03,5.015470832586288452e-02,-5.989212512969970703e+00,8.181235898518934846e-06,-1.152495518326759338e-01,4.390975534915924072e-01,2.472638152539730072e-05,2.235261201858520508e-01,4.853667318820953369e-02,1.330417633056640625e+00,5.000000000000000000e-01,-2.642495324835181236e-03,0.000000000000000000e+00
1.095043420791625977e+00,1.306054878234863281e+01,3.070289916992187500e+02,3.070289916992187500e+02,1.630229502916336060e-01,-8.943432617187500000e+01,7.942528463900089264e-03,5.015470832586288452e-02,-5.989212512969970703e+00,8.181235898518934846e-06,-1.152495518326759338e-01,4.390975534915924072e-01,2.472638152539730072e-05,2.235261201858520508e-01,4.853667318820953369e-02,1.330417633056640625e+00,5.000000000000000000e-01,-2.642495324835181236e-03,0.000000000000000000e+00
1.095043420791625977e+00,1.306054878234863281e+01,3.070289916992187500e+02,3.070289916992187500e+02,1.630229502916336060e-01,-8.943432617187500000e+01,7.942528463900089264e-03,5.015470832586288452e-02,-5.989212512969970703e+00,8.181235898518934846e-06,-1.152495518326759338e-01,4.390975534915924072e-01,2.472638152539730072e-05,2.235261201858520508e-01,4.853667318820953369e-02,1.330417633056640625e+00,5.000000000000000000e-01,-2.642495324835181236e-03,0.000000000000000000e+00
1.168572425842285156e+00,1.306404304504394531e+01,3.066237182617187500e+02,3.066237182617187500e+02,1.503597795963287354e-01,-8.947268676757812500e+01,1.024251710623502731e-02,4.727784171700477600e-02,-5.965981483459472656e+00,7.304153768927790225e-06,-3.912560269236564636e-02,3.159437477588653564e-01,-1.192838226415915415e-05,1.522240340709686279e-01,2.841392531991004944e-02,-1.173508882522583008e+00,5.000000000000000000e-01,-2.701895544305443764e-03,0.000000000000000000e+00
1.168572425842285156e+00,1.306404304504394531e+01,3.066237182617187500e+02,3.066237182617187500e+02,1.503597795963287354e-01,-8.947268676757812500e+01,1.024251710623502731e-02,4.727784171700477600e-02,-5.965981483459472656e+00,7.304153768927790225e-06,-3.912560269236564636e-02,3.159437477588653564e-01,-1.192838226415915415e-05,1.522240340709686279e-01,2.841392531991004944e-02,-1.173508882522583008e+00,5.000000000000000000e-01,-2.701895544305443764e-03,0.000000000000000000e+00
1.168572425842285156e+00,1.306404304504394531e+01,3.066237182617187500e+02,3.066237182617187500e+02,1.503597795963287354e-01,-8.947268676757812500e+01,1.024251710623502731e-02,4.727784171700477600e-02,-5.965981483459472656e+00,7.304153768927790225e-06,-3.912560269236564636e-02,3.159437477588653564e-01,-1.192838226415915415e-05,1.522240340709686279e-01,2.841392531991004944e-02,-1.173508882522583008e+00,5.000000000000000000e-01,-2.701895544305443764e-03,0.000000000000000000e+00
1.168572425842285156e+00,1.306404304504394531e+01,3.066237182617187500e+02,3.066237182617187500e+02,1.503597795963287354e-01,-8.947268676757812500e+01,1.024251710623502731e-02,4.727784171700477600e-02,-5.965981483459472656e+00,7.304153768927790225e-06,-3.912560269236564636e-02,3.159437477588653564e-01,-1.192838226415915415e-05,1.522240340709686279e-01,2.841392531991004944e-02,-1.173508882522583008e+00,5.000000000000000000e-01,-2.701895544305443764e-03,0.000000000000000000e+00
1.168572425842285156e+00,1.306748390197753906e+01,3.061862487792968750e+02,3.061862487792968750e+02,1.401144862174987793e-01,-8.948001098632812500e+01,1.026416383683681488e-02,4.524795338511466980e-02,-5.937460899353027344e+00,5.902375960431527346e-06,-2.704770676791667938e-02,3.800289630889892578e-01,-1.867830542323645204e-05,1.411420553922653198e-01,-4.953561816364526749e-03,9.197238683700561523e-01,5.000000000000000000e-01,-2.330453135073184967e-03,0.000000000000000000e+00
1.243620872497558594e+00,1.306748390197753906e+01,3.061862487792968750e+02,3.061862487792968750e+02,1.401144862174987793e-01,-8.948001098632812500e+01,1.026416383683681488e-02,4.524795338511466980e-02,-5.937460899353027344e+00,5.902375960431527346e-06,-2.704770676791667938e-02,3.800289630889892578e-01,-1.867830542323645204e-05,1.411420553922653198e-01,-4.953561816364526749e-03,9.197238683700561523e-01,5.000000000000000000e-01,-2.330453135073184967e-03,0.000000000000000000e+00
1.243620872497558594e+00,1.306748390197753906e+01,3.061862487792968750e+02,3.061862487792968750e+02,1.401144862174987793e-01,-8.948001098632812500e+01,1.026416383683681488e-02,4.524795338511466980e-02,-5.937460899353027344e+00,5.902375960431527346e-06,-2.704770676791667938e-02,3.800289630889892578e-01,-1.867830542323645204e-05,1.411420553922653198e-01,-4.953561816364526749e-03,9.197238683700561523e-01,5.000000000000000000e-01,-2.330453135073184967e-03,0.000000000000000000e+00
1.243620872497558594e+00,1.306748390197753906e+01,3.061862487792968750e+02,3.061862487792968750e+02,1.401144862174987793e-01,-8.948001098632812500e+01,1.026416383683681488e-02,4.524795338511466980e-02,-5.937460899353027344e+00,5.902375960431527346e-06,-2.704770676791667938e-02,3.800289630889892578e-01,-1.867830542323645204e-05,1.411420553922653198e-01,-4.953561816364526749e-03,9.197238683700561523e-01,5.000000000000000000e-01,-2.330453135073184967e-03,0.000000000000000000e+00
1.312042951583862305e+00,1.307105541229248047e+01,3.057426147460937500e+02,3.057426147460937500e+02,1.290700733661651611e-01,-8.952175140380859375e+01,9.905273094773292542e-03,4.345589876174926758e-02,-5.895915985107421875e+00,3.899942385032773018e-06,-2.619117498397827148e-02,6.071857810020446777e-01,-2.926589877461083233e-05,1.478643268346786499e-01,1.532541122287511826e-03,-1.728313684463500977e+00,5.000000000000000000e-01,-2.179608913138508797e-03,0.000000000000000000e+00
1.312042951583862305e+00,1.307105541229248047e+01,3.057426147460937500e+02,3.057426147460937500e+02,1.290700733661651611e-01,-8.952175140380859375e+01,9.905273094773292542e-03,4.345589876174926758e-02,-5.895915985107421875e+00,3.899942385032773018e-06,-2.619117498397827148e-02,6.071857810020446777e-01,-2.926589877461083233e-05,1.478643268346786499e-01,1.532541122287511826e-03,-1.728313684463500977e+00,5.000000000000000000e-01,-2.179608913138508797e-03,0.000000000000000000e+00
1.312042951583862305e+00,1.307400321960449219e+01,3.053406066894531250e+02,3.053406066894531250e+02,1.216183453798294067e-01,-8.952273559570312500e+01,8.823957294225692749e-03,4.225302115082740784e-02,-5.866446495056152344e+00,3.108552618868998252e-06,-1.692134514451026917e-02,4.145587086677551270e-01,-1.113278540287865326e-05,7.949289679527282715e-02,-1.502257306128740311e-02,7.080448269844055176e-01,5.000000000000000000e-01,-1.757049583829939365e-03,0.000000000000000000e+00
1.383129358291625977e+00,1.307400321960449219e+01,3.053406066894531250e+02,3.053406066894531250e+02,1.216183453798294067e-01,-8.952273559570312500e+01,8.823957294225692749e-03,4.225302115082740784e-02,-5.866446495056152344e+00,3.108552618868998252e-06,-1.692134514451026917e-02,4.145587086677551270e-01,-1.113278540287865326e-05,7.949289679527282715e-02,-1.502257306128740311e-02,7.080448269844055176e-01,5.000000000000000000e-01,-1.757049583829939365e-03,0.000000000000000000e+00
1.383129358291625977e+00,1.307400321960449219e+01,3.053406066894531250e+02,3.053406066894531250e+02,1.216183453798294067e-01,-8.952273559570312500e+01,8.823957294225692749e-03,4.225302115082740784e-02,-5.866446495056152344e+00,3.108552618868998252e-06,-1.692134514451026917e-02,4.145587086677551270e-01,-1.113278540287865326e-05,7.949289679527282715e-02,-1.502257306128740311e-02,7.080448269844055176e-01,5.000000000000000000e-01,-1.757049583829939365e-03,0.000000000000000000e+00
1.450951814651489258e+00,1.307675266265869141e+01,3.049248657226562500e+02,3.049248657226562500e+02,1.171240806579589844e-01,-8.956964874267578125e+01,1.450733933597803116e-02,3.268964588642120361e-02,-5.836271286010742188e+00,1.258671090909047052e-06,-1.410060226917266846e-01,4.449147284030914307e-01,-2.727535502344835550e-05,5.931365117430686951e-02,7.465886324644088745e-02,-1.634791970252990723e+00,5.000000000000000000e-01,-4.294041078537702560e-03,0.000000000000000000e+00
1.450951814651489258e+00,1.307675266265869141e+01,3.049248657226562500e+02,3.049248657226562500e+02,1.171240806579589844e-01,-8.956964874267578125e+01,1.450733933597803116e-02,3.268964588642120361e-02,-5.836271286010742188e+00,1.258671090909047052e-06,-1.410060226917266846e-01,4.449147284030914307e-01,-2.727535502344835550e-05,5.931365117430686951e-02,7.465886324644088745e-02,-1.634791970252990723e+00,5.000000000000000000e-01,-4.294041078537702560e-03,0.000000000000000000e+00
1.450951814651489258e+00,1.307675266265869141e+01,3.049248657226562500e+02,3.049248657226562500e+02,1.171240806579589844e-01,-8.956964874267578125e+01,1.450733933597803116e-02,3.268964588642120361e-02,-5.836271286010742188e+00,1.258671090909047052e-06,-1.410060226917266846e-01,4.449147284030914307e-01,-2.727535502344835550e-05,5.931365117430686951e-02,7.465886324644088745e-02,-1.634791970252990723e+00,5.000000000000000000e-01,-4.294041078537702560e-03,0.000000000000000000e+00
1.527701377868652344e+00,1.307891941070556641e+01,3.045302124023437500e+02,3.045302124023437500e+02,1.139616966247558594e-01,-8.958962249755859375e+01,1.652017980813980103e-02,2.890910394489765167e-02,-5.808559894561767578e+00,1.573349095451703761e-06,-4.925815761089324951e-02,3.610625267028808594e-01,4.100062596990028396e-06,3.520889207720756531e-02,1.523842476308345795e-02,4.204586446285247803e-01,5.000000000000000000e-01,-3.882707795128226280e-03,0.000000000000000000e+00
1.527701377868652344e+00,1.307891941070556641e+01,3.045302124023437500e+02,3.045302124023437500e+02,1.139616966247558594e-01,-8.958962249755859375e+01,1.652017980813980103e-02,2.890910394489765167e-02,-5.808559894561767578e+00,1.573349095451703761e-06,-4.925815761089324951e-02,3.610625267028808594e-01,4.100062596990028396e-06,3.520889207720756531e-02,1.523842476308345795e-02,4.204586446285247803e-01,5.000000000000000000e-01,-3.882707795128226280e-03,0.000000000000000000e+00
1.527701377868652344e+00,1.307891941070556641e+01,3.045302124023437500e+02,3.045302124023437500e+02,1.139616966247558594e-01,-8.958962249755859375e+01,1.652017980813980103e-02,2.890910394489765167e-02,-5.808559894561767578e+00,1.573349095451703761e-06,-4.925815761089324951e-02,3.610625267028808594e-01,4.100062596990028396e-06,3.520889207720756531e-02,1.523842476308345795e-02,4.204586446285247803e-01,5.000000000000000000e-01,-3.882707795128226280e-03,0.000000000000000000e+00
1.600134611129760742e+00,1.308133792877197266e+01,3.040863342285156250e+02,3.040863342285156250e+02,1.095357388257980347e-01,-8.964556884765625000e+01,1.652196049690246582e-02,2.584695257246494293e-02,-5.763906002044677734e+00,2.288467015887363232e-07,-4.227550327777862549e-02,6.164835095405578613e-01,-1.856195376603864133e-05,8.555662631988525391e-02,5.201598978601396084e-04,-2.140570878982543945e+00,5.000000000000000000e-01,-3.595079760998487473e-03,0.000000000000000000e+00
1.600134611129760742e+00,1.308133792877197266e+01,3.040863342285156250e+02,3.040863342285156250e+02,1.095357388257980347e-01,-8.964556884765625000e+01,1.652196049690246582e-02,2.584695257246494293e-02,-5.763906002044677734e+00,2.288467015887363232e-07,-4.227550327777862549e-02,6.164835095405578613e-01,-1.856195376603864133e-05,8.555662631988525391e-02,5.201598978601396084e-04,-2.140570878982543945e+00,5.000000000000000000e-01,-3.595079760998487473e-03,0.000000000000000000e+00
1.600134611129760742e+00,1.308133792877197266e+01,3.040863342285156250e+02,3.040863342285156250e+02,1.095357388257980347e-01,-8.964556884765625000e+01,1.652196049690246582e-02,2.584695257246494293e-02,-5.763906002044677734e+00,2.288467015887363232e-07,-4.227550327777862549e-02,6.164835095405578613e-01,-1.856195376603864133e-05,8.555662631988525391e-02,5.201598978601396084e-04,-2.140570878982543945e+00,5.000000000000000000e-01,-3.595079760998487473e-03,0.000000000000000000e+00
1.600134611129760742e+00,1.308133792877197266e+01,3.040863342285156250e+02,3.040863342285156250e+02,1.095357388257980347e-01,-8.964556884765625000e+01,1.652196049690246582e-02,2.584695257246494293e-02,-5.763906002044677734e+00,2.288467015887363232e-07,-4.227550327777862549e-02,6.164835095405578613e-01,-1.856195376603864133e-05,8.555662631988525391e-02,5.201598978601396084e-04,-2.140570878982543945e+00,5.000000000000000000e-01,-3.595079760998487473e-03,0.000000000000000000e+00
1.600134611129760742e+00,1.308133792877197266e+01,3.040863342285156250e+02,3.040863342285156250e+02,1.095357388257980347e-01,-8.964556884765625000e+01,1.652196049690246582e-02,2.584695257246494293e-02,-5.763906002044677734e+00,2.288467015887363232e-07,-4.227550327777862549e-02,6.164835095405578613e-01,-1.856195376603864133e-05,8.555662631988525391e-02,5.201598978601396084e-04,-2.140570878982543945e+00,5.000000000000000000e-01,-3.595079760998487473e-03,0.000000000000000000e+00
1.600134611129760742e+00,1.308319568634033203e+01,3.036708068847656250e+02,3.036708068847656250e+02,1.041945293545722961e-01,-8.965188598632812500e+01,1.474958099424839020e-02,2.396492660045623779e-02,-5.722283363342285156e+00,2.421981889710878022e-06,-1.631170511245727539e-02,3.607475161552429199e-01,1.900812094390857965e-05,5.473608523607254028e-02,-2.357691712677478790e-02,1.020146727561950684e+00,5.000000000000000000e-01,-2.961512887850403786e-03,0.000000000000000000e+00
1.715513467788696289e+00,1.308319568634033203e+01,3.036708068847656250e+02,3.036708068847656250e+02,1.041945293545722961e-01,-8.965188598632812500e+01,1.474958099424839020e-02,2.396492660045623779e-02,-5.722283363342285156e+00,2.421981889710878022e-06,-1.631170511245727539e-02,3.607475161552429199e-01,1.900812094390857965e-05,5.473608523607254028e-02,-2.357691712677478790e-02,1.020146727561950684e+00,5.000000000000000000e-01,-2.961512887850403786e-03,0.000000000000000000e+00
1.715513467788696289e+00,1.308319568634033203e+01,3.036708068847656250e+02,3.036708068847656250e+02,1.041945293545722961e-01,-8.965188598632812500e+01,1.474958099424839020e-02,2.396492660045623779e-02,-5.722283363342285156e+00,2.421981889710878022e-06,-1.631170511245727539e-02,3.607475161552429199e-01,1.900812094390857965e-05,5.473608523607254028e-02,-2.357691712677478790e-02,1.020146727561950684e+00,5.000000000000000000e-01,-2.961512887850403786e-03,0.000000000000000000e+00
1.715513467788696289e+00,1.308319568634033203e+01,3.036708068847656250e+02,3.036708068847656250e+02,1.041945293545722961e-01,-8.965188598632812500e+01,1.474958099424839020e-02,2.396492660045623779e-02,-5.722283363342285156e+00,2.421981889710878022e-06,-1.631170511245727539e-02,3.607475161552429199e-01,1.900812094390857965e-05,5.473608523607254028e-02,-2.357691712677478790e-02,1.020146727561950684e+00,5.000000000000000000e-01,-2.961512887850403786e-03,0.000000000000000000e+00
1.813115119934082031e+00,1.308561515808105469e+01,3.031033630371093750e+02,3.031033630371093750e+02,9.349162131547927856e-02,-8.967824554443359375e+01,1.287569385021924973e-02,2.080906741321086884e-02,-5.634640216827392578e+00,5.339686026673007291e-07,-3.233407810330390930e-02,8.979678750038146973e-01,-1.934407009684946388e-05,1.458594352006912231e-01,-1.654227450489997864e-02,2.138891220092773438e+00,5.000000000000000000e-01,-2.727290615439414978e-03,0.000000000000000000e+00
1.813115119934082031e+00,1.308561515808105469e+01,3.031033630371093750e+02,3.031033630371093750e+02,9.349162131547927856e-02,-8.967824554443359375e+01,1.287569385021924973e-02,2.080906741321086884e-02,-5.634640216827392578e+00,5.339686026673007291e-07,-3.233407810330390930e-02,8.979678750038146973e-01,-1.934407009684946388e-05,1.458594352006912231e-01,-1.654227450489997864e-02,2.138891220092773438e+00,5.000000000000000000e-01,-2.727290615439414978e-03,0.000000000000000000e+00
1.813115119934082031e+00,1.308561515808105469e+01,3.031033630371093750e+02,3.031033630371093750e+02,9.349162131547927856e-02,-8.967824554443359375e+01,1.287569385021924973e-02,2.080906741321086884e-02,-5.634640216827392578e+00,5.339686026673007291e-07,-3.233407810330390930e-02,8.979678750038146973e-01,-1.934407009684946388e-05,1.458594352006912231e-01,-1.654227450489997864e-02,2.138891220092773438e+00,5.000000000000000000e-01,-2.727290615439414978e-03,0.000000000000000000e+00
1.813115119934082031e+00,1.308561515808105469e+01,3.031033630371093750e+02,3.031033630371093750e+02,9.349162131547927856e-02,-8.967824554443359375e+01,1.287569385021924973e-02,2.080906741321086884e-02,-5.634640216827392578e+00,5.339686026673007291e-07,-3.233407810330390930e-02,8.979678750038146973e-01,-1.934407009684946388e-05,1.458594352006912231e-01,-1.654227450489997864e-02,2.138891220092773438e+00,5.000000000000000000e-01,-2.727290615439414978e-03,0.000000000000000000e+00
1.896134853363037109e+00,1.308711147308349609e+01,3.025582580566406250e+02,3.025582580566406250e+02,8.328048884868621826e-02,-8.973516845703125000e+01,1.965690962970256805e-02,8.503836579620838165e-03,-5.553740024566650391e+00,3.127542868242016993e-06,-1.482205539941787720e-01,9.744694232940673828e-01,3.124045542790554464e-05,7.183400541543960571e-02,4.295068979263305664e-02,1.739089250564575195e+00,5.000000000000000000e-01,-5.288260523229837418e-03,0.000000000000000000e+00
1.896134853363037109e+00,1.308711147308349609e+01,3.025582580566406250e+02,3.025582580566406250e+02,8.328048884868621826e-02,-8.973516845703125000e+01,1.965690962970256805e-02,8.503836579620838165e-03,-5.553740024566650391e+00,3.127542868242016993e-06,-1.482205539941787720e-01,9.744694232940673828e-01,3.124045542790554464e-05,7.183400541543960571e-02,4.295068979263305664e-02,1.739089250564575195e+00,5.000000000000000000e-01,-5.288260523229837418e-03,0.000000000000000000e+00
1.896134853363037109e+00,1.308711147308349609e+01,3.025582580566406250e+02,3.025582580566406250e+02,8.328048884868621826e-02,-8.973516845703125000e+01,1.965690962970256805e-02,8.503836579620838165e-03,-5.553740024566650391e+00,3.127542868242016993e-06,-1.482205539941787720e-01,9.744694232940673828e-01,3.124045542790554464e-05,7.183400541543960571e-02,4.295068979263305664e-02,1.739089250564575195e+00,5.000000000000000000e-01,-5.288260523229837418e-03,0.000000000000000000e+00
1.896134853363037109e+00,1.308711147308349609e+01,3.025582580566406250e+02,3.025582580566406250e+02,8.328048884868621826e-02,-8.973516845703125000e+01,1.965690962970256805e-02,8.503836579620838165e-03,-5.553740024566650391e+00,3.127542868242016993e-06,-1.482205539941787720e-01,9.744694232940673828e-01,3.124045542790554464e-05,7.183400541543960571e-02,4.295068979263305664e-02,1.739089250564575195e+00,5.000000000000000000e-01,-5.288260523229837418e-03,0.000000000000000000e+00
1.896134853363037109e+00,1.308711147308349609e+01,3.025582580566406250e+02,3.025582580566406250e+02,8.328048884868621826e-02,-8.973516845703125000e+01,1.965690962970256805e-02,8.503836579620838165e-03,-5.553740024566650391e+00,3.127542868242016993e-06,-1.482205539941787720e-01,9.744694232940673828e-01,3.124045542790554464e-05,7.183400541543960571e-02,4.295068979263305664e-02,1.739089250564575195e+00,5.000000000000000000e-01,-5.288260523229837418e-03,0.000000000000000000e+00
1.896134853363037109e+00,1.308711147308349609e+01,3.025582580566406250e+02,3.025582580566406250e+02,8.328048884868621826e-02,-8.973516845703125000e+01,1.965690962970256805e-02,8.503836579620838165e-03,-5.553740024566650391e+00,3.127542868242016993e-06,-1.482205539941787720e-01,9.744694232940673828e-01,3.124045542790554464e-05,7.183400541543960571e-02,4.295068979263305664e-02,1.739089250564575195e+00,5.000000000000000000e-01,-5.288260523229837418e-03,0.000000000000000000e+00
1.896134853363037109e+00,1.308711147308349609e+01,3.025582580566406250e+02,3.025582580566406250e+02,8.328048884868621826e-02,-8.973516845703125000e+01,1.965690962970256805e-02,8.503836579620838165e-03,-5.553740024566650391e+00,3.127542868242016993e-06,-1.482205539941787720e-01,9.744694232940673828e-01,3.124045542790554464e-05,7.183400541543960571e-02,4.295068979263305664e-02,1.739089250564575195e+00,5.000000000000000000e-01,-5.288260523229837418e-03,0.000000000000000000e+00
2.195794820785522461e+00,1.308922672271728516e+01,3.010429077148437500e+02,3.010429077148437500e+02,1.823933571577072144e-01,-8.989047241210937500e+01,1.478353142738342285e-02,1.019058399833738804e-03,-5.844765663146972656e+00,-1.539005461381748319e-05,-4.239192605018615723e-02,-4.838624477386474609e+00,-1.969245204236358404e-04,-9.297435283660888672e-01,-1.531882956624031067e-02,-8.786495923995971680e-01,5.000000000000000000e-01,-3.191920695826411247e-03,0.000000000000000000e+00
2.195794820785522461e+00,1.308922672271728516e+01,3.010429077148437500e+02,3.010429077148437500e+02,1.823933571577072144e-01,-8.989047241210937500e+01,1.478353142738342285e-02,1.019058399833738804e-03,-5.844765663146972656e+00,-1.539005461381748319e-05,-4.239192605018615723e-02,-4.838624477386474609e+00,-1.969245204236358404e-04,-9.297435283660888672e-01,-1.531882956624031067e-02,-8.786495923995971680e-01,5.000000000000000000e-01,-3.191920695826411247e-03,0.000000000000000000e+00
2.195794820785522461e+00,1.308922672271728516e+01,3.010429077148437500e+02,3.010429077148437500e+02,1.823933571577072144e-01,-8.989047241210937500e+01,1.478353142738342285e-02,1.019058399833738804e-03,-5.844765663146972656e+00,-1.539005461381748319e-05,-4.239192605018615723e-02,-4.838624477386474609e+00,-1.969245204236358404e-04,-9.297435283660888672e-01,-1.531882956624031067e-02,-8.786495923995971680e-01,5.000000000000000000e-01,-3.191920695826411247e-03,0.000000000000000000e+00
2.195794820785522461e+00,1.308922672271728516e+01,3.010429077148437500e+02,3.010429077148437500e+02,1.823933571577072144e-01,-8.989047241210937500e+01,1.478353142738342285e-02,1.019058399833738804e-03,-5.844765663146972656e+00,-1.539005461381748319e-05,-4.239192605018615723e-02,-4.838624477386474609e+00,-1.969245204236358404e-04,-9.297435283660888672e-01,-1.531882956624031067e-02,-8.786495923995971680e-01,5.000000000000000000e-01,-3.191920695826411247e-03,0.000000000000000000e+00
2.195794820785522461e+00,1.308922672271728516e+01,3.010429077148437500e+02,3.010429077148437500e+02,1.823933571577072144e-01,-8.989047241210937500e+01,1.478353142738342285e-02,1.019058399833738804e-03,-5.844765663146972656e+00,-1.539005461381748319e-05,-4.239192605018615723e-02,-4.838624477386474609e+00,-1.969245204236358404e-04,-9.297435283660888672e-01,-1.531882956624031067e-02,-8.786495923995971680e-01,5.000000000000000000e-01,-3.191920695826411247e-03,0.000000000000000000e+00
2.195794820785522461e+00,1.308922672271728516e+01,3.010429077148437500e+02,3.010429077148437500e+02,1.823933571577072144e-01,-8.989047241210937500e+01,1.478353142738342285e-02,1.019058399833738804e-03,-5.844765663146972656e+00,-1.539005461381748319e-05,-4.239192605018615723e-02,-4.838624477386474609e+00,-1.969245204236358404e-04,-9.297435283660888672e-01,-1.531882956624031067e-02,-8.786495923995971680e-01,5.000000000000000000e-01,-3.191920695826411247e-03,0.000000000000000000e+00
2.195794820785522461e+00,1.308922672271728516e+01,3.010429077148437500e+02,3.010429077148437500e+02,1.823933571577072144e-01,-8.989047241210937500e+01,1.478353142738342285e-02,1.019058399833738804e-03,-5.844765663146972656e+00,-1.539005461381748319e-05,-4.239192605018615723e-02,-4.838624477386474609e+00,-1.969245204236358404e-04,-9.297435283660888672e-01,-1.531882956624031067e-02,-8.786495923995971680e-01,5.000000000000000000e-01,-3.191920695826411247e-03,0.000000000000000000e+00
2.195794820785522461e+00,1.308922672271728516e+01,3.010429077148437500e+02,3.010429077148437500e+02,1.823933571577072144e-01,-8.989047241210937500e+01,1.478353142738342285e-02,1.019058399833738804e-03,-5.844765663146972656e+00,-1.539005461381748319e-05,-4.239192605018615723e-02,-4.838624477386474609e+00,-1.969245204236358404e-04,-9.297435283660888672e-01,-1.531882956624031067e-02,-8.786495923995971680e-01,5.000000000000000000e-01,-3.191920695826411247e-03,0.000000000000000000e+00
2.195794820785522461e+00,1.308922672271728516e+01,3.010429077148437500e+02,3.010429077148437500e+02,1.823933571577072144e-01,-8.989047241210937500e+01,1.478353142738342285e-02,1.019058399833738804e-03,-5.844765663146972656e+00,-1.539005461381748319e-05,-4.239192605018615723e-02,-4.838624477386474609e+00,-1.969245204236358404e-04,-9.297435283660888672e-01,-1.531882956624031067e-02,-8.786495923995971680e-01,5.000000000000000000e-01,-3.191920695826411247e-03,0.000000000000000000e+00
2.195794820785522461e+00,1.308922672271728516e+01,3.010429077148437500e+02,3.010429077148437500e+02,1.823933571577072144e-01,-8.989047241210937500e+01,1.478353142738342285e-02,1.019058399833738804e-03,-5.844765663146972656e+00,-1.539005461381748319e-05,-4.239192605018615723e-02,-4.838624477386474609e+00,-1.969245204236358404e-04,-9.297435283660888672e-01,-1.531882956624031067e-02,-8.786495923995971680e-01,5.000000000000000000e-01,-3.191920695826411247e-03,0.000000000000000000e+00
2.374083757400512695e+00,1.308907413482666016e+01,3.007276611328125000e+02,3.007276611328125000e+02,2.244673222303390503e-01,-8.991983032226562500e+01,1.904423162341117859e-02,-8.062278851866722107e-03,-5.979935169219970703e+00,-2.597464117570780218e-05,-5.093606933951377869e-02,-7.581485509872436523e-01,-5.936760135227814317e-05,-6.995603442192077637e-01,8.551766723394393921e-02,-7.619390487670898438e-01,5.000000000000000000e-01,-5.688585340976715088e-03,0.000000000000000000e+00
2.374083757400512695e+00,1.308907413482666016e+01,3.007276611328125000e+02,3.007276611328125000e+02,2.244673222303390503e-01,-8.991983032226562500e+01,1.904423162341117859e-02,-8.062278851866722107e-03,-5.979935169219970703e+00,-2.597464117570780218e-05,-5.093606933951377869e-02,-7.581485509872436523e-01,-5.936760135227814317e-05,-6.995603442192077637e-01,8.551766723394393921e-02,-7.619390487670898438e-01,5.000000000000000000e-01,-5.688585340976715088e-03,0.000000000000000000e+00
2.374083757400512695e+00,1.308907413482666016e+01,3.007276611328125000e+02,3.007276611328125000e+02,2.244673222303390503e-01,-8.991983032226562500e+01,1.904423162341117859e-02,-8.062278851866722107e-03,-5.979935169219970703e+00,-2.597464117570780218e-05,-5.093606933951377869e-02,-7.581485509872436523e-01,-5.936760135227814317e-05,-6.995603442192077637e-01,8.551766723394393921e-02,-7.619390487670898438e-01,5.000000000000000000e-01,-5.688585340976715088e-03,0.000000000000000000e+00
2.447860002517700195e+00,1.308817481994628906e+01,3.001198120117187500e+02,3.001198120117187500e+02,2.606468200683593750e-01,-8.999256134033203125e+01,2.346447668969631195e-02,-1.623301766812801361e-02,-6.124588012695312500e+00,-2.191178282373584807e-05,-1.107502654194831848e-01,-1.960696816444396973e+00,5.507000969373621047e-05,-1.000241711735725403e-01,2.659701555967330933e-02,-1.186646342277526855e+00,5.000000000000000000e-01,-5.462537519633769989e-03,0.000000000000000000e+00
2.447860002517700195e+00,1.308817481994628906e+01,3.001198120117187500e+02,3.001198120117187500e+02,2.606468200683593750e-01,-8.999256134033203125e+01,2.346447668969631195e-02,-1.623301766812801361e-02,-6.124588012695312500e+00,-2.191178282373584807e-05,-1.107502654194831848e-01,-1.960696816444396973e+00,5.507000969373621047e-05,-1.000241711735725403e-01,2.659701555967330933e-02,-1.186646342277526855e+00,5.000000000000000000e-01,-5.462537519633769989e-03,0.000000000000000000e+00
2.500878810882568359e+00,1.308709049224853516e+01,2.996661682128906250e+02,2.996661682128906250e+02,2.538234889507293701e-01,-9.002999877929687500e+01,2.234027348458766937e-02,-1.954101212322711945e-02,-6.160993576049804688e+00,-5.177686944080051035e-06,-6.239284574985504150e-02,-6.866537332534790039e-01,3.156256279908120632e-04,1.892852336168289185e-01,-1.878141239285469055e-02,5.569837614893913269e-02,5.000000000000000000e-01,-4.611097276210784912e-03,0.000000000000000000e+00
2.500878810882568359e+00,1.308709049224853516e+01,2.996661682128906250e+02,2.996661682128906250e+02,2.538234889507293701e-01,-9.002999877929687500e+01,2.234027348458766937e-02,-1.954101212322711945e-02,-6.160993576049804688e+00,-5.177686944080051035e-06,-6.239284574985504150e-02,-6.866537332534790039e-01,3.156256279908120632e-04,1.892852336168289185e-01,-1.878141239285469055e-02,5.569837614893913269e-02,5.000000000000000000e-01,-4.611097276210784912e-03,0.000000000000000000e+00
2.500878810882568359e+00,1.308709049224853516e+01,2.996661682128906250e+02,2.996661682128906250e+02,2.538234889507293701e-01,-9.002999877929687500e+01,2.234027348458766937e-02,-1.954101212322711945e-02,-6.160993576049804688e+00,-5.177686944080051035e-06,-6.239284574985504150e-02,-6.866537332534790039e-01,3.156256279908120632e-04,1.892852336168289185e-01,-1.878141239285469055e-02,5.569837614893913269e-02,5.000000000000000000e-01,-4.611097276210784912e-03,0.000000000000000000e+00
2.560195446014404297e+00,1.308621406555175781e+01,2.993393249511718750e+02,2.993393249511718750e+02,2.408734411001205444e-01,-9.006092071533203125e+01,2.084779366850852966e-02,-2.114019356667995453e-02,-6.169288158416748047e+00,3.070424099860247225e-06,-2.696008235216140747e-02,-1.398356854915618896e-01,1.390522375004366040e-04,2.692090868949890137e-01,-3.029228001832962036e-02,-1.079895570874214172e-01,5.000000000000000000e-01,-4.087175708264112473e-03,0.000000000000000000e+00
2.560195446014404297e+00,1.308621406555175781e+01,2.993393249511718750e+02,2.993393249511718750e+02,2.408734411001205444e-01,-9.006092071533203125e+01,2.084779366850852966e-02,-2.114019356667995453e-02,-6.169288158416748047e+00,3.070424099860247225e-06,-2.696008235216140747e-02,-1.398356854915618896e-01,1.390522375004366040e-04,2.692090868949890137e-01,-3.029228001832962036e-02,-1.079895570874214172e-01,5.000000000000000000e-01,-4.087175708264112473e-03,0.000000000000000000e+00
2.560195446014404297e+00,1.308476448059082031e+01,2.989736328125000000e+02,2.989736328125000000e+02,2.227324545383453369e-01,-9.010198211669921875e+01,2.470906823873519897e-02,-3.102046251296997070e-02,-6.165059089660644531e+00,9.268339454138185829e-06,-1.687922179698944092e-01,7.224842160940170288e-02,1.058837442542426288e-04,3.204641044139862061e-01,6.231267377734184265e-02,-1.091389451175928116e-02,5.000000000000000000e-01,-6.317574530839920044e-03,0.000000000000000000e+00
2.618730545043945312e+00,1.308476448059082031e+01,2.989736328125000000e+02,2.989736328125000000e+02,2.227324545383453369e-01,-9.010198211669921875e+01,2.470906823873519897e-02,-3.102046251296997070e-02,-6.165059089660644531e+00,9.268339454138185829e-06,-1.687922179698944092e-01,7.224842160940170288e-02,1.058837442542426288e-04,3.204641044139862061e-01,6.231267377734184265e-02,-1.091389451175928116e-02,5.000000000000000000e-01,-6.317574530839920044e-03,0.000000000000000000e+00
2.618730545043945312e+00,1.308303833007812500e+01,2.986135864257812500e+02,2.986135864257812500e+02,2.031981199979782104e-01,-9.014624786376953125e+01,2.654919959604740143e-02,-3.564763441681861877e-02,-6.146634578704833984e+00,1.263433568965410814e-05,-7.895722985267639160e-02,3.143925368785858154e-01,5.743675501435063779e-05,3.376145660877227783e-01,1.316410303115844727e-02,2.031960934400558472e-01,5.000000000000000000e-01,-5.903189536184072495e-03,0.000000000000000000e+00
2.677334070205688477e+00,1.308303833007812500e+01,2.986135864257812500e+02,2.986135864257812500e+02,2.031981199979782104e-01,-9.014624786376953125e+01,2.654919959604740143e-02,-3.564763441681861877e-02,-6.146634578704833984e+00,1.263433568965410814e-05,-7.895722985267639160e-02,3.143925368785858154e-01,5.743675501435063779e-05,3.376145660877227783e-01,1.316410303115844727e-02,2.031960934400558472e-01,5.000000000000000000e-01,-5.903189536184072495e-03,0.000000000000000000e+00
2.677334070205688477e+00,1.308303833007812500e+01,2.986135864257812500e+02,2.986135864257812500e+02,2.031981199979782104e-01,-9.014624786376953125e+01,2.654919959604740143e-02,-3.564763441681861877e-02,-6.146634578704833984e+00,1.263433568965410814e-05,-7.895722985267639160e-02,3.143925368785858154e-01,5.743675501435063779e-05,3.376145660877227783e-01,1.316410303115844727e-02,2.031960934400558472e-01,5.000000000000000000e-01,-5.903189536184072495e-03,0.000000000000000000e+00
2.677334070205688477e+00,1.308303833007812500e+01,2.986135864257812500e+02,2.986135864257812500e+02,2.031981199979782104e-01,-9.014624786376953125e+01,2.654919959604740143e-02,-3.564763441681861877e-02,-6.146634578704833984e+00,1.263433568965410814e-05,-7.895722985267639160e-02,3.143925368785858154e-01,5.743675501435063779e-05,3.376145660877227783e-01,1.316410303115844727e-02,2.031960934400558472e-01,5.000000000000000000e-01,-5.903189536184072495e-03,0.000000000000000000e+00
2.755024909973144531e+00,1.308110427856445312e+01,2.982545166015625000e+02,2.982545166015625000e+02,1.838550269603729248e-01,-9.018810272216796875e+01,2.614032104611396790e-02,-3.884772583842277527e-02,-6.120498657226562500e+00,1.388346390740480274e-05,-4.119007289409637451e-02,3.364093005657196045e-01,1.607819285709410906e-05,3.222247660160064697e-01,-1.741188950836658478e-02,3.619533777236938477e-01,5.000000000000000000e-01,-5.355617031455039978e-03,0.000000000000000000e+00
2.755024909973144531e+00,1.308110427856445312e+01,2.982545166015625000e+02,2.982545166015625000e+02,1.838550269603729248e-01,-9.018810272216796875e+01,2.614032104611396790e-02,-3.884772583842277527e-02,-6.120498657226562500e+00,1.388346390740480274e-05,-4.119007289409637451e-02,3.364093005657196045e-01,1.607819285709410906e-05,3.222247660160064697e-01,-1.741188950836658478e-02,3.619533777236938477e-01,5.000000000000000000e-01,-5.355617031455039978e-03,0.000000000000000000e+00
2.755024909973144531e+00,1.308110427856445312e+01,2.982545166015625000e+02,2.982545166015625000e+02,1.838550269603729248e-01,-9.018810272216796875e+01,2.614032104611396790e-02,-3.884772583842277527e-02,-6.120498657226562500e+00,1.388346390740480274e-05,-4.119007289409637451e-02,3.364093005657196045e-01,1.607819285709410906e-05,3.222247660160064697e-01,-1.741188950836658478e-02,3.619533777236938477e-01,5.000000000000000000e-01,-5.355617031455039978e-03,0.000000000000000000e+00
2.830169916152954102e+00,1.307839775085449219e+01,2.977813720703125000e+02,2.977813720703125000e+02,1.596146821975708008e-01,-9.025930023193359375e+01,2.429474890232086182e-02,-4.205187782645225525e-02,-6.073033809661865234e+00,1.416939721821108833e-05,-4.263958707451820374e-02,6.316434144973754883e-01,3.805087317232391797e-06,3.026535511016845703e-01,-1.426422875374555588e-02,-2.146589994430541992e+00,5.000000000000000000e-01,-4.813821054995059967e-03,0.000000000000000000e+00
2.830169916152954102e+00,1.307839775085449219e+01,2.977813720703125000e+02,2.977813720703125000e+02,1.596146821975708008e-01,-9.025930023193359375e+01,2.429474890232086182e-02,-4.205187782645225525e-02,-6.073033809661865234e+00,1.416939721821108833e-05,-4.263958707451820374e-02,6.316434144973754883e-01,3.805087317232391797e-06,3.026535511016845703e-01,-1.426422875374555588e-02,-2.146589994430541992e+00,5.000000000000000000e-01,-4.813821054995059967e-03,0.000000000000000000e+00
2.830169916152954102e+00,1.307839775085449219e+01,2.977813720703125000e+02,2.977813720703125000e+02,1.596146821975708008e-01,-9.025930023193359375e+01,2.429474890232086182e-02,-4.205187782645225525e-02,-6.073033809661865234e+00,1.416939721821108833e-05,-4.263958707451820374e-02,6.316434144973754883e-01,3.805087317232391797e-06,3.026535511016845703e-01,-1.426422875374555588e-02,-2.146589994430541992e+00,5.000000000000000000e-01,-4.813821054995059967e-03,0.000000000000000000e+00
2.830169916152954102e+00,1.307839775085449219e+01,2.977813720703125000e+02,2.977813720703125000e+02,1.596146821975708008e-01,-9.025930023193359375e+01,2.429474890232086182e-02,-4.205187782645225525e-02,-6.073033809661865234e+00,1.416939721821108833e-05,-4.263958707451820374e-02,6.316434144973754883e-01,3.805087317232391797e-06,3.026535511016845703e-01,-1.426422875374555588e-02,-2.146589994430541992e+00,5.000000000000000000e-01,-4.813821054995059967e-03,0.000000000000000000e+00
2.830169916152954102e+00,1.307839775085449219e+01,2.977813720703125000e+02,2.977813720703125000e+02,1.596146821975708008e-01,-9.025930023193359375e+01,2.429474890232086182e-02,-4.205187782645225525e-02,-6.073033809661865234e+00,1.416939721821108833e-05,-4.263958707451820374e-02,6.316434144973754883e-01,3.805087317232391797e-06,3.026535511016845703e-01,-1.426422875374555588e-02,-2.146589994430541992e+00,5.000000000000000000e-01,-4.813821054995059967e-03,0.000000000000000000e+00
2.917726278305053711e+00,1.307532119750976562e+01,2.973273620605468750e+02,2.973273620605468750e+02,1.399983763694763184e-01,-9.027917480468750000e+01,2.118201926350593567e-02,-4.410373046994209290e-02,-6.025644779205322266e+00,9.049009349837433547e-06,-2.343464829027652740e-02,5.412402749061584473e-01,-5.848104774486273527e-05,2.297975867986679077e-01,-3.872952610254287720e-02,8.393550515174865723e-01,5.000000000000000000e-01,-3.986140713095664978e-03,0.000000000000000000e+00
