# Time,X,Y,Z,Roll,Pitch,Yaw,Vx,Vy,Vz,Ax,Ay,Az,Wx,Wy,Wz,Throttle,Steer,Brake
0.000000000000000000e+00,5.909100952148437500e+02,-2.409613227844238281e+01,-2.409613227844238281e+01,-1.665336638689041138e-01,-1.796104278564453125e+02,2.614802178868558258e-05,-1.567875862121582031e+01,-1.086740791797637939e-01,-5.149113349034450948e-07,2.540807425975799561e-01,1.790373586118221283e-03,3.645714912181574618e-07,-1.600962481461465359e-03,-3.186792880296707153e-02,7.863851264119148254e-03,1.000000000000000000e+00,2.824571274686604738e-04,0.000000000000000000e+00
1.045818328857421875e-01,5.909100952148437500e+02,-2.409613227844238281e+01,-2.409613227844238281e+01,-1.665336638689041138e-01,-1.796104278564453125e+02,2.614802178868558258e-05,-1.567875862121582031e+01,-1.086740791797637939e-01,-5.149113349034450948e-07,2.540807425975799561e-01,1.790373586118221283e-03,3.645714912181574618e-07,-1.600962481461465359e-03,-3.186792880296707153e-02,7.863851264119148254e-03,1.000000000000000000e+00,2.824571274686604738e-04,0.000000000000000000e+00
1.045818328857421875e-01,5.909100952148437500e+02,-2.409613227844238281e+01,-2.409613227844238281e+01,-1.665336638689041138e-01,-1.796104278564453125e+02,2.614802178868558258e-05,-1.567875862121582031e+01,-1.086740791797637939e-01,-5.149113349034450948e-07,2.540807425975799561e-01,1.790373586118221283e-03,3.645714912181574618e-07,-1.600962481461465359e-03,-3.186792880296707153e-02,7.863851264119148254e-03,1.000000000000000000e+00,2.824571274686604738e-04,0.000000000000000000e+00
1.045818328857421875e-01,5.909100952148437500e+02,-2.409613227844238281e+01,-2.409613227844238281e+01,-1.665336638689041138e-01,-1.796104278564453125e+02,2.614802178868558258e-05,-1.567875862121582031e+01,-1.086740791797637939e-01,-5.149113349034450948e-07,2.540807425975799561e-01,1.790373586118221283e-03,3.645714912181574618e-07,-1.600962481461465359e-03,-3.186792880296707153e-02,7.863851264119148254e-03,1.000000000000000000e+00,2.824571274686604738e-04,0.000000000000000000e+00
1.045818328857421875e-01,5.909100952148437500e+02,-2.409613227844238281e+01,-2.409613227844238281e+01,-1.665336638689041138e-01,-1.796104278564453125e+02,2.614802178868558258e-05,-1.567875862121582031e+01,-1.086740791797637939e-01,-5.149113349034450948e-07,2.540807425975799561e-01,1.790373586118221283e-03,3.645714912181574618e-07,-1.600962481461465359e-03,-3.186792880296707153e-02,7.863851264119148254e-03,1.000000000000000000e+00,2.824571274686604738e-04,0.000000000000000000e+00
1.045818328857421875e-01,5.909100952148437500e+02,-2.409613227844238281e+01,-2.409613227844238281e+01,-1.665336638689041138e-01,-1.796104278564453125e+02,2.614802178868558258e-05,-1.567875862121582031e+01,-1.086740791797637939e-01,-5.149113349034450948e-07,2.540807425975799561e-01,1.790373586118221283e-03,3.645714912181574618e-07,-1.600962481461465359e-03,-3.186792880296707153e-02,7.863851264119148254e-03,1.000000000000000000e+00,2.824571274686604738e-04,0.000000000000000000e+00
1.045818328857421875e-01,5.893439941406250000e+02,-2.410704612731933594e+01,-2.410704612731933594e+01,-1.691223084926605225e-01,-1.796031036376953125e+02,-2.441406104480847716e-04,-1.564749240875244141e+01,-1.105671823024749756e-01,-9.725856671138899401e-07,2.986012399196624756e-01,-1.807967573404312134e-02,-4.370920578367076814e-06,-2.471918473020195961e-03,-2.127479761838912964e-02,1.029698327183723450e-01,1.000000000000000000e+00,6.486680940724909306e-04,0.000000000000000000e+00
2.092907428741455078e-01,5.893439941406250000e+02,-2.410704612731933594e+01,-2.410704612731933594e+01,-1.691223084926605225e-01,-1.796031036376953125e+02,-2.441406104480847716e-04,-1.564749240875244141e+01,-1.105671823024749756e-01,-9.725856671138899401e-07,2.986012399196624756e-01,-1.807967573404312134e-02,-4.370920578367076814e-06,-2.471918473020195961e-03,-2.127479761838912964e-02,1.029698327183723450e-01,1.000000000000000000e+00,6.486680940724909306e-04,0.000000000000000000e+00
2.092907428741455078e-01,5.893439941406250000e+02,-2.410704612731933594e+01,-2.410704612731933594e+01,-1.691223084926605225e-01,-1.796031036376953125e+02,-2.441406104480847716e-04,-1.564749240875244141e+01,-1.105671823024749756e-01,-9.725856671138899401e-07,2.986012399196624756e-01,-1.807967573404312134e-02,-4.370920578367076814e-06,-2.471918473020195961e-03,-2.127479761838912964e-02,1.029698327183723450e-01,1.000000000000000000e+00,6.486680940724909306e-04,0.000000000000000000e+00
2.092907428741455078e-01,5.893439941406250000e+02,-2.410704612731933594e+01,-2.410704612731933594e+01,-1.691223084926605225e-01,-1.796031036376953125e+02,-2.441406104480847716e-04,-1.564749240875244141e+01,-1.105671823024749756e-01,-9.725856671138899401e-07,2.986012399196624756e-01,-1.807967573404312134e-02,-4.370920578367076814e-06,-2.471918473020195961e-03,-2.127479761838912964e-02,1.029698327183723450e-01,1.000000000000000000e+00,6.486680940724909306e-04,0.000000000000000000e+00
2.092907428741455078e-01,5.893439941406250000e+02,-2.410704612731933594e+01,-2.410704612731933594e+01,-1.691223084926605225e-01,-1.796031036376953125e+02,-2.441406104480847716e-04,-1.564749240875244141e+01,-1.105671823024749756e-01,-9.725856671138899401e-07,2.986012399196624756e-01,-1.807967573404312134e-02,-4.370920578367076814e-06,-2.471918473020195961e-03,-2.127479761838912964e-02,1.029698327183723450e-01,1.000000000000000000e+00,6.486680940724909306e-04,0.000000000000000000e+00
2.092907428741455078e-01,5.877802124023437500e+02,-2.411812782287597656e+01,-2.411812782287597656e+01,-1.702014803886413574e-01,-1.795907287597656250e+02,-4.882811044808477163e-04,-1.566691398620605469e+01,-1.132892742753028870e-01,1.716327631129388465e-07,-2.602780461311340332e-01,-3.648008406162261963e-02,1.533422982902266085e-05,-2.124740974977612495e-03,2.098525315523147583e-02,1.492145657539367676e-01,1.000000000000000000e+00,6.530761602334678173e-04,0.000000000000000000e+00
2.839093208312988281e-01,5.877802124023437500e+02,-2.411812782287597656e+01,-2.411812782287597656e+01,-1.702014803886413574e-01,-1.795907287597656250e+02,-4.882811044808477163e-04,-1.566691398620605469e+01,-1.132892742753028870e-01,1.716327631129388465e-07,-2.602780461311340332e-01,-3.648008406162261963e-02,1.533422982902266085e-05,-2.124740974977612495e-03,2.098525315523147583e-02,1.492145657539367676e-01,1.000000000000000000e+00,6.530761602334678173e-04,0.000000000000000000e+00
2.839093208312988281e-01,5.877802124023437500e+02,-2.411812782287597656e+01,-2.411812782287597656e+01,-1.702014803886413574e-01,-1.795907287597656250e+02,-4.882811044808477163e-04,-1.566691398620605469e+01,-1.132892742753028870e-01,1.716327631129388465e-07,-2.602780461311340332e-01,-3.648008406162261963e-02,1.533422982902266085e-05,-2.124740974977612495e-03,2.098525315523147583e-02,1.492145657539367676e-01,1.000000000000000000e+00,6.530761602334678173e-04,0.000000000000000000e+00
2.839093208312988281e-01,5.877802124023437500e+02,-2.411812782287597656e+01,-2.411812782287597656e+01,-1.702014803886413574e-01,-1.795907287597656250e+02,-4.882811044808477163e-04,-1.566691398620605469e+01,-1.132892742753028870e-01,1.716327631129388465e-07,-2.602780461311340332e-01,-3.648008406162261963e-02,1.533422982902266085e-05,-2.124740974977612495e-03,2.098525315523147583e-02,1.492145657539367676e-01,1.000000000000000000e+00,6.530761602334678173e-04,0.000000000000000000e+00
2.839093208312988281e-01,5.877802124023437500e+02,-2.411812782287597656e+01,-2.411812782287597656e+01,-1.702014803886413574e-01,-1.795907287597656250e+02,-4.882811044808477163e-04,-1.566691398620605469e+01,-1.132892742753028870e-01,1.716327631129388465e-07,-2.602780461311340332e-01,-3.648008406162261963e-02,1.533422982902266085e-05,-2.124740974977612495e-03,2.098525315523147583e-02,1.492145657539367676e-01,1.000000000000000000e+00,6.530761602334678173e-04,0.000000000000000000e+00
3.569011688232421875e-01,5.866015625000000000e+02,-2.412659835815429688e+01,-2.412659835815429688e+01,-1.653178930282592773e-01,-1.795780181884765625e+02,-5.798338679596781731e-04,-1.588096523284912109e+01,-1.165244951844215393e-01,2.250335455755703151e-06,-2.932536363601684570e+00,-4.432304576039314270e-02,2.847855830623302609e-05,-2.386563457548618317e-03,8.001697063446044922e-02,1.807895153760910034e-01,1.000000000000000000e+00,4.146999854128807783e-04,0.000000000000000000e+00
3.569011688232421875e-01,5.866015625000000000e+02,-2.412659835815429688e+01,-2.412659835815429688e+01,-1.653178930282592773e-01,-1.795780181884765625e+02,-5.798338679596781731e-04,-1.588096523284912109e+01,-1.165244951844215393e-01,2.250335455755703151e-06,-2.932536363601684570e+00,-4.432304576039314270e-02,2.847855830623302609e-05,-2.386563457548618317e-03,8.001697063446044922e-02,1.807895153760910034e-01,1.000000000000000000e+00,4.146999854128807783e-04,0.000000000000000000e+00
3.569011688232421875e-01,5.866015625000000000e+02,-2.412659835815429688e+01,-2.412659835815429688e+01,-1.653178930282592773e-01,-1.795780181884765625e+02,-5.798338679596781731e-04,-1.588096523284912109e+01,-1.165244951844215393e-01,2.250335455755703151e-06,-2.932536363601684570e+00,-4.432304576039314270e-02,2.847855830623302609e-05,-2.386563457548618317e-03,8.001697063446044922e-02,1.807895153760910034e-01,1.000000000000000000e+00,4.146999854128807783e-04,0.000000000000000000e+00
3.569011688232421875e-01,5.866015625000000000e+02,-2.412659835815429688e+01,-2.412659835815429688e+01,-1.653178930282592773e-01,-1.795780181884765625e+02,-5.798338679596781731e-04,-1.588096523284912109e+01,-1.165244951844215393e-01,2.250335455755703151e-06,-2.932536363601684570e+00,-4.432304576039314270e-02,2.847855830623302609e-05,-2.386563457548618317e-03,8.001697063446044922e-02,1.807895153760910034e-01,1.000000000000000000e+00,4.146999854128807783e-04,0.000000000000000000e+00
4.765405654907226562e-01,5.854329833984375000e+02,-2.413513183593750000e+01,-2.413513183593750000e+01,-1.595463752746582031e-01,-1.795656890869140625e+02,-7.019042386673390865e-04,-1.609371757507324219e+01,-1.198709085583686829e-01,8.772523187872138806e-07,-1.778280019760131836e+00,-2.797083184123039246e-02,-1.147684815805405378e-05,-2.307024318724870682e-03,7.547139376401901245e-02,1.631730347871780396e-01,1.000000000000000000e+00,1.820882171159610152e-04,0.000000000000000000e+00
4.765405654907226562e-01,5.854329833984375000e+02,-2.413513183593750000e+01,-2.413513183593750000e+01,-1.595463752746582031e-01,-1.795656890869140625e+02,-7.019042386673390865e-04,-1.609371757507324219e+01,-1.198709085583686829e-01,8.772523187872138806e-07,-1.778280019760131836e+00,-2.797083184123039246e-02,-1.147684815805405378e-05,-2.307024318724870682e-03,7.547139376401901245e-02,1.631730347871780396e-01,1.000000000000000000e+00,1.820882171159610152e-04,0.000000000000000000e+00
4.765405654907226562e-01,5.854329833984375000e+02,-2.413513183593750000e+01,-2.413513183593750000e+01,-1.595463752746582031e-01,-1.795656890869140625e+02,-7.019042386673390865e-04,-1.609371757507324219e+01,-1.198709085583686829e-01,8.772523187872138806e-07,-1.778280019760131836e+00,-2.797083184123039246e-02,-1.147684815805405378e-05,-2.307024318724870682e-03,7.547139376401901245e-02,1.631730347871780396e-01,1.000000000000000000e+00,1.820882171159610152e-04,0.000000000000000000e+00
4.765405654907226562e-01,5.854329833984375000e+02,-2.413513183593750000e+01,-2.413513183593750000e+01,-1.595463752746582031e-01,-1.795656890869140625e+02,-7.019042386673390865e-04,-1.609371757507324219e+01,-1.198709085583686829e-01,8.772523187872138806e-07,-1.778280019760131836e+00,-2.797083184123039246e-02,-1.147684815805405378e-05,-2.307024318724870682e-03,7.547139376401901245e-02,1.631730347871780396e-01,1.000000000000000000e+00,1.820882171159610152e-04,0.000000000000000000e+00
4.765405654907226562e-01,5.854329833984375000e+02,-2.413513183593750000e+01,-2.413513183593750000e+01,-1.595463752746582031e-01,-1.795656890869140625e+02,-7.019042386673390865e-04,-1.609371757507324219e+01,-1.198709085583686829e-01,8.772523187872138806e-07,-1.778280019760131836e+00,-2.797083184123039246e-02,-1.147684815805405378e-05,-2.307024318724870682e-03,7.547139376401901245e-02,1.631730347871780396e-01,1.000000000000000000e+00,1.820882171159610152e-04,0.000000000000000000e+00
4.765405654907226562e-01,5.854329833984375000e+02,-2.413513183593750000e+01,-2.413513183593750000e+01,-1.595463752746582031e-01,-1.795656890869140625e+02,-7.019042386673390865e-04,-1.609371757507324219e+01,-1.198709085583686829e-01,8.772523187872138806e-07,-1.778280019760131836e+00,-2.797083184123039246e-02,-1.147684815805405378e-05,-2.307024318724870682e-03,7.547139376401901245e-02,1.631730347871780396e-01,1.000000000000000000e+00,1.820882171159610152e-04,0.000000000000000000e+00
4.765405654907226562e-01,5.854329833984375000e+02,-2.413513183593750000e+01,-2.413513183593750000e+01,-1.595463752746582031e-01,-1.795656890869140625e+02,-7.019042386673390865e-04,-1.609371757507324219e+01,-1.198709085583686829e-01,8.772523187872138806e-07,-1.778280019760131836e+00,-2.797083184123039246e-02,-1.147684815805405378e-05,-2.307024318724870682e-03,7.547139376401901245e-02,1.631730347871780396e-01,1.000000000000000000e+00,1.820882171159610152e-04,0.000000000000000000e+00
6.200885772705078125e-01,5.838062744140625000e+02,-2.414721679687500000e+01,-2.414721679687500000e+01,-1.530713587999343872e-01,-1.795542755126953125e+02,-7.934568566270172596e-04,-1.638859367370605469e+01,-1.235742792487144470e-01,2.898686716434895061e-06,-2.054198503494262695e+00,-2.579882927238941193e-02,1.408193929819390178e-05,-1.196130644530057907e-03,5.439462140202522278e-02,9.166029095649719238e-02,1.000000000000000000e+00,-2.251519035780802369e-04,0.000000000000000000e+00
6.200885772705078125e-01,5.838062744140625000e+02,-2.414721679687500000e+01,-2.414721679687500000e+01,-1.530713587999343872e-01,-1.795542755126953125e+02,-7.934568566270172596e-04,-1.638859367370605469e+01,-1.235742792487144470e-01,2.898686716434895061e-06,-2.054198503494262695e+00,-2.579882927238941193e-02,1.408193929819390178e-05,-1.196130644530057907e-03,5.439462140202522278e-02,9.166029095649719238e-02,1.000000000000000000e+00,-2.251519035780802369e-04,0.000000000000000000e+00
6.200885772705078125e-01,5.838062744140625000e+02,-2.414721679687500000e+01,-2.414721679687500000e+01,-1.530713587999343872e-01,-1.795542755126953125e+02,-7.934568566270172596e-04,-1.638859367370605469e+01,-1.235742792487144470e-01,2.898686716434895061e-06,-2.054198503494262695e+00,-2.579882927238941193e-02,1.408193929819390178e-05,-1.196130644530057907e-03,5.439462140202522278e-02,9.166029095649719238e-02,1.000000000000000000e+00,-2.251519035780802369e-04,0.000000000000000000e+00
6.200885772705078125e-01,5.838062744140625000e+02,-2.414721679687500000e+01,-2.414721679687500000e+01,-1.530713587999343872e-01,-1.795542755126953125e+02,-7.934568566270172596e-04,-1.638859367370605469e+01,-1.235742792487144470e-01,2.898686716434895061e-06,-2.054198503494262695e+00,-2.579882927238941193e-02,1.408193929819390178e-05,-1.196130644530057907e-03,5.439462140202522278e-02,9.166029095649719238e-02,1.000000000000000000e+00,-2.251519035780802369e-04,0.000000000000000000e+00
6.200885772705078125e-01,5.838062744140625000e+02,-2.414721679687500000e+01,-2.414721679687500000e+01,-1.530713587999343872e-01,-1.795542755126953125e+02,-7.934568566270172596e-04,-1.638859367370605469e+01,-1.235742792487144470e-01,2.898686716434895061e-06,-2.054198503494262695e+00,-2.579882927238941193e-02,1.408193929819390178e-05,-1.196130644530057907e-03,5.439462140202522278e-02,9.166029095649719238e-02,1.000000000000000000e+00,-2.251519035780802369e-04,0.000000000000000000e+00
6.200885772705078125e-01,5.838062744140625000e+02,-2.414721679687500000e+01,-2.414721679687500000e+01,-1.530713587999343872e-01,-1.795542755126953125e+02,-7.934568566270172596e-04,-1.638859367370605469e+01,-1.235742792487144470e-01,2.898686716434895061e-06,-2.054198503494262695e+00,-2.579882927238941193e-02,1.408193929819390178e-05,-1.196130644530057907e-03,5.439462140202522278e-02,9.166029095649719238e-02,1.000000000000000000e+00,-2.251519035780802369e-04,0.000000000000000000e+00
7.946169376373291016e-01,5.821499633789062500e+02,-2.415967559814453125e+01,-2.415967559814453125e+01,-1.487683355808258057e-01,-1.795506286621093750e+02,-7.629393949173390865e-04,-1.668603324890136719e+01,-1.259723752737045288e-01,2.307507202203851193e-06,-1.704247832298278809e+00,-1.374043710529804230e-02,-3.387297738299821503e-06,5.504738510353490710e-05,3.603568673133850098e-02,1.082716137170791626e-02,1.000000000000000000e+00,-6.164551014080643654e-04,0.000000000000000000e+00
7.946169376373291016e-01,5.821499633789062500e+02,-2.415967559814453125e+01,-2.415967559814453125e+01,-1.487683355808258057e-01,-1.795506286621093750e+02,-7.629393949173390865e-04,-1.668603324890136719e+01,-1.259723752737045288e-01,2.307507202203851193e-06,-1.704247832298278809e+00,-1.374043710529804230e-02,-3.387297738299821503e-06,5.504738510353490710e-05,3.603568673133850098e-02,1.082716137170791626e-02,1.000000000000000000e+00,-6.164551014080643654e-04,0.000000000000000000e+00
7.946169376373291016e-01,5.821499633789062500e+02,-2.415967559814453125e+01,-2.415967559814453125e+01,-1.487683355808258057e-01,-1.795506286621093750e+02,-7.629393949173390865e-04,-1.668603324890136719e+01,-1.259723752737045288e-01,2.307507202203851193e-06,-1.704247832298278809e+00,-1.374043710529804230e-02,-3.387297738299821503e-06,5.504738510353490710e-05,3.603568673133850098e-02,1.082716137170791626e-02,1.000000000000000000e+00,-6.164551014080643654e-04,0.000000000000000000e+00
7.946169376373291016e-01,5.821499633789062500e+02,-2.415967559814453125e+01,-2.415967559814453125e+01,-1.487683355808258057e-01,-1.795506286621093750e+02,-7.629393949173390865e-04,-1.668603324890136719e+01,-1.259723752737045288e-01,2.307507202203851193e-06,-1.704247832298278809e+00,-1.374043710529804230e-02,-3.387297738299821503e-06,5.504738510353490710e-05,3.603568673133850098e-02,1.082716137170791626e-02,1.000000000000000000e+00,-6.164551014080643654e-04,0.000000000000000000e+00
8.783230781555175781e-01,5.804639282226562500e+02,-2.417234802246093750e+01,-2.417234802246093750e+01,-1.459338068962097168e-01,-1.795547637939453125e+02,-6.408691406250000000e-04,-1.698484420776367188e+01,-1.266830563545227051e-01,9.916559520206646994e-07,-3.569761514663696289e+00,-8.490190841257572174e-03,-1.571989014337304980e-05,1.035402296110987663e-03,2.372146584093570709e-02,-6.581418216228485107e-02,1.000000000000000000e+00,-9.575737640261650085e-04,0.000000000000000000e+00
8.783230781555175781e-01,5.804639282226562500e+02,-2.417234802246093750e+01,-2.417234802246093750e+01,-1.459338068962097168e-01,-1.795547637939453125e+02,-6.408691406250000000e-04,-1.698484420776367188e+01,-1.266830563545227051e-01,9.916559520206646994e-07,-3.569761514663696289e+00,-8.490190841257572174e-03,-1.571989014337304980e-05,1.035402296110987663e-03,2.372146584093570709e-02,-6.581418216228485107e-02,1.000000000000000000e+00,-9.575737640261650085e-04,0.000000000000000000e+00
9.483780860900878906e-01,5.790298461914062500e+02,-2.418303108215332031e+01,-2.418303108215332031e+01,-1.443492174148559570e-01,-1.795615081787109375e+02,-5.187987117096781731e-04,-1.723534965515136719e+01,-1.270153820514678955e-01,4.195581482235866133e-07,-3.575839281082153320e+00,-4.743782337754964828e-03,-8.166408406395930797e-06,1.118164276704192162e-03,1.646412350237369537e-02,-8.818519115447998047e-02,1.000000000000000000e+00,-9.721544338390231133e-04,0.000000000000000000e+00
9.483780860900878906e-01,5.790298461914062500e+02,-2.418303108215332031e+01,-2.418303108215332031e+01,-1.443492174148559570e-01,-1.795615081787109375e+02,-5.187987117096781731e-04,-1.723534965515136719e+01,-1.270153820514678955e-01,4.195581482235866133e-07,-3.575839281082153320e+00,-4.743782337754964828e-03,-8.166408406395930797e-06,1.118164276704192162e-03,1.646412350237369537e-02,-8.818519115447998047e-02,1.000000000000000000e+00,-9.721544338390231133e-04,0.000000000000000000e+00
9.483780860900878906e-01,5.790298461914062500e+02,-2.418303108215332031e+01,-2.418303108215332031e+01,-1.443492174148559570e-01,-1.795615081787109375e+02,-5.187987117096781731e-04,-1.723534965515136719e+01,-1.270153820514678955e-01,4.195581482235866133e-07,-3.575839281082153320e+00,-4.743782337754964828e-03,-8.166408406395930797e-06,1.118164276704192162e-03,1.646412350237369537e-02,-8.818519115447998047e-02,1.000000000000000000e+00,-9.721544338390231133e-04,0.000000000000000000e+00
9.483780860900878906e-01,5.790298461914062500e+02,-2.418303108215332031e+01,-2.418303108215332031e+01,-1.443492174148559570e-01,-1.795615081787109375e+02,-5.187987117096781731e-04,-1.723534965515136719e+01,-1.270153820514678955e-01,4.195581482235866133e-07,-3.575839281082153320e+00,-4.743782337754964828e-03,-8.166408406395930797e-06,1.118164276704192162e-03,1.646412350237369537e-02,-8.818519115447998047e-02,1.000000000000000000e+00,-9.721544338390231133e-04,0.000000000000000000e+00
9.483780860900878906e-01,5.778136596679687500e+02,-2.419201087951660156e+01,-2.419201087951660156e+01,-1.433724910020828247e-01,-1.795669250488281250e+02,-4.882812208961695433e-04,-1.744494438171386719e+01,-1.277036219835281372e-01,1.144248784612500458e-07,-2.659864902496337891e+00,-8.734119124710559845e-03,-3.872297838825033978e-06,5.162301240488886833e-04,1.238313782960176468e-02,-7.173658907413482666e-02,1.000000000000000000e+00,-7.863362552598118782e-04,0.000000000000000000e+00
1.027177095413208008e+00,5.778136596679687500e+02,-2.419201087951660156e+01,-2.419201087951660156e+01,-1.433724910020828247e-01,-1.795669250488281250e+02,-4.882812208961695433e-04,-1.744494438171386719e+01,-1.277036219835281372e-01,1.144248784612500458e-07,-2.659864902496337891e+00,-8.734119124710559845e-03,-3.872297838825033978e-06,5.162301240488886833e-04,1.238313782960176468e-02,-7.173658907413482666e-02,1.000000000000000000e+00,-7.863362552598118782e-04,0.000000000000000000e+00
1.027177095413208008e+00,5.778136596679687500e+02,-2.419201087951660156e+01,-2.419201087951660156e+01,-1.433724910020828247e-01,-1.795669250488281250e+02,-4.882812208961695433e-04,-1.744494438171386719e+01,-1.277036219835281372e-01,1.144248784612500458e-07,-2.659864902496337891e+00,-8.734119124710559845e-03,-3.872297838825033978e-06,5.162301240488886833e-04,1.238313782960176468e-02,-7.173658907413482666e-02,1.000000000000000000e+00,-7.863362552598118782e-04,0.000000000000000000e+00
1.095043420791625977e+00,5.764279174804687500e+02,-2.420217514038085938e+01,-2.420217514038085938e+01,-1.425801962614059448e-01,-1.795706329345703125e+02,-4.882812208961695433e-04,-1.768038368225097656e+01,-1.289697587490081787e-01,2.383809913908407907e-07,-3.469162225723266602e+00,-1.865633204579353333e-02,1.826474431254609954e-06,-7.634848589077591896e-05,8.787001483142375946e-03,-3.560363128781318665e-02,1.000000000000000000e+00,-5.852593458257615566e-04,0.000000000000000000e+00
1.095043420791625977e+00,5.764279174804687500e+02,-2.420217514038085938e+01,-2.420217514038085938e+01,-1.425801962614059448e-01,-1.795706329345703125e+02,-4.882812208961695433e-04,-1.768038368225097656e+01,-1.289697587490081787e-01,2.383809913908407907e-07,-3.469162225723266602e+00,-1.865633204579353333e-02,1.826474431254609954e-06,-7.634848589077591896e-05,8.787001483142375946e-03,-3.560363128781318665e-02,1.000000000000000000e+00,-5.852593458257615566e-04,0.000000000000000000e+00
1.095043420791625977e+00,5.764279174804687500e+02,-2.420217514038085938e+01,-2.420217514038085938e+01,-1.425801962614059448e-01,-1.795706329345703125e+02,-4.882812208961695433e-04,-1.768038368225097656e+01,-1.289697587490081787e-01,2.383809913908407907e-07,-3.469162225723266602e+00,-1.865633204579353333e-02,1.826474431254609954e-06,-7.634848589077591896e-05,8.787001483142375946e-03,-3.560363128781318665e-02,1.000000000000000000e+00,-5.852593458257615566e-04,0.000000000000000000e+00
1.095043420791625977e+00,5.764279174804687500e+02,-2.420217514038085938e+01,-2.420217514038085938e+01,-1.425801962614059448e-01,-1.795706329345703125e+02,-4.882812208961695433e-04,-1.768038368225097656e+01,-1.289697587490081787e-01,2.383809913908407907e-07,-3.469162225723266602e+00,-1.865633204579353333e-02,1.826474431254609954e-06,-7.634848589077591896e-05,8.787001483142375946e-03,-3.560363128781318665e-02,1.000000000000000000e+00,-5.852593458257615566e-04,0.000000000000000000e+00
1.168572425842285156e+00,5.752197265625000000e+02,-2.421097564697265625e+01,-2.421097564697265625e+01,-1.420884132385253906e-01,-1.795726776123046875e+02,-4.577634972520172596e-04,-1.788273048400878906e+01,-1.297353655099868774e-01,7.246940754157549236e-07,-2.751931667327880859e+00,-1.041230931878089905e-02,6.613894129259278998e-06,1.723781606415286660e-04,6.344933062791824341e-03,-2.721163630485534668e-02,1.000000000000000000e+00,-6.225585821084678173e-04,0.000000000000000000e+00
1.168572425842285156e+00,5.752197265625000000e+02,-2.421097564697265625e+01,-2.421097564697265625e+01,-1.420884132385253906e-01,-1.795726776123046875e+02,-4.577634972520172596e-04,-1.788273048400878906e+01,-1.297353655099868774e-01,7.246940754157549236e-07,-2.751931667327880859e+00,-1.041230931878089905e-02,6.613894129259278998e-06,1.723781606415286660e-04,6.344933062791824341e-03,-2.721163630485534668e-02,1.000000000000000000e+00,-6.225585821084678173e-04,0.000000000000000000e+00
1.168572425842285156e+00,5.752197265625000000e+02,-2.421097564697265625e+01,-2.421097564697265625e+01,-1.420884132385253906e-01,-1.795726776123046875e+02,-4.577634972520172596e-04,-1.788273048400878906e+01,-1.297353655099868774e-01,7.246940754157549236e-07,-2.751931667327880859e+00,-1.041230931878089905e-02,6.613894129259278998e-06,1.723781606415286660e-04,6.344933062791824341e-03,-2.721163630485534668e-02,1.000000000000000000e+00,-6.225585821084678173e-04,0.000000000000000000e+00
1.168572425842285156e+00,5.752197265625000000e+02,-2.421097564697265625e+01,-2.421097564697265625e+01,-1.420884132385253906e-01,-1.795726776123046875e+02,-4.577634972520172596e-04,-1.788273048400878906e+01,-1.297353655099868774e-01,7.246940754157549236e-07,-2.751931667327880859e+00,-1.041230931878089905e-02,6.613894129259278998e-06,1.723781606415286660e-04,6.344933062791824341e-03,-2.721163630485534668e-02,1.000000000000000000e+00,-6.225585821084678173e-04,0.000000000000000000e+00
1.168572425842285156e+00,5.738951416015625000e+02,-2.422059059143066406e+01,-2.422059059143066406e+01,-1.416922658681869507e-01,-1.795734100341796875e+02,-4.882811044808477163e-04,-1.810136985778808594e+01,-1.312950402498245239e-01,1.458907149753940757e-06,-2.913309812545776367e+00,-2.078223787248134613e-02,9.783188033907208592e-06,-4.601506225299090147e-04,4.500016104429960251e-03,-1.156313810497522354e-03,1.000000000000000000e+00,-4.567464056890457869e-04,0.000000000000000000e+00
1.243620872497558594e+00,5.738951416015625000e+02,-2.422059059143066406e+01,-2.422059059143066406e+01,-1.416922658681869507e-01,-1.795734100341796875e+02,-4.882811044808477163e-04,-1.810136985778808594e+01,-1.312950402498245239e-01,1.458907149753940757e-06,-2.913309812545776367e+00,-2.078223787248134613e-02,9.783188033907208592e-06,-4.601506225299090147e-04,4.500016104429960251e-03,-1.156313810497522354e-03,1.000000000000000000e+00,-4.567464056890457869e-04,0.000000000000000000e+00
1.243620872497558594e+00,5.738951416015625000e+02,-2.422059059143066406e+01,-2.422059059143066406e+01,-1.416922658681869507e-01,-1.795734100341796875e+02,-4.882811044808477163e-04,-1.810136985778808594e+01,-1.312950402498245239e-01,1.458907149753940757e-06,-2.913309812545776367e+00,-2.078223787248134613e-02,9.783188033907208592e-06,-4.601506225299090147e-04,4.500016104429960251e-03,-1.156313810497522354e-03,1.000000000000000000e+00,-4.567464056890457869e-04,0.000000000000000000e+00
1.243620872497558594e+00,5.738951416015625000e+02,-2.422059059143066406e+01,-2.422059059143066406e+01,-1.416922658681869507e-01,-1.795734100341796875e+02,-4.882811044808477163e-04,-1.810136985778808594e+01,-1.312950402498245239e-01,1.458907149753940757e-06,-2.913309812545776367e+00,-2.078223787248134613e-02,9.783188033907208592e-06,-4.601506225299090147e-04,4.500016104429960251e-03,-1.156313810497522354e-03,1.000000000000000000e+00,-4.567464056890457869e-04,0.000000000000000000e+00
1.312042951583862305e+00,5.725266113281250000e+02,-2.423052406311035156e+01,-2.423052406311035156e+01,-1.414190530776977539e-01,-1.795722808837890625e+02,-5.493163480423390865e-04,-1.832376861572265625e+01,-1.332930326461791992e-01,1.621002979845798109e-06,-3.250394582748413086e+00,-2.920098975300788879e-02,2.369057483520009555e-06,-7.004943327046930790e-04,3.061744850128889084e-03,2.354295738041400909e-02,1.000000000000000000e+00,-3.590901615098118782e-04,0.000000000000000000e+00
1.312042951583862305e+00,5.725266113281250000e+02,-2.423052406311035156e+01,-2.423052406311035156e+01,-1.414190530776977539e-01,-1.795722808837890625e+02,-5.493163480423390865e-04,-1.832376861572265625e+01,-1.332930326461791992e-01,1.621002979845798109e-06,-3.250394582748413086e+00,-2.920098975300788879e-02,2.369057483520009555e-06,-7.004943327046930790e-04,3.061744850128889084e-03,2.354295738041400909e-02,1.000000000000000000e+00,-3.590901615098118782e-04,0.000000000000000000e+00
1.312042951583862305e+00,5.712645263671875000e+02,-2.423969268798828125e+01,-2.423969268798828125e+01,-1.412619650363922119e-01,-1.795707244873046875e+02,-5.798339261673390865e-04,-1.852577018737792969e+01,-1.348334401845932007e-01,-5.625907988360268064e-07,-2.841634273529052734e+00,-2.166950888931751251e-02,-3.071745959459803998e-05,-4.149556334596127272e-04,1.957287546247243881e-03,2.137647196650505066e-02,1.000000000000000000e+00,-4.530164878815412521e-04,0.000000000000000000e+00
1.383129358291625977e+00,5.712645263671875000e+02,-2.423969268798828125e+01,-2.423969268798828125e+01,-1.412619650363922119e-01,-1.795707244873046875e+02,-5.798339261673390865e-04,-1.852577018737792969e+01,-1.348334401845932007e-01,-5.625907988360268064e-07,-2.841634273529052734e+00,-2.166950888931751251e-02,-3.071745959459803998e-05,-4.149556334596127272e-04,1.957287546247243881e-03,2.137647196650505066e-02,1.000000000000000000e+00,-4.530164878815412521e-04,0.000000000000000000e+00
1.383129358291625977e+00,5.712645263671875000e+02,-2.423969268798828125e+01,-2.423969268798828125e+01,-1.412619650363922119e-01,-1.795707244873046875e+02,-5.798339261673390865e-04,-1.852577018737792969e+01,-1.348334401845932007e-01,-5.625907988360268064e-07,-2.841634273529052734e+00,-2.166950888931751251e-02,-3.071745959459803998e-05,-4.149556334596127272e-04,1.957287546247243881e-03,2.137647196650505066e-02,1.000000000000000000e+00,-4.530164878815412521e-04,0.000000000000000000e+00
1.450951814651489258e+00,5.699386596679687500e+02,-2.424934196472167969e+01,-2.424934196472167969e+01,-1.411731690168380737e-01,-1.795690307617187500e+02,-6.103513296693563461e-04,-1.873480033874511719e+01,-1.367704719305038452e-01,4.481632061015261570e-07,-3.082019805908203125e+00,-2.856033109128475189e-02,1.490294016548432410e-05,-4.774129192810505629e-04,1.193113741464912891e-03,2.514453604817390442e-02,1.000000000000000000e+00,-4.140218079555779696e-04,0.000000000000000000e+00
1.450951814651489258e+00,5.699386596679687500e+02,-2.424934196472167969e+01,-2.424934196472167969e+01,-1.411731690168380737e-01,-1.795690307617187500e+02,-6.103513296693563461e-04,-1.873480033874511719e+01,-1.367704719305038452e-01,4.481632061015261570e-07,-3.082019805908203125e+00,-2.856033109128475189e-02,1.490294016548432410e-05,-4.774129192810505629e-04,1.193113741464912891e-03,2.514453604817390442e-02,1.000000000000000000e+00,-4.140218079555779696e-04,0.000000000000000000e+00
1.450951814651489258e+00,5.699386596679687500e+02,-2.424934196472167969e+01,-2.424934196472167969e+01,-1.411731690168380737e-01,-1.795690307617187500e+02,-6.103513296693563461e-04,-1.873480033874511719e+01,-1.367704719305038452e-01,4.481632061015261570e-07,-3.082019805908203125e+00,-2.856033109128475189e-02,1.490294016548432410e-05,-4.774129192810505629e-04,1.193113741464912891e-03,2.514453604817390442e-02,1.000000000000000000e+00,-4.140218079555779696e-04,0.000000000000000000e+00
1.527701377868652344e+00,5.686599731445312500e+02,-2.425866127014160156e+01,-2.425866127014160156e+01,-1.411117017269134521e-01,-1.795681152343750000e+02,-6.103514460846781731e-04,-1.893337631225585938e+01,-1.381323635578155518e-01,1.802199903977452777e-06,-2.587323904037475586e+00,-1.774461753666400909e-02,1.764227272360585630e-05,-4.529647048912011087e-05,6.052317330613732338e-04,7.825070992112159729e-03,1.000000000000000000e+00,-5.611843662336468697e-04,0.000000000000000000e+00
1.527701377868652344e+00,5.686599731445312500e+02,-2.425866127014160156e+01,-2.425866127014160156e+01,-1.411117017269134521e-01,-1.795681152343750000e+02,-6.103514460846781731e-04,-1.893337631225585938e+01,-1.381323635578155518e-01,1.802199903977452777e-06,-2.587323904037475586e+00,-1.774461753666400909e-02,1.764227272360585630e-05,-4.529647048912011087e-05,6.052317330613732338e-04,7.825070992112159729e-03,1.000000000000000000e+00,-5.611843662336468697e-04,0.000000000000000000e+00
1.527701377868652344e+00,5.686599731445312500e+02,-2.425866127014160156e+01,-2.425866127014160156e+01,-1.411117017269134521e-01,-1.795681152343750000e+02,-6.103514460846781731e-04,-1.893337631225585938e+01,-1.381323635578155518e-01,1.802199903977452777e-06,-2.587323904037475586e+00,-1.774461753666400909e-02,1.764227272360585630e-05,-4.529647048912011087e-05,6.052317330613732338e-04,7.825070992112159729e-03,1.000000000000000000e+00,-5.611843662336468697e-04,0.000000000000000000e+00
1.600134611129760742e+00,5.671965332031250000e+02,-2.426934814453125000e+01,-2.426934814453125000e+01,-1.410775482654571533e-01,-1.795675354003906250e+02,-6.103514460846781731e-04,-1.915703392028808594e+01,-1.400746405124664307e-01,2.317072812729747966e-06,-3.087776184082031250e+00,-2.681472152471542358e-02,7.108241334208287299e-06,-2.643860934767872095e-04,1.187684683827683330e-04,7.651949301362037659e-03,1.000000000000000000e+00,-4.947238485328853130e-04,0.000000000000000000e+00
1.600134611129760742e+00,5.671965332031250000e+02,-2.426934814453125000e+01,-2.426934814453125000e+01,-1.410775482654571533e-01,-1.795675354003906250e+02,-6.103514460846781731e-04,-1.915703392028808594e+01,-1.400746405124664307e-01,2.317072812729747966e-06,-3.087776184082031250e+00,-2.681472152471542358e-02,7.108241334208287299e-06,-2.643860934767872095e-04,1.187684683827683330e-04,7.651949301362037659e-03,1.000000000000000000e+00,-4.947238485328853130e-04,0.000000000000000000e+00
1.600134611129760742e+00,5.671965332031250000e+02,-2.426934814453125000e+01,-2.426934814453125000e+01,-1.410775482654571533e-01,-1.795675354003906250e+02,-6.103514460846781731e-04,-1.915703392028808594e+01,-1.400746405124664307e-01,2.317072812729747966e-06,-3.087776184082031250e+00,-2.681472152471542358e-02,7.108241334208287299e-06,-2.643860934767872095e-04,1.187684683827683330e-04,7.651949301362037659e-03,1.000000000000000000e+00,-4.947238485328853130e-04,0.000000000000000000e+00
1.600134611129760742e+00,5.671965332031250000e+02,-2.426934814453125000e+01,-2.426934814453125000e+01,-1.410775482654571533e-01,-1.795675354003906250e+02,-6.103514460846781731e-04,-1.915703392028808594e+01,-1.400746405124664307e-01,2.317072812729747966e-06,-3.087776184082031250e+00,-2.681472152471542358e-02,7.108241334208287299e-06,-2.643860934767872095e-04,1.187684683827683330e-04,7.651949301362037659e-03,1.000000000000000000e+00,-4.947238485328853130e-04,0.000000000000000000e+00
1.600134611129760742e+00,5.671965332031250000e+02,-2.426934814453125000e+01,-2.426934814453125000e+01,-1.410775482654571533e-01,-1.795675354003906250e+02,-6.103514460846781731e-04,-1.915703392028808594e+01,-1.400746405124664307e-01,2.317072812729747966e-06,-3.087776184082031250e+00,-2.681472152471542358e-02,7.108241334208287299e-06,-2.643860934767872095e-04,1.187684683827683330e-04,7.651949301362037659e-03,1.000000000000000000e+00,-4.947238485328853130e-04,0.000000000000000000e+00
1.600134611129760742e+00,5.657998046875000000e+02,-2.427956962585449219e+01,-2.427956962585449219e+01,-1.411117017269134521e-01,-1.795667877197265625e+02,-6.408689077943563461e-04,-1.936702919006347656e+01,-1.419858932495117188e-01,1.249132424163690303e-06,-1.820049762725830078e+00,-1.656501740217208862e-02,-9.255944860342424363e-06,-1.857085444498807192e-04,-3.048703656531870365e-04,1.181592606008052826e-02,1.000000000000000000e+00,-4.625108558684587479e-04,0.000000000000000000e+00
1.715513467788696289e+00,5.657998046875000000e+02,-2.427956962585449219e+01,-2.427956962585449219e+01,-1.411117017269134521e-01,-1.795667877197265625e+02,-6.408689077943563461e-04,-1.936702919006347656e+01,-1.419858932495117188e-01,1.249132424163690303e-06,-1.820049762725830078e+00,-1.656501740217208862e-02,-9.255944860342424363e-06,-1.857085444498807192e-04,-3.048703656531870365e-04,1.181592606008052826e-02,1.000000000000000000e+00,-4.625108558684587479e-04,0.000000000000000000e+00
1.715513467788696289e+00,5.657998046875000000e+02,-2.427956962585449219e+01,-2.427956962585449219e+01,-1.411117017269134521e-01,-1.795667877197265625e+02,-6.408689077943563461e-04,-1.936702919006347656e+01,-1.419858932495117188e-01,1.249132424163690303e-06,-1.820049762725830078e+00,-1.656501740217208862e-02,-9.255944860342424363e-06,-1.857085444498807192e-04,-3.048703656531870365e-04,1.181592606008052826e-02,1.000000000000000000e+00,-4.625108558684587479e-04,0.000000000000000000e+00
1.715513467788696289e+00,5.657998046875000000e+02,-2.427956962585449219e+01,-2.427956962585449219e+01,-1.411117017269134521e-01,-1.795667877197265625e+02,-6.408689077943563461e-04,-1.936702919006347656e+01,-1.419858932495117188e-01,1.249132424163690303e-06,-1.820049762725830078e+00,-1.656501740217208862e-02,-9.255944860342424363e-06,-1.857085444498807192e-04,-3.048703656531870365e-04,1.181592606008052826e-02,1.000000000000000000e+00,-4.625108558684587479e-04,0.000000000000000000e+00
1.813115119934082031e+00,5.638462524414062500e+02,-2.429390525817871094e+01,-2.429390525817871094e+01,-1.411390155553817749e-01,-1.795653228759765625e+02,-6.713865441270172596e-04,-1.965516471862792969e+01,-1.446158736944198608e-01,1.811679226193518844e-06,-2.952158451080322266e+00,-2.694606594741344452e-02,5.763701665273401886e-06,-1.591584587004035711e-04,-6.522383773699402809e-04,1.547382306307554245e-02,1.000000000000000000e+00,-4.540337540674954653e-04,0.000000000000000000e+00
1.813115119934082031e+00,5.638462524414062500e+02,-2.429390525817871094e+01,-2.429390525817871094e+01,-1.411390155553817749e-01,-1.795653228759765625e+02,-6.713865441270172596e-04,-1.965516471862792969e+01,-1.446158736944198608e-01,1.811679226193518844e-06,-2.952158451080322266e+00,-2.694606594741344452e-02,5.763701665273401886e-06,-1.591584587004035711e-04,-6.522383773699402809e-04,1.547382306307554245e-02,1.000000000000000000e+00,-4.540337540674954653e-04,0.000000000000000000e+00
1.813115119934082031e+00,5.638462524414062500e+02,-2.429390525817871094e+01,-2.429390525817871094e+01,-1.411390155553817749e-01,-1.795653228759765625e+02,-6.713865441270172596e-04,-1.965516471862792969e+01,-1.446158736944198608e-01,1.811679226193518844e-06,-2.952158451080322266e+00,-2.694606594741344452e-02,5.763701665273401886e-06,-1.591584587004035711e-04,-6.522383773699402809e-04,1.547382306307554245e-02,1.000000000000000000e+00,-4.540337540674954653e-04,0.000000000000000000e+00
1.813115119934082031e+00,5.638462524414062500e+02,-2.429390525817871094e+01,-2.429390525817871094e+01,-1.411390155553817749e-01,-1.795653228759765625e+02,-6.713865441270172596e-04,-1.965516471862792969e+01,-1.446158736944198608e-01,1.811679226193518844e-06,-2.952158451080322266e+00,-2.694606594741344452e-02,5.763701665273401886e-06,-1.591584587004035711e-04,-6.522383773699402809e-04,1.547382306307554245e-02,1.000000000000000000e+00,-4.540337540674954653e-04,0.000000000000000000e+00
1.896134853363037109e+00,5.619119262695312500e+02,-2.430814170837402344e+01,-2.430814170837402344e+01,-1.412346512079238892e-01,-1.795642700195312500e+02,-6.713866605423390865e-04,-1.993430709838867188e+01,-1.469323337078094482e-01,1.287250938730721828e-06,-3.362361907958984375e+00,-2.790252305567264557e-02,-6.316911367321154103e-06,6.960419705137610435e-05,-9.954131674021482468e-04,8.732666261494159698e-03,1.000000000000000000e+00,-5.011664470657706261e-04,0.000000000000000000e+00
1.896134853363037109e+00,5.619119262695312500e+02,-2.430814170837402344e+01,-2.430814170837402344e+01,-1.412346512079238892e-01,-1.795642700195312500e+02,-6.713866605423390865e-04,-1.993430709838867188e+01,-1.469323337078094482e-01,1.287250938730721828e-06,-3.362361907958984375e+00,-2.790252305567264557e-02,-6.316911367321154103e-06,6.960419705137610435e-05,-9.954131674021482468e-04,8.732666261494159698e-03,1.000000000000000000e+00,-5.011664470657706261e-04,0.000000000000000000e+00
1.896134853363037109e+00,5.619119262695312500e+02,-2.430814170837402344e+01,-2.430814170837402344e+01,-1.412346512079238892e-01,-1.795642700195312500e+02,-6.713866605423390865e-04,-1.993430709838867188e+01,-1.469323337078094482e-01,1.287250938730721828e-06,-3.362361907958984375e+00,-2.790252305567264557e-02,-6.316911367321154103e-06,6.960419705137610435e-05,-9.954131674021482468e-04,8.732666261494159698e-03,1.000000000000000000e+00,-5.011664470657706261e-04,0.000000000000000000e+00
1.896134853363037109e+00,5.619119262695312500e+02,-2.430814170837402344e+01,-2.430814170837402344e+01,-1.412346512079238892e-01,-1.795642700195312500e+02,-6.713866605423390865e-04,-1.993430709838867188e+01,-1.469323337078094482e-01,1.287250938730721828e-06,-3.362361907958984375e+00,-2.790252305567264557e-02,-6.316911367321154103e-06,6.960419705137610435e-05,-9.954131674021482468e-04,8.732666261494159698e-03,1.000000000000000000e+00,-5.011664470657706261e-04,0.000000000000000000e+00
1.896134853363037109e+00,5.619119262695312500e+02,-2.430814170837402344e+01,-2.430814170837402344e+01,-1.412346512079238892e-01,-1.795642700195312500e+02,-6.713866605423390865e-04,-1.993430709838867188e+01,-1.469323337078094482e-01,1.287250938730721828e-06,-3.362361907958984375e+00,-2.790252305567264557e-02,-6.316911367321154103e-06,6.960419705137610435e-05,-9.954131674021482468e-04,8.732666261494159698e-03,1.000000000000000000e+00,-5.011664470657706261e-04,0.000000000000000000e+00
1.896134853363037109e+00,5.619119262695312500e+02,-2.430814170837402344e+01,-2.430814170837402344e+01,-1.412346512079238892e-01,-1.795642700195312500e+02,-6.713866605423390865e-04,-1.993430709838867188e+01,-1.469323337078094482e-01,1.287250938730721828e-06,-3.362361907958984375e+00,-2.790252305567264557e-02,-6.316911367321154103e-06,6.960419705137610435e-05,-9.954131674021482468e-04,8.732666261494159698e-03,1.000000000000000000e+00,-5.011664470657706261e-04,0.000000000000000000e+00
1.896134853363037109e+00,5.619119262695312500e+02,-2.430814170837402344e+01,-2.430814170837402344e+01,-1.412346512079238892e-01,-1.795642700195312500e+02,-6.713866605423390865e-04,-1.993430709838867188e+01,-1.469323337078094482e-01,1.287250938730721828e-06,-3.362361907958984375e+00,-2.790252305567264557e-02,-6.316911367321154103e-06,6.960419705137610435e-05,-9.954131674021482468e-04,8.732666261494159698e-03,1.000000000000000000e+00,-5.011664470657706261e-04,0.000000000000000000e+00
2.195794820785522461e+00,5.564832153320312500e+02,-2.434792518615722656e+01,-2.434792518615722656e+01,-1.573470532894134521e-01,-1.795876922607421875e+02,-4.272460937500000000e-04,-2.002103042602539062e+01,-1.441139727830886841e-01,-3.528079446368792560e-07,7.045683860778808594e-01,2.816547453403472900e-02,-1.275672184419818223e-05,1.742924097925424576e-03,-7.031891494989395142e-02,-1.126604303717613220e-01,1.000000000000000000e+00,-3.479003789834678173e-04,0.000000000000000000e+00
2.195794820785522461e+00,5.564832153320312500e+02,-2.434792518615722656e+01,-2.434792518615722656e+01,-1.573470532894134521e-01,-1.795876922607421875e+02,-4.272460937500000000e-04,-2.002103042602539062e+01,-1.441139727830886841e-01,-3.528079446368792560e-07,7.045683860778808594e-01,2.816547453403472900e-02,-1.275672184419818223e-05,1.742924097925424576e-03,-7.031891494989395142e-02,-1.126604303717613220e-01,1.000000000000000000e+00,-3.479003789834678173e-04,0.000000000000000000e+00
2.195794820785522461e+00,5.564832153320312500e+02,-2.434792518615722656e+01,-2.434792518615722656e+01,-1.573470532894134521e-01,-1.795876922607421875e+02,-4.272460937500000000e-04,-2.002103042602539062e+01,-1.441139727830886841e-01,-3.528079446368792560e-07,7.045683860778808594e-01,2.816547453403472900e-02,-1.275672184419818223e-05,1.742924097925424576e-03,-7.031891494989395142e-02,-1.126604303717613220e-01,1.000000000000000000e+00,-3.479003789834678173e-04,0.000000000000000000e+00
2.195794820785522461e+00,5.564832153320312500e+02,-2.434792518615722656e+01,-2.434792518615722656e+01,-1.573470532894134521e-01,-1.795876922607421875e+02,-4.272460937500000000e-04,-2.002103042602539062e+01,-1.441139727830886841e-01,-3.528079446368792560e-07,7.045683860778808594e-01,2.816547453403472900e-02,-1.275672184419818223e-05,1.742924097925424576e-03,-7.031891494989395142e-02,-1.126604303717613220e-01,1.000000000000000000e+00,-3.479003789834678173e-04,0.000000000000000000e+00
2.195794820785522461e+00,5.564832153320312500e+02,-2.434792518615722656e+01,-2.434792518615722656e+01,-1.573470532894134521e-01,-1.795876922607421875e+02,-4.272460937500000000e-04,-2.002103042602539062e+01,-1.441139727830886841e-01,-3.528079446368792560e-07,7.045683860778808594e-01,2.816547453403472900e-02,-1.275672184419818223e-05,1.742924097925424576e-03,-7.031891494989395142e-02,-1.126604303717613220e-01,1.000000000000000000e+00,-3.479003789834678173e-04,0.000000000000000000e+00
2.195794820785522461e+00,5.564832153320312500e+02,-2.434792518615722656e+01,-2.434792518615722656e+01,-1.573470532894134521e-01,-1.795876922607421875e+02,-4.272460937500000000e-04,-2.002103042602539062e+01,-1.441139727830886841e-01,-3.528079446368792560e-07,7.045683860778808594e-01,2.816547453403472900e-02,-1.275672184419818223e-05,1.742924097925424576e-03,-7.031891494989395142e-02,-1.126604303717613220e-01,1.000000000000000000e+00,-3.479003789834678173e-04,0.000000000000000000e+00
2.195794820785522461e+00,5.564832153320312500e+02,-2.434792518615722656e+01,-2.434792518615722656e+01,-1.573470532894134521e-01,-1.795876922607421875e+02,-4.272460937500000000e-04,-2.002103042602539062e+01,-1.441139727830886841e-01,-3.528079446368792560e-07,7.045683860778808594e-01,2.816547453403472900e-02,-1.275672184419818223e-05,1.742924097925424576e-03,-7.031891494989395142e-02,-1.126604303717613220e-01,1.000000000000000000e+00,-3.479003789834678173e-04,0.000000000000000000e+00
2.195794820785522461e+00,5.564832153320312500e+02,-2.434792518615722656e+01,-2.434792518615722656e+01,-1.573470532894134521e-01,-1.795876922607421875e+02,-4.272460937500000000e-04,-2.002103042602539062e+01,-1.441139727830886841e-01,-3.528079446368792560e-07,7.045683860778808594e-01,2.816547453403472900e-02,-1.275672184419818223e-05,1.742924097925424576e-03,-7.031891494989395142e-02,-1.126604303717613220e-01,1.000000000000000000e+00,-3.479003789834678173e-04,0.000000000000000000e+00
2.195794820785522461e+00,5.564832153320312500e+02,-2.434792518615722656e+01,-2.434792518615722656e+01,-1.573470532894134521e-01,-1.795876922607421875e+02,-4.272460937500000000e-04,-2.002103042602539062e+01,-1.441139727830886841e-01,-3.528079446368792560e-07,7.045683860778808594e-01,2.816547453403472900e-02,-1.275672184419818223e-05,1.742924097925424576e-03,-7.031891494989395142e-02,-1.126604303717613220e-01,1.000000000000000000e+00,-3.479003789834678173e-04,0.000000000000000000e+00
2.195794820785522461e+00,5.564832153320312500e+02,-2.434792518615722656e+01,-2.434792518615722656e+01,-1.573470532894134521e-01,-1.795876922607421875e+02,-4.272460937500000000e-04,-2.002103042602539062e+01,-1.441139727830886841e-01,-3.528079446368792560e-07,7.045683860778808594e-01,2.816547453403472900e-02,-1.275672184419818223e-05,1.742924097925424576e-03,-7.031891494989395142e-02,-1.126604303717613220e-01,1.000000000000000000e+00,-3.479003789834678173e-04,0.000000000000000000e+00
2.374083757400512695e+00,5.554214477539062500e+02,-2.435560226440429688e+01,-2.435560226440429688e+01,-1.606118828058242798e-01,-1.795919342041015625e+02,-3.967284283135086298e-04,-1.999842834472656250e+01,-1.438142210245132446e-01,1.716386037742267945e-07,1.267721951007843018e-01,1.681269495747983456e-03,2.941553930213558488e-06,6.872701342217624187e-04,-5.736741423606872559e-02,-6.255085766315460205e-02,1.000000000000000000e+00,4.136827192269265652e-05,0.000000000000000000e+00
2.374083757400512695e+00,5.554214477539062500e+02,-2.435560226440429688e+01,-2.435560226440429688e+01,-1.606118828058242798e-01,-1.795919342041015625e+02,-3.967284283135086298e-04,-1.999842834472656250e+01,-1.438142210245132446e-01,1.716386037742267945e-07,1.267721951007843018e-01,1.681269495747983456e-03,2.941553930213558488e-06,6.872701342217624187e-04,-5.736741423606872559e-02,-6.255085766315460205e-02,1.000000000000000000e+00,4.136827192269265652e-05,0.000000000000000000e+00
2.374083757400512695e+00,5.554214477539062500e+02,-2.435560226440429688e+01,-2.435560226440429688e+01,-1.606118828058242798e-01,-1.795919342041015625e+02,-3.967284283135086298e-04,-1.999842834472656250e+01,-1.438142210245132446e-01,1.716386037742267945e-07,1.267721951007843018e-01,1.681269495747983456e-03,2.941553930213558488e-06,6.872701342217624187e-04,-5.736741423606872559e-02,-6.255085766315460205e-02,1.000000000000000000e+00,4.136827192269265652e-05,0.000000000000000000e+00
2.447860002517700195e+00,5.534240722656250000e+02,-2.436998939514160156e+01,-2.436998939514160156e+01,-1.653793603181838989e-01,-1.795929412841796875e+02,-4.272461519576609135e-04,-1.995592689514160156e+01,-1.436490565538406372e-01,1.334921535089961253e-06,5.760858654975891113e-01,2.238721586763858795e-03,1.576771683176048100e-05,-1.132187389885075390e-05,-3.886967524886131287e-02,1.586122252047061920e-02,1.000000000000000000e+00,2.353244344703853130e-04,0.000000000000000000e+00
2.447860002517700195e+00,5.534240722656250000e+02,-2.436998939514160156e+01,-2.436998939514160156e+01,-1.653793603181838989e-01,-1.795929412841796875e+02,-4.272461519576609135e-04,-1.995592689514160156e+01,-1.436490565538406372e-01,1.334921535089961253e-06,5.760858654975891113e-01,2.238721586763858795e-03,1.576771683176048100e-05,-1.132187389885075390e-05,-3.886967524886131287e-02,1.586122252047061920e-02,1.000000000000000000e+00,2.353244344703853130e-04,0.000000000000000000e+00
2.500878810882568359e+00,5.519531250000000000e+02,-2.438049316406250000e+01,-2.438049316406250000e+01,-1.676947921514511108e-01,-1.795945129394531250e+02,-3.051757230423390865e-04,-1.992466354370117188e+01,-1.412537693977355957e-01,7.628268008375016507e-07,5.896652936935424805e-01,4.517806321382522583e-02,-1.079041066986974329e-05,1.631151768378913403e-03,-2.778917737305164337e-02,-4.038654267787933350e-02,1.000000000000000000e+00,-3.292507608421146870e-04,0.000000000000000000e+00
2.500878810882568359e+00,5.519531250000000000e+02,-2.438049316406250000e+01,-2.438049316406250000e+01,-1.676947921514511108e-01,-1.795945129394531250e+02,-3.051757230423390865e-04,-1.992466354370117188e+01,-1.412537693977355957e-01,7.628268008375016507e-07,5.896652936935424805e-01,4.517806321382522583e-02,-1.079041066986974329e-05,1.631151768378913403e-03,-2.778917737305164337e-02,-4.038654267787933350e-02,1.000000000000000000e+00,-3.292507608421146870e-04,0.000000000000000000e+00
2.500878810882568359e+00,5.519531250000000000e+02,-2.438049316406250000e+01,-2.438049316406250000e+01,-1.676947921514511108e-01,-1.795945129394531250e+02,-3.051757230423390865e-04,-1.992466354370117188e+01,-1.412537693977355957e-01,7.628268008375016507e-07,5.896652936935424805e-01,4.517806321382522583e-02,-1.079041066986974329e-05,1.631151768378913403e-03,-2.778917737305164337e-02,-4.038654267787933350e-02,1.000000000000000000e+00,-3.292507608421146870e-04,0.000000000000000000e+00
2.560195446014404297e+00,5.508975219726562500e+02,-2.438794326782226562e+01,-2.438794326782226562e+01,-1.689447164535522461e-01,-1.795983734130859375e+02,-2.136230323230847716e-04,-1.990223503112792969e+01,-1.391310989856719971e-01,2.231302005384350196e-06,3.781150579452514648e-01,3.578541427850723267e-02,2.475654764566570520e-05,1.951475511305034161e-03,-2.198924683034420013e-02,-8.804225921630859375e-02,1.000000000000000000e+00,-5.737304454669356346e-04,0.000000000000000000e+00
2.560195446014404297e+00,5.508975219726562500e+02,-2.438794326782226562e+01,-2.438794326782226562e+01,-1.689447164535522461e-01,-1.795983734130859375e+02,-2.136230323230847716e-04,-1.990223503112792969e+01,-1.391310989856719971e-01,2.231302005384350196e-06,3.781150579452514648e-01,3.578541427850723267e-02,2.475654764566570520e-05,1.951475511305034161e-03,-2.198924683034420013e-02,-8.804225921630859375e-02,1.000000000000000000e+00,-5.737304454669356346e-04,0.000000000000000000e+00
2.560195446014404297e+00,5.497106323242187500e+02,-2.439591789245605469e+01,-2.439591789245605469e+01,-1.663492470979690552e-01,-1.796173248291015625e+02,3.991806006524711847e-04,-2.007946014404296875e+01,-1.274012327194213867e-01,4.195544818230700912e-07,-3.027672529220581055e+00,2.003902941942214966e-01,-3.095147258136421442e-05,1.131861284375190735e-02,7.085170596837997437e-02,-4.310584068298339844e-01,1.000000000000000000e+00,-3.819105448201298714e-03,0.000000000000000000e+00
2.618730545043945312e+00,5.497106323242187500e+02,-2.439591789245605469e+01,-2.439591789245605469e+01,-1.663492470979690552e-01,-1.796173248291015625e+02,3.991806006524711847e-04,-2.007946014404296875e+01,-1.274012327194213867e-01,4.195544818230700912e-07,-3.027672529220581055e+00,2.003902941942214966e-01,-3.095147258136421442e-05,1.131861284375190735e-02,7.085170596837997437e-02,-4.310584068298339844e-01,1.000000000000000000e+00,-3.819105448201298714e-03,0.000000000000000000e+00
2.618730545043945312e+00,5.485285644531250000e+02,-2.440314865112304688e+01,-2.440314865112304688e+01,-1.614998131990432739e-01,-1.796578521728515625e+02,1.285473001189529896e-03,-2.026107406616210938e+01,-1.113280057907104492e-01,3.318300741739221849e-06,-3.099027156829833984e+00,2.742706537246704102e-01,4.946368426317349076e-05,1.469613146036863327e-02,8.546885848045349121e-02,-8.205407857894897461e-01,1.000000000000000000e+00,-5.564711056649684906e-03,0.000000000000000000e+00
2.677334070205688477e+00,5.485285644531250000e+02,-2.440314865112304688e+01,-2.440314865112304688e+01,-1.614998131990432739e-01,-1.796578521728515625e+02,1.285473001189529896e-03,-2.026107406616210938e+01,-1.113280057907104492e-01,3.318300741739221849e-06,-3.099027156829833984e+00,2.742706537246704102e-01,4.946368426317349076e-05,1.469613146036863327e-02,8.546885848045349121e-02,-8.205407857894897461e-01,1.000000000000000000e+00,-5.564711056649684906e-03,0.000000000000000000e+00
2.677334070205688477e+00,5.485285644531250000e+02,-2.440314865112304688e+01,-2.440314865112304688e+01,-1.614998131990432739e-01,-1.796578521728515625e+02,1.285473001189529896e-03,-2.026107406616210938e+01,-1.113280057907104492e-01,3.318300741739221849e-06,-3.099027156829833984e+00,2.742706537246704102e-01,4.946368426317349076e-05,1.469613146036863327e-02,8.546885848045349121e-02,-8.205407857894897461e-01,1.000000000000000000e+00,-5.564711056649684906e-03,0.000000000000000000e+00
2.677334070205688477e+00,5.485285644531250000e+02,-2.440314865112304688e+01,-2.440314865112304688e+01,-1.614998131990432739e-01,-1.796578521728515625e+02,1.285473001189529896e-03,-2.026107406616210938e+01,-1.113280057907104492e-01,3.318300741739221849e-06,-3.099027156829833984e+00,2.742706537246704102e-01,4.946368426317349076e-05,1.469613146036863327e-02,8.546885848045349121e-02,-8.205407857894897461e-01,1.000000000000000000e+00,-5.564711056649684906e-03,0.000000000000000000e+00
2.755024909973144531e+00,5.473345947265625000e+02,-2.440952110290527344e+01,-2.440952110290527344e+01,-1.568279713392257690e-01,-1.797190551757812500e+02,2.253528218716382980e-03,-2.043758201599121094e+01,-9.176575392484664917e-02,1.964281182154081762e-06,-2.271927356719970703e+00,2.517961263656616211e-01,-1.742830500006675720e-05,1.595829240977764130e-02,7.420784235000610352e-02,-1.155069828033447266e+00,1.000000000000000000e+00,-6.540256086736917496e-03,0.000000000000000000e+00
2.755024909973144531e+00,5.473345947265625000e+02,-2.440952110290527344e+01,-2.440952110290527344e+01,-1.568279713392257690e-01,-1.797190551757812500e+02,2.253528218716382980e-03,-2.043758201599121094e+01,-9.176575392484664917e-02,1.964281182154081762e-06,-2.271927356719970703e+00,2.517961263656616211e-01,-1.742830500006675720e-05,1.595829240977764130e-02,7.420784235000610352e-02,-1.155069828033447266e+00,1.000000000000000000e+00,-6.540256086736917496e-03,0.000000000000000000e+00
2.755024909973144531e+00,5.473345947265625000e+02,-2.440952110290527344e+01,-2.440952110290527344e+01,-1.568279713392257690e-01,-1.797190551757812500e+02,2.253528218716382980e-03,-2.043758201599121094e+01,-9.176575392484664917e-02,1.964281182154081762e-06,-2.271927356719970703e+00,2.517961263656616211e-01,-1.742830500006675720e-05,1.595829240977764130e-02,7.420784235000610352e-02,-1.155069828033447266e+00,1.000000000000000000e+00,-6.540256086736917496e-03,0.000000000000000000e+00
2.830169916152954102e+00,5.457360229492187500e+02,-2.441637611389160156e+01,-2.441637611389160156e+01,-1.520400047302246094e-01,-1.798154144287109375e+02,3.300032345578074455e-03,-2.066442871093750000e+01,-6.631510704755783081e-02,1.096555024560075253e-06,-3.018785953521728516e+00,3.386871218681335449e-01,-1.154735582531429827e-05,1.242088712751865387e-02,5.296074599027633667e-02,-1.283847332000732422e+00,1.000000000000000000e+00,-5.820380523800849915e-03,0.000000000000000000e+00
2.830169916152954102e+00,5.457360229492187500e+02,-2.441637611389160156e+01,-2.441637611389160156e+01,-1.520400047302246094e-01,-1.798154144287109375e+02,3.300032345578074455e-03,-2.066442871093750000e+01,-6.631510704755783081e-02,1.096555024560075253e-06,-3.018785953521728516e+00,3.386871218681335449e-01,-1.154735582531429827e-05,1.242088712751865387e-02,5.296074599027633667e-02,-1.283847332000732422e+00,1.000000000000000000e+00,-5.820380523800849915e-03,0.000000000000000000e+00
2.830169916152954102e+00,5.457360229492187500e+02,-2.441637611389160156e+01,-2.441637611389160156e+01,-1.520400047302246094e-01,-1.798154144287109375e+02,3.300032345578074455e-03,-2.066442871093750000e+01,-6.631510704755783081e-02,1.096555024560075253e-06,-3.018785953521728516e+00,3.386871218681335449e-01,-1.154735582531429827e-05,1.242088712751865387e-02,5.296074599027633667e-02,-1.283847332000732422e+00,1.000000000000000000e+00,-5.820380523800849915e-03,0.000000000000000000e+00
2.830169916152954102e+00,5.457360229492187500e+02,-2.441637611389160156e+01,-2.441637611389160156e+01,-1.520400047302246094e-01,-1.798154144287109375e+02,3.300032345578074455e-03,-2.066442871093750000e+01,-6.631510704755783081e-02,1.096555024560075253e-06,-3.018785953521728516e+00,3.386871218681335449e-01,-1.154735582531429827e-05,1.242088712751865387e-02,5.296074599027633667e-02,-1.283847332000732422e+00,1.000000000000000000e+00,-5.820380523800849915e-03,0.000000000000000000e+00
2.830169916152954102e+00,5.457360229492187500e+02,-2.441637611389160156e+01,-2.441637611389160156e+01,-1.520400047302246094e-01,-1.798154144287109375e+02,3.300032345578074455e-03,-2.066442871093750000e+01,-6.631510704755783081e-02,1.096555024560075253e-06,-3.018785953521728516e+00,3.386871218681335449e-01,-1.154735582531429827e-05,1.242088712751865387e-02,5.296074599027633667e-02,-1.283847332000732422e+00,1.000000000000000000e+00,-5.820380523800849915e-03,0.000000000000000000e+00
