# Time,X,Y,Z,Roll,Pitch,Yaw,Vx,Vy,Vz,Ax,Ay,Az,Wx,Wy,Wz,Throttle,Steer,Brake
0.000000000000000000e+00,6.654382934570312500e+02,1.095885696411132812e+02,1.095885696411132812e+02,-7.658075690269470215e-01,-8.937734222412109375e+01,1.742787659168243408e-03,1.212454289197921753e-01,-1.115521049499511719e+01,1.291950611630454659e-04,2.182266674935817719e-02,-1.937024712562561035e+00,2.534040540922433138e-04,-9.835751652717590332e-01,-2.754326909780502319e-03,1.038879854604601860e-03,5.000000000000000000e-01,5.086263286102621350e-07,0.000000000000000000e+00
1.045818328857421875e-01,6.654382934570312500e+02,1.095885696411132812e+02,1.095885696411132812e+02,-7.658075690269470215e-01,-8.937734222412109375e+01,1.742787659168243408e-03,1.212454289197921753e-01,-1.115521049499511719e+01,1.291950611630454659e-04,2.182266674935817719e-02,-1.937024712562561035e+00,2.534040540922433138e-04,-9.835751652717590332e-01,-2.754326909780502319e-03,1.038879854604601860e-03,5.000000000000000000e-01,5.086263286102621350e-07,0.000000000000000000e+00
1.045818328857421875e-01,6.654382934570312500e+02,1.095885696411132812e+02,1.095885696411132812e+02,-7.658075690269470215e-01,-8.937734222412109375e+01,1.742787659168243408e-03,1.212454289197921753e-01,-1.115521049499511719e+01,1.291950611630454659e-04,2.182266674935817719e-02,-1.937024712562561035e+00,2.534040540922433138e-04,-9.835751652717590332e-01,-2.754326909780502319e-03,1.038879854604601860e-03,5.000000000000000000e-01,5.086263286102621350e-07,0.000000000000000000e+00
1.045818328857421875e-01,6.654382934570312500e+02,1.095885696411132812e+02,1.095885696411132812e+02,-7.658075690269470215e-01,-8.937734222412109375e+01,1.742787659168243408e-03,1.212454289197921753e-01,-1.115521049499511719e+01,1.291950611630454659e-04,2.182266674935817719e-02,-1.937024712562561035e+00,2.534040540922433138e-04,-9.835751652717590332e-01,-2.754326909780502319e-03,1.038879854604601860e-03,5.000000000000000000e-01,5.086263286102621350e-07,0.000000000000000000e+00
1.045818328857421875e-01,6.654382934570312500e+02,1.095885696411132812e+02,1.095885696411132812e+02,-7.658075690269470215e-01,-8.937734222412109375e+01,1.742787659168243408e-03,1.212454289197921753e-01,-1.115521049499511719e+01,1.291950611630454659e-04,2.182266674935817719e-02,-1.937024712562561035e+00,2.534040540922433138e-04,-9.835751652717590332e-01,-2.754326909780502319e-03,1.038879854604601860e-03,5.000000000000000000e-01,5.086263286102621350e-07,0.000000000000000000e+00
1.045818328857421875e-01,6.654382934570312500e+02,1.095885696411132812e+02,1.095885696411132812e+02,-7.658075690269470215e-01,-8.937734222412109375e+01,1.742787659168243408e-03,1.212454289197921753e-01,-1.115521049499511719e+01,1.291950611630454659e-04,2.182266674935817719e-02,-1.937024712562561035e+00,2.534040540922433138e-04,-9.835751652717590332e-01,-2.754326909780502319e-03,1.038879854604601860e-03,5.000000000000000000e-01,5.086263286102621350e-07,0.000000000000000000e+00
1.045818328857421875e-01,6.654498901367187500e+02,1.085215301513671875e+02,1.085215301513671875e+02,-1.357090175151824951e-01,-8.937863159179687500e+01,1.921016024425625801e-03,1.073353365063667297e-01,-9.887314796447753906e+00,2.954372030217200518e-04,-1.328453570604324341e-01,1.210876560211181641e+01,1.587659935466945171e-03,-1.160052871704101562e+01,-1.282661706209182739e-01,-1.382592972368001938e-02,0.000000000000000000e+00,-1.085917174350470304e-04,1.000000000000000000e+00
2.092907428741455078e-01,6.654498901367187500e+02,1.085215301513671875e+02,1.085215301513671875e+02,-1.357090175151824951e-01,-8.937863159179687500e+01,1.921016024425625801e-03,1.073353365063667297e-01,-9.887314796447753906e+00,2.954372030217200518e-04,-1.328453570604324341e-01,1.210876560211181641e+01,1.587659935466945171e-03,-1.160052871704101562e+01,-1.282661706209182739e-01,-1.382592972368001938e-02,0.000000000000000000e+00,-1.085917174350470304e-04,1.000000000000000000e+00
2.092907428741455078e-01,6.654498901367187500e+02,1.085215301513671875e+02,1.085215301513671875e+02,-1.357090175151824951e-01,-8.937863159179687500e+01,1.921016024425625801e-03,1.073353365063667297e-01,-9.887314796447753906e+00,2.954372030217200518e-04,-1.328453570604324341e-01,1.210876560211181641e+01,1.587659935466945171e-03,-1.160052871704101562e+01,-1.282661706209182739e-01,-1.382592972368001938e-02,0.000000000000000000e+00,-1.085917174350470304e-04,1.000000000000000000e+00
2.092907428741455078e-01,6.654498901367187500e+02,1.085215301513671875e+02,1.085215301513671875e+02,-1.357090175151824951e-01,-8.937863159179687500e+01,1.921016024425625801e-03,1.073353365063667297e-01,-9.887314796447753906e+00,2.954372030217200518e-04,-1.328453570604324341e-01,1.210876560211181641e+01,1.587659935466945171e-03,-1.160052871704101562e+01,-1.282661706209182739e-01,-1.382592972368001938e-02,0.000000000000000000e+00,-1.085917174350470304e-04,1.000000000000000000e+00
2.092907428741455078e-01,6.654498901367187500e+02,1.085215301513671875e+02,1.085215301513671875e+02,-1.357090175151824951e-01,-8.937863159179687500e+01,1.921016024425625801e-03,1.073353365063667297e-01,-9.887314796447753906e+00,2.954372030217200518e-04,-1.328453570604324341e-01,1.210876560211181641e+01,1.587659935466945171e-03,-1.160052871704101562e+01,-1.282661706209182739e-01,-1.382592972368001938e-02,0.000000000000000000e+00,-1.085917174350470304e-04,1.000000000000000000e+00
2.092907428741455078e-01,6.654595947265625000e+02,1.076236038208007812e+02,1.076236038208007812e+02,6.992747187614440918e-01,-8.937973785400390625e+01,1.138858729973435402e-03,9.457763284444808960e-02,-8.733759880065917969e+00,-2.263101004064083099e-02,-1.709722131490707397e-01,1.545935249328613281e+01,-3.072485327720642090e-01,3.157015323638916016e+00,2.266782894730567932e-02,-7.858746685087680817e-03,5.000000000000000000e-01,-9.256998600903898478e-05,0.000000000000000000e+00
2.839093208312988281e-01,6.654595947265625000e+02,1.076236038208007812e+02,1.076236038208007812e+02,6.992747187614440918e-01,-8.937973785400390625e+01,1.138858729973435402e-03,9.457763284444808960e-02,-8.733759880065917969e+00,-2.263101004064083099e-02,-1.709722131490707397e-01,1.545935249328613281e+01,-3.072485327720642090e-01,3.157015323638916016e+00,2.266782894730567932e-02,-7.858746685087680817e-03,5.000000000000000000e-01,-9.256998600903898478e-05,0.000000000000000000e+00
2.839093208312988281e-01,6.654595947265625000e+02,1.076236038208007812e+02,1.076236038208007812e+02,6.992747187614440918e-01,-8.937973785400390625e+01,1.138858729973435402e-03,9.457763284444808960e-02,-8.733759880065917969e+00,-2.263101004064083099e-02,-1.709722131490707397e-01,1.545935249328613281e+01,-3.072485327720642090e-01,3.157015323638916016e+00,2.266782894730567932e-02,-7.858746685087680817e-03,5.000000000000000000e-01,-9.256998600903898478e-05,0.000000000000000000e+00
2.839093208312988281e-01,6.654595947265625000e+02,1.076236038208007812e+02,1.076236038208007812e+02,6.992747187614440918e-01,-8.937973785400390625e+01,1.138858729973435402e-03,9.457763284444808960e-02,-8.733759880065917969e+00,-2.263101004064083099e-02,-1.709722131490707397e-01,1.545935249328613281e+01,-3.072485327720642090e-01,3.157015323638916016e+00,2.266782894730567932e-02,-7.858746685087680817e-03,5.000000000000000000e-01,-9.256998600903898478e-05,0.000000000000000000e+00
2.839093208312988281e-01,6.654595947265625000e+02,1.076236038208007812e+02,1.076236038208007812e+02,6.992747187614440918e-01,-8.937973785400390625e+01,1.138858729973435402e-03,9.457763284444808960e-02,-8.733759880065917969e+00,-2.263101004064083099e-02,-1.709722131490707397e-01,1.545935249328613281e+01,-3.072485327720642090e-01,3.157015323638916016e+00,2.266782894730567932e-02,-7.858746685087680817e-03,5.000000000000000000e-01,-9.256998600903898478e-05,0.000000000000000000e+00
3.569011688232421875e-01,6.654666137695312500e+02,1.069815216064453125e+02,1.069815216064453125e+02,5.238140225410461426e-01,-8.938030242919921875e+01,1.096611304092220962e-04,9.244307130575180054e-02,-8.549942970275878906e+00,-6.034875288605690002e-03,-2.924383431673049927e-02,2.518321037292480469e+00,2.273696959018707275e-01,1.633394002914428711e+00,3.700108034536242485e-03,-7.522880099713802338e-03,5.000000000000000000e-01,-5.798339770990423858e-05,0.000000000000000000e+00
3.569011688232421875e-01,6.654666137695312500e+02,1.069815216064453125e+02,1.069815216064453125e+02,5.238140225410461426e-01,-8.938030242919921875e+01,1.096611304092220962e-04,9.244307130575180054e-02,-8.549942970275878906e+00,-6.034875288605690002e-03,-2.924383431673049927e-02,2.518321037292480469e+00,2.273696959018707275e-01,1.633394002914428711e+00,3.700108034536242485e-03,-7.522880099713802338e-03,5.000000000000000000e-01,-5.798339770990423858e-05,0.000000000000000000e+00
3.569011688232421875e-01,6.654666137695312500e+02,1.069815216064453125e+02,1.069815216064453125e+02,5.238140225410461426e-01,-8.938030242919921875e+01,1.096611304092220962e-04,9.244307130575180054e-02,-8.549942970275878906e+00,-6.034875288605690002e-03,-2.924383431673049927e-02,2.518321037292480469e+00,2.273696959018707275e-01,1.633394002914428711e+00,3.700108034536242485e-03,-7.522880099713802338e-03,5.000000000000000000e-01,-5.798339770990423858e-05,0.000000000000000000e+00
3.569011688232421875e-01,6.654666137695312500e+02,1.069815216064453125e+02,1.069815216064453125e+02,5.238140225410461426e-01,-8.938030242919921875e+01,1.096611304092220962e-04,9.244307130575180054e-02,-8.549942970275878906e+00,-6.034875288605690002e-03,-2.924383431673049927e-02,2.518321037292480469e+00,2.273696959018707275e-01,1.633394002914428711e+00,3.700108034536242485e-03,-7.522880099713802338e-03,5.000000000000000000e-01,-5.798339770990423858e-05,0.000000000000000000e+00
4.765405654907226562e-01,6.654732666015625000e+02,1.063641738891601562e+02,1.063641738891601562e+02,4.314698576927185059e-01,-8.938046264648437500e+01,-7.629483588971197605e-04,9.087331593036651611e-02,-8.407841682434082031e+00,1.234751660376787186e-03,-1.312072295695543289e-02,1.187746644020080566e+00,6.076281890273094177e-02,1.095456361770629883e+00,1.592007232829928398e-03,-4.767115169670432806e-04,5.000000000000000000e-01,-7.629394644936837722e-07,0.000000000000000000e+00
4.765405654907226562e-01,6.654732666015625000e+02,1.063641738891601562e+02,1.063641738891601562e+02,4.314698576927185059e-01,-8.938046264648437500e+01,-7.629483588971197605e-04,9.087331593036651611e-02,-8.407841682434082031e+00,1.234751660376787186e-03,-1.312072295695543289e-02,1.187746644020080566e+00,6.076281890273094177e-02,1.095456361770629883e+00,1.592007232829928398e-03,-4.767115169670432806e-04,5.000000000000000000e-01,-7.629394644936837722e-07,0.000000000000000000e+00
4.765405654907226562e-01,6.654732666015625000e+02,1.063641738891601562e+02,1.063641738891601562e+02,4.314698576927185059e-01,-8.938046264648437500e+01,-7.629483588971197605e-04,9.087331593036651611e-02,-8.407841682434082031e+00,1.234751660376787186e-03,-1.312072295695543289e-02,1.187746644020080566e+00,6.076281890273094177e-02,1.095456361770629883e+00,1.592007232829928398e-03,-4.767115169670432806e-04,5.000000000000000000e-01,-7.629394644936837722e-07,0.000000000000000000e+00
4.765405654907226562e-01,6.654732666015625000e+02,1.063641738891601562e+02,1.063641738891601562e+02,4.314698576927185059e-01,-8.938046264648437500e+01,-7.629483588971197605e-04,9.087331593036651611e-02,-8.407841682434082031e+00,1.234751660376787186e-03,-1.312072295695543289e-02,1.187746644020080566e+00,6.076281890273094177e-02,1.095456361770629883e+00,1.592007232829928398e-03,-4.767115169670432806e-04,5.000000000000000000e-01,-7.629394644936837722e-07,0.000000000000000000e+00
4.765405654907226562e-01,6.654732666015625000e+02,1.063641738891601562e+02,1.063641738891601562e+02,4.314698576927185059e-01,-8.938046264648437500e+01,-7.629483588971197605e-04,9.087331593036651611e-02,-8.407841682434082031e+00,1.234751660376787186e-03,-1.312072295695543289e-02,1.187746644020080566e+00,6.076281890273094177e-02,1.095456361770629883e+00,1.592007232829928398e-03,-4.767115169670432806e-04,5.000000000000000000e-01,-7.629394644936837722e-07,0.000000000000000000e+00
4.765405654907226562e-01,6.654732666015625000e+02,1.063641738891601562e+02,1.063641738891601562e+02,4.314698576927185059e-01,-8.938046264648437500e+01,-7.629483588971197605e-04,9.087331593036651611e-02,-8.407841682434082031e+00,1.234751660376787186e-03,-1.312072295695543289e-02,1.187746644020080566e+00,6.076281890273094177e-02,1.095456361770629883e+00,1.592007232829928398e-03,-4.767115169670432806e-04,5.000000000000000000e-01,-7.629394644936837722e-07,0.000000000000000000e+00
4.765405654907226562e-01,6.654732666015625000e+02,1.063641738891601562e+02,1.063641738891601562e+02,4.314698576927185059e-01,-8.938046264648437500e+01,-7.629483588971197605e-04,9.087331593036651611e-02,-8.407841682434082031e+00,1.234751660376787186e-03,-1.312072295695543289e-02,1.187746644020080566e+00,6.076281890273094177e-02,1.095456361770629883e+00,1.592007232829928398e-03,-4.767115169670432806e-04,5.000000000000000000e-01,-7.629394644936837722e-07,0.000000000000000000e+00
6.200885772705078125e-01,6.654821777343750000e+02,1.055348281860351562e+02,1.055348281860351562e+02,3.402799963951110840e-01,-8.938031005859375000e+01,-1.373319071717560291e-03,8.894822746515274048e-02,-8.226634025573730469e+00,3.532698145136237144e-03,-1.341076381504535675e-02,1.262348771095275879e+00,1.600820943713188171e-02,8.541918396949768066e-01,5.808245856314897537e-03,1.841368735767900944e-03,5.000000000000000000e-01,1.475016233598580584e-05,0.000000000000000000e+00
6.200885772705078125e-01,6.654821777343750000e+02,1.055348281860351562e+02,1.055348281860351562e+02,3.402799963951110840e-01,-8.938031005859375000e+01,-1.373319071717560291e-03,8.894822746515274048e-02,-8.226634025573730469e+00,3.532698145136237144e-03,-1.341076381504535675e-02,1.262348771095275879e+00,1.600820943713188171e-02,8.541918396949768066e-01,5.808245856314897537e-03,1.841368735767900944e-03,5.000000000000000000e-01,1.475016233598580584e-05,0.000000000000000000e+00
6.200885772705078125e-01,6.654821777343750000e+02,1.055348281860351562e+02,1.055348281860351562e+02,3.402799963951110840e-01,-8.938031005859375000e+01,-1.373319071717560291e-03,8.894822746515274048e-02,-8.226634025573730469e+00,3.532698145136237144e-03,-1.341076381504535675e-02,1.262348771095275879e+00,1.600820943713188171e-02,8.541918396949768066e-01,5.808245856314897537e-03,1.841368735767900944e-03,5.000000000000000000e-01,1.475016233598580584e-05,0.000000000000000000e+00
6.200885772705078125e-01,6.654821777343750000e+02,1.055348281860351562e+02,1.055348281860351562e+02,3.402799963951110840e-01,-8.938031005859375000e+01,-1.373319071717560291e-03,8.894822746515274048e-02,-8.226634025573730469e+00,3.532698145136237144e-03,-1.341076381504535675e-02,1.262348771095275879e+00,1.600820943713188171e-02,8.541918396949768066e-01,5.808245856314897537e-03,1.841368735767900944e-03,5.000000000000000000e-01,1.475016233598580584e-05,0.000000000000000000e+00
6.200885772705078125e-01,6.654821777343750000e+02,1.055348281860351562e+02,1.055348281860351562e+02,3.402799963951110840e-01,-8.938031005859375000e+01,-1.373319071717560291e-03,8.894822746515274048e-02,-8.226634025573730469e+00,3.532698145136237144e-03,-1.341076381504535675e-02,1.262348771095275879e+00,1.600820943713188171e-02,8.541918396949768066e-01,5.808245856314897537e-03,1.841368735767900944e-03,5.000000000000000000e-01,1.475016233598580584e-05,0.000000000000000000e+00
6.200885772705078125e-01,6.654821777343750000e+02,1.055348281860351562e+02,1.055348281860351562e+02,3.402799963951110840e-01,-8.938031005859375000e+01,-1.373319071717560291e-03,8.894822746515274048e-02,-8.226634025573730469e+00,3.532698145136237144e-03,-1.341076381504535675e-02,1.262348771095275879e+00,1.600820943713188171e-02,8.541918396949768066e-01,5.808245856314897537e-03,1.841368735767900944e-03,5.000000000000000000e-01,1.475016233598580584e-05,0.000000000000000000e+00
7.946169376373291016e-01,6.654910888671875000e+02,1.047174758911132812e+02,1.047174758911132812e+02,2.088535130023956299e-01,-8.937951660156250000e+01,-1.251220121048390865e-03,8.903123438358306885e-02,-8.221705436706542969e+00,3.069861792027950287e-03,4.756070557050406933e-04,2.823947183787822723e-02,-2.651926362887024879e-03,2.332861900329589844e+00,2.932405099272727966e-02,8.819888345897197723e-03,1.000000000000000000e+00,6.688435678370296955e-05,0.000000000000000000e+00
7.946169376373291016e-01,6.654910888671875000e+02,1.047174758911132812e+02,1.047174758911132812e+02,2.088535130023956299e-01,-8.937951660156250000e+01,-1.251220121048390865e-03,8.903123438358306885e-02,-8.221705436706542969e+00,3.069861792027950287e-03,4.756070557050406933e-04,2.823947183787822723e-02,-2.651926362887024879e-03,2.332861900329589844e+00,2.932405099272727966e-02,8.819888345897197723e-03,1.000000000000000000e+00,6.688435678370296955e-05,0.000000000000000000e+00
7.946169376373291016e-01,6.654910888671875000e+02,1.047174758911132812e+02,1.047174758911132812e+02,2.088535130023956299e-01,-8.937951660156250000e+01,-1.251220121048390865e-03,8.903123438358306885e-02,-8.221705436706542969e+00,3.069861792027950287e-03,4.756070557050406933e-04,2.823947183787822723e-02,-2.651926362887024879e-03,2.332861900329589844e+00,2.932405099272727966e-02,8.819888345897197723e-03,1.000000000000000000e+00,6.688435678370296955e-05,0.000000000000000000e+00
8.783230781555175781e-01,6.655001220703125000e+02,1.038787002563476562e+02,1.038787002563476562e+02,-1.102324202656745911e-01,-8.937895965576171875e+01,-6.408750195987522602e-04,9.304367005825042725e-02,-8.582427024841308594e+00,2.170544117689132690e-03,4.793478548526763916e-02,-4.309380531311035156e+00,-1.074374839663505554e-02,3.694077730178833008e+00,4.715149104595184326e-02,5.183755420148372650e-03,1.000000000000000000e+00,3.560383993317373097e-05,0.000000000000000000e+00
8.783230781555175781e-01,6.655001220703125000e+02,1.038787002563476562e+02,1.038787002563476562e+02,-1.102324202656745911e-01,-8.937895965576171875e+01,-6.408750195987522602e-04,9.304367005825042725e-02,-8.582427024841308594e+00,2.170544117689132690e-03,4.793478548526763916e-02,-4.309380531311035156e+00,-1.074374839663505554e-02,3.694077730178833008e+00,4.715149104595184326e-02,5.183755420148372650e-03,1.000000000000000000e+00,3.560383993317373097e-05,0.000000000000000000e+00
8.783230781555175781e-01,6.655001220703125000e+02,1.038787002563476562e+02,1.038787002563476562e+02,-1.102324202656745911e-01,-8.937895965576171875e+01,-6.408750195987522602e-04,9.304367005825042725e-02,-8.582427024841308594e+00,2.170544117689132690e-03,4.793478548526763916e-02,-4.309380531311035156e+00,-1.074374839663505554e-02,3.694077730178833008e+00,4.715149104595184326e-02,5.183755420148372650e-03,1.000000000000000000e+00,3.560383993317373097e-05,0.000000000000000000e+00
9.483780860900878906e-01,6.655081176757812500e+02,1.031454772949218750e+02,1.031454772949218750e+02,-3.560509085655212402e-01,-8.937823486328125000e+01,9.898629286908544600e-06,9.672215580940246582e-02,-8.911191940307617188e+00,1.484978361986577511e-03,5.250853300094604492e-02,-4.692953586578369141e+00,-9.786106646060943604e-03,2.463290691375732422e+00,3.509183228015899658e-02,9.574097581207752228e-03,5.000000000000000000e-01,6.561279587913304567e-05,0.000000000000000000e+00
9.483780860900878906e-01,6.655081176757812500e+02,1.031454772949218750e+02,1.031454772949218750e+02,-3.560509085655212402e-01,-8.937823486328125000e+01,9.898629286908544600e-06,9.672215580940246582e-02,-8.911191940307617188e+00,1.484978361986577511e-03,5.250853300094604492e-02,-4.692953586578369141e+00,-9.786106646060943604e-03,2.463290691375732422e+00,3.509183228015899658e-02,9.574097581207752228e-03,5.000000000000000000e-01,6.561279587913304567e-05,0.000000000000000000e+00
9.483780860900878906e-01,6.655081176757812500e+02,1.031454772949218750e+02,1.031454772949218750e+02,-3.560509085655212402e-01,-8.937823486328125000e+01,9.898629286908544600e-06,9.672215580940246582e-02,-8.911191940307617188e+00,1.484978361986577511e-03,5.250853300094604492e-02,-4.692953586578369141e+00,-9.786106646060943604e-03,2.463290691375732422e+00,3.509183228015899658e-02,9.574097581207752228e-03,5.000000000000000000e-01,6.561279587913304567e-05,0.000000000000000000e+00
9.483780860900878906e-01,6.655081176757812500e+02,1.031454772949218750e+02,1.031454772949218750e+02,-3.560509085655212402e-01,-8.937823486328125000e+01,9.898629286908544600e-06,9.672215580940246582e-02,-8.911191940307617188e+00,1.484978361986577511e-03,5.250853300094604492e-02,-4.692953586578369141e+00,-9.786106646060943604e-03,2.463290691375732422e+00,3.509183228015899658e-02,9.574097581207752228e-03,5.000000000000000000e-01,6.561279587913304567e-05,0.000000000000000000e+00
9.483780860900878906e-01,6.655150146484375000e+02,1.025150985717773438e+02,1.025150985717773438e+02,-4.554779827594757080e-01,-8.937831115722656250e+01,4.768209473695605993e-04,9.820769727230072021e-02,-9.048930168151855469e+00,1.114193233661353588e-03,1.885228604078292847e-02,-1.747969031333923340e+00,-4.705454222857952118e-03,7.159788012504577637e-01,1.327083352953195572e-02,-4.407526925206184387e-03,5.000000000000000000e-01,-3.738403393072076142e-05,0.000000000000000000e+00
1.027177095413208008e+00,6.655150146484375000e+02,1.025150985717773438e+02,1.025150985717773438e+02,-4.554779827594757080e-01,-8.937831115722656250e+01,4.768209473695605993e-04,9.820769727230072021e-02,-9.048930168151855469e+00,1.114193233661353588e-03,1.885228604078292847e-02,-1.747969031333923340e+00,-4.705454222857952118e-03,7.159788012504577637e-01,1.327083352953195572e-02,-4.407526925206184387e-03,5.000000000000000000e-01,-3.738403393072076142e-05,0.000000000000000000e+00
1.027177095413208008e+00,6.655150146484375000e+02,1.025150985717773438e+02,1.025150985717773438e+02,-4.554779827594757080e-01,-8.937831115722656250e+01,4.768209473695605993e-04,9.820769727230072021e-02,-9.048930168151855469e+00,1.114193233661353588e-03,1.885228604078292847e-02,-1.747969031333923340e+00,-4.705454222857952118e-03,7.159788012504577637e-01,1.327083352953195572e-02,-4.407526925206184387e-03,5.000000000000000000e-01,-3.738403393072076142e-05,0.000000000000000000e+00
1.095043420791625977e+00,6.655228271484375000e+02,1.018014831542968750e+02,1.018014831542968750e+02,-4.363056421279907227e-01,-8.937835693359375000e+01,7.814522250555455685e-04,9.814947098493576050e-02,-9.043836593627929688e+00,8.432203321717679501e-04,-8.579554851166903973e-04,7.505304366350173950e-02,-3.992744721472263336e-03,-7.168344855308532715e-01,-5.099472124129533768e-03,1.943915267474949360e-04,5.000000000000000000e-01,2.797444722091313452e-06,0.000000000000000000e+00
1.095043420791625977e+00,6.655228271484375000e+02,1.018014831542968750e+02,1.018014831542968750e+02,-4.363056421279907227e-01,-8.937835693359375000e+01,7.814522250555455685e-04,9.814947098493576050e-02,-9.043836593627929688e+00,8.432203321717679501e-04,-8.579554851166903973e-04,7.505304366350173950e-02,-3.992744721472263336e-03,-7.168344855308532715e-01,-5.099472124129533768e-03,1.943915267474949360e-04,5.000000000000000000e-01,2.797444722091313452e-06,0.000000000000000000e+00
1.095043420791625977e+00,6.655228271484375000e+02,1.018014831542968750e+02,1.018014831542968750e+02,-4.363056421279907227e-01,-8.937835693359375000e+01,7.814522250555455685e-04,9.814947098493576050e-02,-9.043836593627929688e+00,8.432203321717679501e-04,-8.579554851166903973e-04,7.505304366350173950e-02,-3.992744721472263336e-03,-7.168344855308532715e-01,-5.099472124129533768e-03,1.943915267474949360e-04,5.000000000000000000e-01,2.797444722091313452e-06,0.000000000000000000e+00
1.095043420791625977e+00,6.655228271484375000e+02,1.018014831542968750e+02,1.018014831542968750e+02,-4.363056421279907227e-01,-8.937835693359375000e+01,7.814522250555455685e-04,9.814947098493576050e-02,-9.043836593627929688e+00,8.432203321717679501e-04,-8.579554851166903973e-04,7.505304366350173950e-02,-3.992744721472263336e-03,-7.168344855308532715e-01,-5.099472124129533768e-03,1.943915267474949360e-04,5.000000000000000000e-01,2.797444722091313452e-06,0.000000000000000000e+00
1.168572425842285156e+00,6.655294189453125000e+02,1.011891174316406250e+02,1.011891174316406250e+02,-3.740894496440887451e-01,-8.937878417968750000e+01,8.035781793296337128e-04,9.763759374618530273e-02,-9.003103256225585938e+00,6.333826459012925625e-04,-6.961568724364042282e-03,5.539764165878295898e-01,-2.853808226063847542e-03,-9.605089426040649414e-01,-1.152304839342832565e-02,-7.340366020798683167e-03,5.000000000000000000e-01,-5.416870044427923858e-05,0.000000000000000000e+00
1.168572425842285156e+00,6.655294189453125000e+02,1.011891174316406250e+02,1.011891174316406250e+02,-3.740894496440887451e-01,-8.937878417968750000e+01,8.035781793296337128e-04,9.763759374618530273e-02,-9.003103256225585938e+00,6.333826459012925625e-04,-6.961568724364042282e-03,5.539764165878295898e-01,-2.853808226063847542e-03,-9.605089426040649414e-01,-1.152304839342832565e-02,-7.340366020798683167e-03,5.000000000000000000e-01,-5.416870044427923858e-05,0.000000000000000000e+00
1.168572425842285156e+00,6.655294189453125000e+02,1.011891174316406250e+02,1.011891174316406250e+02,-3.740894496440887451e-01,-8.937878417968750000e+01,8.035781793296337128e-04,9.763759374618530273e-02,-9.003103256225585938e+00,6.333826459012925625e-04,-6.961568724364042282e-03,5.539764165878295898e-01,-2.853808226063847542e-03,-9.605089426040649414e-01,-1.152304839342832565e-02,-7.340366020798683167e-03,5.000000000000000000e-01,-5.416870044427923858e-05,0.000000000000000000e+00
1.168572425842285156e+00,6.655294189453125000e+02,1.011891174316406250e+02,1.011891174316406250e+02,-3.740894496440887451e-01,-8.937878417968750000e+01,8.035781793296337128e-04,9.763759374618530273e-02,-9.003103256225585938e+00,6.333826459012925625e-04,-6.961568724364042282e-03,5.539764165878295898e-01,-2.853808226063847542e-03,-9.605089426040649414e-01,-1.152304839342832565e-02,-7.340366020798683167e-03,5.000000000000000000e-01,-5.416870044427923858e-05,0.000000000000000000e+00
1.168572425842285156e+00,6.655364990234375000e+02,1.005284347534179688e+02,1.005284347534179688e+02,-3.087450265884399414e-01,-8.937944793701171875e+01,5.461561959236860275e-04,9.711219370365142822e-02,-8.964879989624023438e+00,4.578679800033569336e-04,-7.000811863690614700e-03,5.093145370483398438e-01,-2.338684862479567528e-03,-8.088155984878540039e-01,-1.372229494154453278e-02,-9.812478907406330109e-03,5.000000000000000000e-01,-6.891886732773855329e-05,0.000000000000000000e+00
1.243620872497558594e+00,6.655364990234375000e+02,1.005284347534179688e+02,1.005284347534179688e+02,-3.087450265884399414e-01,-8.937944793701171875e+01,5.461561959236860275e-04,9.711219370365142822e-02,-8.964879989624023438e+00,4.578679800033569336e-04,-7.000811863690614700e-03,5.093145370483398438e-01,-2.338684862479567528e-03,-8.088155984878540039e-01,-1.372229494154453278e-02,-9.812478907406330109e-03,5.000000000000000000e-01,-6.891886732773855329e-05,0.000000000000000000e+00
1.243620872497558594e+00,6.655364990234375000e+02,1.005284347534179688e+02,1.005284347534179688e+02,-3.087450265884399414e-01,-8.937944793701171875e+01,5.461561959236860275e-04,9.711219370365142822e-02,-8.964879989624023438e+00,4.578679800033569336e-04,-7.000811863690614700e-03,5.093145370483398438e-01,-2.338684862479567528e-03,-8.088155984878540039e-01,-1.372229494154453278e-02,-9.812478907406330109e-03,5.000000000000000000e-01,-6.891886732773855329e-05,0.000000000000000000e+00
1.243620872497558594e+00,6.655364990234375000e+02,1.005284347534179688e+02,1.005284347534179688e+02,-3.087450265884399414e-01,-8.937944793701171875e+01,5.461561959236860275e-04,9.711219370365142822e-02,-8.964879989624023438e+00,4.578679800033569336e-04,-7.000811863690614700e-03,5.093145370483398438e-01,-2.338684862479567528e-03,-8.088155984878540039e-01,-1.372229494154453278e-02,-9.812478907406330109e-03,5.000000000000000000e-01,-6.891886732773855329e-05,0.000000000000000000e+00
1.312042951583862305e+00,6.655438842773437500e+02,9.985716247558593750e+01,9.985716247558593750e+01,-2.567126452922821045e-01,-8.937950897216796875e+01,1.710765936877578497e-04,9.664491564035415649e-02,-8.924530029296875000e+00,3.032229142263531685e-04,-6.829346530139446259e-03,5.897213816642761230e-01,-2.260163193568587303e-03,-6.140601038932800293e-01,-1.155100110918283463e-02,1.044672913849353790e-03,5.000000000000000000e-01,1.144409179687500000e-05,0.000000000000000000e+00
1.312042951583862305e+00,6.655438842773437500e+02,9.985716247558593750e+01,9.985716247558593750e+01,-2.567126452922821045e-01,-8.937950897216796875e+01,1.710765936877578497e-04,9.664491564035415649e-02,-8.924530029296875000e+00,3.032229142263531685e-04,-6.829346530139446259e-03,5.897213816642761230e-01,-2.260163193568587303e-03,-6.140601038932800293e-01,-1.155100110918283463e-02,1.044672913849353790e-03,5.000000000000000000e-01,1.144409179687500000e-05,0.000000000000000000e+00
1.312042951583862305e+00,6.655505371093750000e+02,9.924780273437500000e+01,9.924780273437500000e+01,-2.221928685903549194e-01,-8.937986755371093750e+01,-1.831091358326375484e-04,9.619183093309402466e-02,-8.888766288757324219e+00,1.973549660760909319e-04,-6.373717915266752243e-03,5.031023621559143066e-01,-1.489285379648208618e-03,-4.502710700035095215e-01,-1.025454793125391006e-02,-6.895319093018770218e-03,5.000000000000000000e-01,-5.187988426769152284e-05,0.000000000000000000e+00
1.383129358291625977e+00,6.655505371093750000e+02,9.924780273437500000e+01,9.924780273437500000e+01,-2.221928685903549194e-01,-8.937986755371093750e+01,-1.831091358326375484e-04,9.619183093309402466e-02,-8.888766288757324219e+00,1.973549660760909319e-04,-6.373717915266752243e-03,5.031023621559143066e-01,-1.489285379648208618e-03,-4.502710700035095215e-01,-1.025454793125391006e-02,-6.895319093018770218e-03,5.000000000000000000e-01,-5.187988426769152284e-05,0.000000000000000000e+00
1.383129358291625977e+00,6.655505371093750000e+02,9.924780273437500000e+01,9.924780273437500000e+01,-2.221928685903549194e-01,-8.937986755371093750e+01,-1.831091358326375484e-04,9.619183093309402466e-02,-8.888766288757324219e+00,1.973549660760909319e-04,-6.373717915266752243e-03,5.031023621559143066e-01,-1.489285379648208618e-03,-4.502710700035095215e-01,-1.025454793125391006e-02,-6.895319093018770218e-03,5.000000000000000000e-01,-5.187988426769152284e-05,0.000000000000000000e+00
1.450951814651489258e+00,6.655571899414062500e+02,9.861737823486328125e+01,9.861737823486328125e+01,-1.951589882373809814e-01,-8.938034057617187500e+01,-5.798356723971664906e-04,9.572482854127883911e-02,-8.851385116577148438e+00,1.264392340090125799e-04,-6.885660346597433090e-03,5.511621832847595215e-01,-1.045608427375555038e-03,-3.335170447826385498e-01,-8.759628981351852417e-03,-6.232266779989004135e-03,5.000000000000000000e-01,-4.425048973644152284e-05,0.000000000000000000e+00
1.450951814651489258e+00,6.655571899414062500e+02,9.861737823486328125e+01,9.861737823486328125e+01,-1.951589882373809814e-01,-8.938034057617187500e+01,-5.798356723971664906e-04,9.572482854127883911e-02,-8.851385116577148438e+00,1.264392340090125799e-04,-6.885660346597433090e-03,5.511621832847595215e-01,-1.045608427375555038e-03,-3.335170447826385498e-01,-8.759628981351852417e-03,-6.232266779989004135e-03,5.000000000000000000e-01,-4.425048973644152284e-05,0.000000000000000000e+00
1.450951814651489258e+00,6.655571899414062500e+02,9.861737823486328125e+01,9.861737823486328125e+01,-1.951589882373809814e-01,-8.938034057617187500e+01,-5.798356723971664906e-04,9.572482854127883911e-02,-8.851385116577148438e+00,1.264392340090125799e-04,-6.885660346597433090e-03,5.511621832847595215e-01,-1.045608427375555038e-03,-3.335170447826385498e-01,-8.759628981351852417e-03,-6.232266779989004135e-03,5.000000000000000000e-01,-4.425048973644152284e-05,0.000000000000000000e+00
1.527701377868652344e+00,6.655638427734375000e+02,9.801839447021484375e+01,9.801839447021484375e+01,-1.764511018991470337e-01,-8.937999725341796875e+01,-7.629370666109025478e-04,9.538713097572326660e-02,-8.815989494323730469e+00,7.643616118002682924e-05,-4.399993456900119781e-03,4.611833691596984863e-01,-6.515095592476427555e-04,-2.443379163742065430e-01,-4.189976956695318222e-03,7.300547324120998383e-03,5.000000000000000000e-01,5.823771061841398478e-05,0.000000000000000000e+00
1.527701377868652344e+00,6.655638427734375000e+02,9.801839447021484375e+01,9.801839447021484375e+01,-1.764511018991470337e-01,-8.937999725341796875e+01,-7.629370666109025478e-04,9.538713097572326660e-02,-8.815989494323730469e+00,7.643616118002682924e-05,-4.399993456900119781e-03,4.611833691596984863e-01,-6.515095592476427555e-04,-2.443379163742065430e-01,-4.189976956695318222e-03,7.300547324120998383e-03,5.000000000000000000e-01,5.823771061841398478e-05,0.000000000000000000e+00
1.527701377868652344e+00,6.655638427734375000e+02,9.801839447021484375e+01,9.801839447021484375e+01,-1.764511018991470337e-01,-8.937999725341796875e+01,-7.629370666109025478e-04,9.538713097572326660e-02,-8.815989494323730469e+00,7.643616118002682924e-05,-4.399993456900119781e-03,4.611833691596984863e-01,-6.515095592476427555e-04,-2.443379163742065430e-01,-4.189976956695318222e-03,7.300547324120998383e-03,5.000000000000000000e-01,5.823771061841398478e-05,0.000000000000000000e+00
1.600134611129760742e+00,6.655711669921875000e+02,9.734683227539062500e+01,9.734683227539062500e+01,-1.216115131974220276e-01,-8.937954711914062500e+01,-7.324193720705807209e-04,9.341426938772201538e-02,-8.627628326416015625e+00,4.499698479776270688e-05,-2.723696641623973846e-02,2.600479841232299805e+00,-4.340435261838138103e-04,-1.707071065902709961e+00,-1.660406962037086487e-02,4.395739175379276276e-03,5.000000000000000000e-01,4.704793173004873097e-05,0.000000000000000000e+00
1.600134611129760742e+00,6.655711669921875000e+02,9.734683227539062500e+01,9.734683227539062500e+01,-1.216115131974220276e-01,-8.937954711914062500e+01,-7.324193720705807209e-04,9.341426938772201538e-02,-8.627628326416015625e+00,4.499698479776270688e-05,-2.723696641623973846e-02,2.600479841232299805e+00,-4.340435261838138103e-04,-1.707071065902709961e+00,-1.660406962037086487e-02,4.395739175379276276e-03,5.000000000000000000e-01,4.704793173004873097e-05,0.000000000000000000e+00
1.600134611129760742e+00,6.655711669921875000e+02,9.734683227539062500e+01,9.734683227539062500e+01,-1.216115131974220276e-01,-8.937954711914062500e+01,-7.324193720705807209e-04,9.341426938772201538e-02,-8.627628326416015625e+00,4.499698479776270688e-05,-2.723696641623973846e-02,2.600479841232299805e+00,-4.340435261838138103e-04,-1.707071065902709961e+00,-1.660406962037086487e-02,4.395739175379276276e-03,5.000000000000000000e-01,4.704793173004873097e-05,0.000000000000000000e+00
1.600134611129760742e+00,6.655711669921875000e+02,9.734683227539062500e+01,9.734683227539062500e+01,-1.216115131974220276e-01,-8.937954711914062500e+01,-7.324193720705807209e-04,9.341426938772201538e-02,-8.627628326416015625e+00,4.499698479776270688e-05,-2.723696641623973846e-02,2.600479841232299805e+00,-4.340435261838138103e-04,-1.707071065902709961e+00,-1.660406962037086487e-02,4.395739175379276276e-03,5.000000000000000000e-01,4.704793173004873097e-05,0.000000000000000000e+00
1.600134611129760742e+00,6.655711669921875000e+02,9.734683227539062500e+01,9.734683227539062500e+01,-1.216115131974220276e-01,-8.937954711914062500e+01,-7.324193720705807209e-04,9.341426938772201538e-02,-8.627628326416015625e+00,4.499698479776270688e-05,-2.723696641623973846e-02,2.600479841232299805e+00,-4.340435261838138103e-04,-1.707071065902709961e+00,-1.660406962037086487e-02,4.395739175379276276e-03,5.000000000000000000e-01,4.704793173004873097e-05,0.000000000000000000e+00
1.600134611129760742e+00,6.655778198242187500e+02,9.673725128173828125e+01,9.673725128173828125e+01,5.307056754827499390e-02,-8.937954711914062500e+01,-5.187977221794426441e-04,8.940953016281127930e-02,-8.256015777587890625e+00,2.228414086857810616e-05,-3.470947220921516418e-02,3.220802783966064453e+00,-1.968544675037264824e-04,-2.594113826751708984e+00,-2.530246973037719727e-02,-1.997716492041945457e-03,5.000000000000000000e-01,-1.365661591989919543e-04,0.000000000000000000e+00
1.715513467788696289e+00,6.655778198242187500e+02,9.673725128173828125e+01,9.673725128173828125e+01,5.307056754827499390e-02,-8.937954711914062500e+01,-5.187977221794426441e-04,8.940953016281127930e-02,-8.256015777587890625e+00,2.228414086857810616e-05,-3.470947220921516418e-02,3.220802783966064453e+00,-1.968544675037264824e-04,-2.594113826751708984e+00,-2.530246973037719727e-02,-1.997716492041945457e-03,5.000000000000000000e-01,-1.365661591989919543e-04,0.000000000000000000e+00
1.715513467788696289e+00,6.655778198242187500e+02,9.673725128173828125e+01,9.673725128173828125e+01,5.307056754827499390e-02,-8.937954711914062500e+01,-5.187977221794426441e-04,8.940953016281127930e-02,-8.256015777587890625e+00,2.228414086857810616e-05,-3.470947220921516418e-02,3.220802783966064453e+00,-1.968544675037264824e-04,-2.594113826751708984e+00,-2.530246973037719727e-02,-1.997716492041945457e-03,5.000000000000000000e-01,-1.365661591989919543e-04,0.000000000000000000e+00
1.715513467788696289e+00,6.655865478515625000e+02,9.593917846679687500e+01,9.593917846679687500e+01,2.985202372074127197e-01,-8.937972259521484375e+01,-2.746653626672923565e-04,8.402652293443679810e-02,-7.760175228118896484e+00,-5.629554652841761708e-05,-5.515282973647117615e-02,5.080247879028320312e+00,-8.051061304286122322e-04,-2.243599414825439453e+00,-2.228280901908874512e-02,-1.870121457614004612e-03,1.000000000000000000e+00,-4.857381281908601522e-05,0.000000000000000000e+00
1.813115119934082031e+00,6.655865478515625000e+02,9.593917846679687500e+01,9.593917846679687500e+01,2.985202372074127197e-01,-8.937972259521484375e+01,-2.746653626672923565e-04,8.402652293443679810e-02,-7.760175228118896484e+00,-5.629554652841761708e-05,-5.515282973647117615e-02,5.080247879028320312e+00,-8.051061304286122322e-04,-2.243599414825439453e+00,-2.228280901908874512e-02,-1.870121457614004612e-03,1.000000000000000000e+00,-4.857381281908601522e-05,0.000000000000000000e+00
1.813115119934082031e+00,6.655865478515625000e+02,9.593917846679687500e+01,9.593917846679687500e+01,2.985202372074127197e-01,-8.937972259521484375e+01,-2.746653626672923565e-04,8.402652293443679810e-02,-7.760175228118896484e+00,-5.629554652841761708e-05,-5.515282973647117615e-02,5.080247879028320312e+00,-8.051061304286122322e-04,-2.243599414825439453e+00,-2.228280901908874512e-02,-1.870121457614004612e-03,1.000000000000000000e+00,-4.857381281908601522e-05,0.000000000000000000e+00
1.813115119934082031e+00,6.655865478515625000e+02,9.593917846679687500e+01,9.593917846679687500e+01,2.985202372074127197e-01,-8.937972259521484375e+01,-2.746653626672923565e-04,8.402652293443679810e-02,-7.760175228118896484e+00,-5.629554652841761708e-05,-5.515282973647117615e-02,5.080247879028320312e+00,-8.051061304286122322e-04,-2.243599414825439453e+00,-2.228280901908874512e-02,-1.870121457614004612e-03,1.000000000000000000e+00,-4.857381281908601522e-05,0.000000000000000000e+00
1.813115119934082031e+00,6.655944213867187500e+02,9.520777893066406250e+01,9.520777893066406250e+01,4.835841953754425049e-01,-8.938006591796875000e+01,-1.831142872106283903e-04,7.874634861946105957e-02,-7.277017593383789062e+00,-1.201529521495103836e-04,-6.360143423080444336e-02,5.819792747497558594e+00,-7.691834471188485622e-04,-1.813429474830627441e+00,-1.939120702445507050e-02,-4.386181011795997620e-03,1.000000000000000000e+00,-1.050313294399529696e-04,0.000000000000000000e+00
1.896134853363037109e+00,6.655944213867187500e+02,9.520777893066406250e+01,9.520777893066406250e+01,4.835841953754425049e-01,-8.938006591796875000e+01,-1.831142872106283903e-04,7.874634861946105957e-02,-7.277017593383789062e+00,-1.201529521495103836e-04,-6.360143423080444336e-02,5.819792747497558594e+00,-7.691834471188485622e-04,-1.813429474830627441e+00,-1.939120702445507050e-02,-4.386181011795997620e-03,1.000000000000000000e+00,-1.050313294399529696e-04,0.000000000000000000e+00
1.896134853363037109e+00,6.655944213867187500e+02,9.520777893066406250e+01,9.520777893066406250e+01,4.835841953754425049e-01,-8.938006591796875000e+01,-1.831142872106283903e-04,7.874634861946105957e-02,-7.277017593383789062e+00,-1.201529521495103836e-04,-6.360143423080444336e-02,5.819792747497558594e+00,-7.691834471188485622e-04,-1.813429474830627441e+00,-1.939120702445507050e-02,-4.386181011795997620e-03,1.000000000000000000e+00,-1.050313294399529696e-04,0.000000000000000000e+00
1.896134853363037109e+00,6.655944213867187500e+02,9.520777893066406250e+01,9.520777893066406250e+01,4.835841953754425049e-01,-8.938006591796875000e+01,-1.831142872106283903e-04,7.874634861946105957e-02,-7.277017593383789062e+00,-1.201529521495103836e-04,-6.360143423080444336e-02,5.819792747497558594e+00,-7.691834471188485622e-04,-1.813429474830627441e+00,-1.939120702445507050e-02,-4.386181011795997620e-03,1.000000000000000000e+00,-1.050313294399529696e-04,0.000000000000000000e+00
1.896134853363037109e+00,6.655944213867187500e+02,9.520777893066406250e+01,9.520777893066406250e+01,4.835841953754425049e-01,-8.938006591796875000e+01,-1.831142872106283903e-04,7.874634861946105957e-02,-7.277017593383789062e+00,-1.201529521495103836e-04,-6.360143423080444336e-02,5.819792747497558594e+00,-7.691834471188485622e-04,-1.813429474830627441e+00,-1.939120702445507050e-02,-4.386181011795997620e-03,1.000000000000000000e+00,-1.050313294399529696e-04,0.000000000000000000e+00
1.896134853363037109e+00,6.655944213867187500e+02,9.520777893066406250e+01,9.520777893066406250e+01,4.835841953754425049e-01,-8.938006591796875000e+01,-1.831142872106283903e-04,7.874634861946105957e-02,-7.277017593383789062e+00,-1.201529521495103836e-04,-6.360143423080444336e-02,5.819792747497558594e+00,-7.691834471188485622e-04,-1.813429474830627441e+00,-1.939120702445507050e-02,-4.386181011795997620e-03,1.000000000000000000e+00,-1.050313294399529696e-04,0.000000000000000000e+00
1.896134853363037109e+00,6.655944213867187500e+02,9.520777893066406250e+01,9.520777893066406250e+01,4.835841953754425049e-01,-8.938006591796875000e+01,-1.831142872106283903e-04,7.874634861946105957e-02,-7.277017593383789062e+00,-1.201529521495103836e-04,-6.360143423080444336e-02,5.819792747497558594e+00,-7.691834471188485622e-04,-1.813429474830627441e+00,-1.939120702445507050e-02,-4.386181011795997620e-03,1.000000000000000000e+00,-1.050313294399529696e-04,0.000000000000000000e+00
1.896134853363037109e+00,6.655944213867187500e+02,9.520777893066406250e+01,9.520777893066406250e+01,4.835841953754425049e-01,-8.938006591796875000e+01,-1.831142872106283903e-04,7.874634861946105957e-02,-7.277017593383789062e+00,-1.201529521495103836e-04,-6.360143423080444336e-02,5.819792747497558594e+00,-7.691834471188485622e-04,-1.813429474830627441e+00,-1.939120702445507050e-02,-4.386181011795997620e-03,1.000000000000000000e+00,-1.050313294399529696e-04,0.000000000000000000e+00
2.195794820785522461e+00,6.656139526367187500e+02,9.340493774414062500e+01,9.340493774414062500e+01,3.174808323383331299e-01,-8.938141632080078125e+01,-5.798412603326141834e-04,6.932762265205383301e-02,-6.421536922454833984e+00,-3.670890349894762039e-03,-3.020675480365753174e-02,2.745225429534912109e+00,4.163011312484741211e-01,3.634835720062255859e+00,3.829435259103775024e-02,-2.819677814841270447e-03,1.000000000000000000e+00,-2.822876012942288071e-05,0.000000000000000000e+00
2.195794820785522461e+00,6.656139526367187500e+02,9.340493774414062500e+01,9.340493774414062500e+01,3.174808323383331299e-01,-8.938141632080078125e+01,-5.798412603326141834e-04,6.932762265205383301e-02,-6.421536922454833984e+00,-3.670890349894762039e-03,-3.020675480365753174e-02,2.745225429534912109e+00,4.163011312484741211e-01,3.634835720062255859e+00,3.829435259103775024e-02,-2.819677814841270447e-03,1.000000000000000000e+00,-2.822876012942288071e-05,0.000000000000000000e+00
2.195794820785522461e+00,6.656139526367187500e+02,9.340493774414062500e+01,9.340493774414062500e+01,3.174808323383331299e-01,-8.938141632080078125e+01,-5.798412603326141834e-04,6.932762265205383301e-02,-6.421536922454833984e+00,-3.670890349894762039e-03,-3.020675480365753174e-02,2.745225429534912109e+00,4.163011312484741211e-01,3.634835720062255859e+00,3.829435259103775024e-02,-2.819677814841270447e-03,1.000000000000000000e+00,-2.822876012942288071e-05,0.000000000000000000e+00
2.195794820785522461e+00,6.656139526367187500e+02,9.340493774414062500e+01,9.340493774414062500e+01,3.174808323383331299e-01,-8.938141632080078125e+01,-5.798412603326141834e-04,6.932762265205383301e-02,-6.421536922454833984e+00,-3.670890349894762039e-03,-3.020675480365753174e-02,2.745225429534912109e+00,4.163011312484741211e-01,3.634835720062255859e+00,3.829435259103775024e-02,-2.819677814841270447e-03,1.000000000000000000e+00,-2.822876012942288071e-05,0.000000000000000000e+00
2.195794820785522461e+00,6.656139526367187500e+02,9.340493774414062500e+01,9.340493774414062500e+01,3.174808323383331299e-01,-8.938141632080078125e+01,-5.798412603326141834e-04,6.932762265205383301e-02,-6.421536922454833984e+00,-3.670890349894762039e-03,-3.020675480365753174e-02,2.745225429534912109e+00,4.163011312484741211e-01,3.634835720062255859e+00,3.829435259103775024e-02,-2.819677814841270447e-03,1.000000000000000000e+00,-2.822876012942288071e-05,0.000000000000000000e+00
2.195794820785522461e+00,6.656139526367187500e+02,9.340493774414062500e+01,9.340493774414062500e+01,3.174808323383331299e-01,-8.938141632080078125e+01,-5.798412603326141834e-04,6.932762265205383301e-02,-6.421536922454833984e+00,-3.670890349894762039e-03,-3.020675480365753174e-02,2.745225429534912109e+00,4.163011312484741211e-01,3.634835720062255859e+00,3.829435259103775024e-02,-2.819677814841270447e-03,1.000000000000000000e+00,-2.822876012942288071e-05,0.000000000000000000e+00
2.195794820785522461e+00,6.656139526367187500e+02,9.340493774414062500e+01,9.340493774414062500e+01,3.174808323383331299e-01,-8.938141632080078125e+01,-5.798412603326141834e-04,6.932762265205383301e-02,-6.421536922454833984e+00,-3.670890349894762039e-03,-3.020675480365753174e-02,2.745225429534912109e+00,4.163011312484741211e-01,3.634835720062255859e+00,3.829435259103775024e-02,-2.819677814841270447e-03,1.000000000000000000e+00,-2.822876012942288071e-05,0.000000000000000000e+00
2.195794820785522461e+00,6.656139526367187500e+02,9.340493774414062500e+01,9.340493774414062500e+01,3.174808323383331299e-01,-8.938141632080078125e+01,-5.798412603326141834e-04,6.932762265205383301e-02,-6.421536922454833984e+00,-3.670890349894762039e-03,-3.020675480365753174e-02,2.745225429534912109e+00,4.163011312484741211e-01,3.634835720062255859e+00,3.829435259103775024e-02,-2.819677814841270447e-03,1.000000000000000000e+00,-2.822876012942288071e-05,0.000000000000000000e+00
2.195794820785522461e+00,6.656139526367187500e+02,9.340493774414062500e+01,9.340493774414062500e+01,3.174808323383331299e-01,-8.938141632080078125e+01,-5.798412603326141834e-04,6.932762265205383301e-02,-6.421536922454833984e+00,-3.670890349894762039e-03,-3.020675480365753174e-02,2.745225429534912109e+00,4.163011312484741211e-01,3.634835720062255859e+00,3.829435259103775024e-02,-2.819677814841270447e-03,1.000000000000000000e+00,-2.822876012942288071e-05,0.000000000000000000e+00
2.195794820785522461e+00,6.656139526367187500e+02,9.340493774414062500e+01,9.340493774414062500e+01,3.174808323383331299e-01,-8.938141632080078125e+01,-5.798412603326141834e-04,6.932762265205383301e-02,-6.421536922454833984e+00,-3.670890349894762039e-03,-3.020675480365753174e-02,2.745225429534912109e+00,4.163011312484741211e-01,3.634835720062255859e+00,3.829435259103775024e-02,-2.819677814841270447e-03,1.000000000000000000e+00,-2.822876012942288071e-05,0.000000000000000000e+00
2.374083757400512695e+00,6.656177368164062500e+02,9.306477355957031250e+01,9.306477355957031250e+01,1.609807163476943970e-01,-8.938176727294921875e+01,-6.713955663144588470e-04,7.035216689109802246e-02,-6.521234989166259766e+00,1.263326848857104778e-03,5.746538285166025162e-03,-5.591937899589538574e-01,2.767539769411087036e-02,3.826532125473022461e+00,3.962829709053039551e-02,-8.311862125992774963e-03,1.000000000000000000e+00,-7.807413931004703045e-05,0.000000000000000000e+00
2.374083757400512695e+00,6.656177368164062500e+02,9.306477355957031250e+01,9.306477355957031250e+01,1.609807163476943970e-01,-8.938176727294921875e+01,-6.713955663144588470e-04,7.035216689109802246e-02,-6.521234989166259766e+00,1.263326848857104778e-03,5.746538285166025162e-03,-5.591937899589538574e-01,2.767539769411087036e-02,3.826532125473022461e+00,3.962829709053039551e-02,-8.311862125992774963e-03,1.000000000000000000e+00,-7.807413931004703045e-05,0.000000000000000000e+00
2.374083757400512695e+00,6.656177368164062500e+02,9.306477355957031250e+01,9.306477355957031250e+01,1.609807163476943970e-01,-8.938176727294921875e+01,-6.713955663144588470e-04,7.035216689109802246e-02,-6.521234989166259766e+00,1.263326848857104778e-03,5.746538285166025162e-03,-5.591937899589538574e-01,2.767539769411087036e-02,3.826532125473022461e+00,3.962829709053039551e-02,-8.311862125992774963e-03,1.000000000000000000e+00,-7.807413931004703045e-05,0.000000000000000000e+00
2.447860002517700195e+00,6.656248779296875000e+02,9.239826202392578125e+01,9.239826202392578125e+01,-1.876526027917861938e-01,-8.938193511962890625e+01,-7.018923643045127392e-04,7.468093931674957275e-02,-6.922772884368896484e+00,3.799987724050879478e-03,5.867433920502662659e-02,-5.442645072937011719e+00,3.438316658139228821e-02,4.544210910797119141e+00,4.920718446373939514e-02,-4.847962991334497929e-04,1.000000000000000000e+00,-4.323323537391843274e-06,0.000000000000000000e+00
2.447860002517700195e+00,6.656248779296875000e+02,9.239826202392578125e+01,9.239826202392578125e+01,-1.876526027917861938e-01,-8.938193511962890625e+01,-7.018923643045127392e-04,7.468093931674957275e-02,-6.922772884368896484e+00,3.799987724050879478e-03,5.867433920502662659e-02,-5.442645072937011719e+00,3.438316658139228821e-02,4.544210910797119141e+00,4.920718446373939514e-02,-4.847962991334497929e-04,1.000000000000000000e+00,-4.323323537391843274e-06,0.000000000000000000e+00
2.500878810882568359e+00,6.656304321289062500e+02,9.188228607177734375e+01,9.188228607177734375e+01,-3.697795867919921875e-01,-8.938180541992187500e+01,-6.408637855201959610e-04,7.660950720310211182e-02,-7.099692344665527344e+00,3.454537596553564072e-03,3.637516498565673828e-02,-3.336918830871582031e+00,-6.515614688396453857e-03,1.718522548675537109e+00,2.016231790184974670e-02,2.055312274023890495e-03,1.000000000000000000e+00,1.703898124105762690e-05,0.000000000000000000e+00
2.500878810882568359e+00,6.656304321289062500e+02,9.188228607177734375e+01,9.188228607177734375e+01,-3.697795867919921875e-01,-8.938180541992187500e+01,-6.408637855201959610e-04,7.660950720310211182e-02,-7.099692344665527344e+00,3.454537596553564072e-03,3.637516498565673828e-02,-3.336918830871582031e+00,-6.515614688396453857e-03,1.718522548675537109e+00,2.016231790184974670e-02,2.055312274023890495e-03,1.000000000000000000e+00,1.703898124105762690e-05,0.000000000000000000e+00
2.500878810882568359e+00,6.656345214843750000e+02,9.149644470214843750e+01,9.149644470214843750e+01,-4.821498692035675049e-01,-8.938170623779296875e+01,-5.188192590139806271e-04,7.939454913139343262e-02,-7.356634140014648438e+00,2.952670445665717125e-03,4.695212095975875854e-02,-4.331698894500732422e+00,-8.460815995931625366e-03,1.643727064132690430e+00,2.000237256288528442e-02,1.447902526706457138e-03,1.000000000000000000e+00,1.042683925334131345e-05,0.000000000000000000e+00
2.560195446014404297e+00,6.656345214843750000e+02,9.149644470214843750e+01,9.149644470214843750e+01,-4.821498692035675049e-01,-8.938170623779296875e+01,-5.188192590139806271e-04,7.939454913139343262e-02,-7.356634140014648438e+00,2.952670445665717125e-03,4.695212095975875854e-02,-4.331698894500732422e+00,-8.460815995931625366e-03,1.643727064132690430e+00,2.000237256288528442e-02,1.447902526706457138e-03,1.000000000000000000e+00,1.042683925334131345e-05,0.000000000000000000e+00
2.560195446014404297e+00,6.656345214843750000e+02,9.149644470214843750e+01,9.149644470214843750e+01,-4.821498692035675049e-01,-8.938170623779296875e+01,-5.188192590139806271e-04,7.939454913139343262e-02,-7.356634140014648438e+00,2.952670445665717125e-03,4.695212095975875854e-02,-4.331698894500732422e+00,-8.460815995931625366e-03,1.643727064132690430e+00,2.000237256288528442e-02,1.447902526706457138e-03,1.000000000000000000e+00,1.042683925334131345e-05,0.000000000000000000e+00
2.618730545043945312e+00,6.656393432617187500e+02,9.104988861083984375e+01,9.104988861083984375e+01,-5.792546272277832031e-01,-8.938149261474609375e+01,-3.662342205643653870e-04,8.225769549608230591e-02,-7.618866920471191406e+00,2.444839337840676308e-03,4.891332611441612244e-02,-4.479923725128173828e+00,-8.675668388605117798e-03,1.160343766212463379e+00,1.572838798165321350e-02,4.149991553276777267e-03,1.000000000000000000e+00,3.356933666509576142e-05,0.000000000000000000e+00
2.618730545043945312e+00,6.656393432617187500e+02,9.104988861083984375e+01,9.104988861083984375e+01,-5.792546272277832031e-01,-8.938149261474609375e+01,-3.662342205643653870e-04,8.225769549608230591e-02,-7.618866920471191406e+00,2.444839337840676308e-03,4.891332611441612244e-02,-4.479923725128173828e+00,-8.675668388605117798e-03,1.160343766212463379e+00,1.572838798165321350e-02,4.149991553276777267e-03,1.000000000000000000e+00,3.356933666509576142e-05,0.000000000000000000e+00
2.677334070205688477e+00,6.656443481445312500e+02,9.059362792968750000e+01,9.059362792968750000e+01,-6.487996578216552734e-01,-8.938065338134765625e+01,-6.096867946325801313e-05,8.526297658681869507e-02,-7.886010646820068359e+00,1.924290321767330170e-03,5.128157511353492737e-02,-4.558492660522460938e+00,-8.882554247975349426e-03,8.156838417053222656e-01,1.494383066892623901e-02,1.729430817067623138e-02,1.000000000000000000e+00,1.401265471940860152e-04,0.000000000000000000e+00
2.677334070205688477e+00,6.656443481445312500e+02,9.059362792968750000e+01,9.059362792968750000e+01,-6.487996578216552734e-01,-8.938065338134765625e+01,-6.096867946325801313e-05,8.526297658681869507e-02,-7.886010646820068359e+00,1.924290321767330170e-03,5.128157511353492737e-02,-4.558492660522460938e+00,-8.882554247975349426e-03,8.156838417053222656e-01,1.494383066892623901e-02,1.729430817067623138e-02,1.000000000000000000e+00,1.401265471940860152e-04,0.000000000000000000e+00
2.677334070205688477e+00,6.656443481445312500e+02,9.059362792968750000e+01,9.059362792968750000e+01,-6.487996578216552734e-01,-8.938065338134765625e+01,-6.096867946325801313e-05,8.526297658681869507e-02,-7.886010646820068359e+00,1.924290321767330170e-03,5.128157511353492737e-02,-4.558492660522460938e+00,-8.882554247975349426e-03,8.156838417053222656e-01,1.494383066892623901e-02,1.729430817067623138e-02,1.000000000000000000e+00,1.401265471940860152e-04,0.000000000000000000e+00
2.677334070205688477e+00,6.656443481445312500e+02,9.059362792968750000e+01,9.059362792968750000e+01,-6.487996578216552734e-01,-8.938065338134765625e+01,-6.096867946325801313e-05,8.526297658681869507e-02,-7.886010646820068359e+00,1.924290321767330170e-03,5.128157511353492737e-02,-4.558492660522460938e+00,-8.882554247975349426e-03,8.156838417053222656e-01,1.494383066892623901e-02,1.729430817067623138e-02,1.000000000000000000e+00,1.401265471940860152e-04,0.000000000000000000e+00
2.755024909973144531e+00,6.656494140625000000e+02,9.012126922607421875e+01,9.012126922607421875e+01,-6.981477737426757812e-01,-8.938015747070312500e+01,3.134115249849855900e-04,8.823116123676300049e-02,-8.154806137084960938e+00,1.500558224506676197e-03,3.820507973432540894e-02,-3.459809303283691406e+00,-5.454080644994974136e-03,5.824518203735351562e-01,1.269176136702299118e-02,6.557194050401449203e-03,1.000000000000000000e+00,3.611246575019322336e-05,0.000000000000000000e+00
2.755024909973144531e+00,6.656494140625000000e+02,9.012126922607421875e+01,9.012126922607421875e+01,-6.981477737426757812e-01,-8.938015747070312500e+01,3.134115249849855900e-04,8.823116123676300049e-02,-8.154806137084960938e+00,1.500558224506676197e-03,3.820507973432540894e-02,-3.459809303283691406e+00,-5.454080644994974136e-03,5.824518203735351562e-01,1.269176136702299118e-02,6.557194050401449203e-03,1.000000000000000000e+00,3.611246575019322336e-05,0.000000000000000000e+00
2.755024909973144531e+00,6.656494140625000000e+02,9.012126922607421875e+01,9.012126922607421875e+01,-6.981477737426757812e-01,-8.938015747070312500e+01,3.134115249849855900e-04,8.823116123676300049e-02,-8.154806137084960938e+00,1.500558224506676197e-03,3.820507973432540894e-02,-3.459809303283691406e+00,-5.454080644994974136e-03,5.824518203735351562e-01,1.269176136702299118e-02,6.557194050401449203e-03,1.000000000000000000e+00,3.611246575019322336e-05,0.000000000000000000e+00
2.830169916152954102e+00,6.656564941406250000e+02,8.947085571289062500e+01,8.947085571289062500e+01,-7.424005270004272461e-01,-8.937947845458984375e+01,8.313784492202103138e-04,9.228639304637908936e-02,-8.519676208496093750e+00,1.074738334864377975e-03,5.396541953086853027e-02,-4.855546474456787109e+00,-5.666642449796199799e-03,5.464333891868591309e-01,1.255100220441818237e-02,9.255493059754371643e-03,1.000000000000000000e+00,6.637573096668347716e-05,0.000000000000000000e+00
2.830169916152954102e+00,6.656564941406250000e+02,8.947085571289062500e+01,8.947085571289062500e+01,-7.424005270004272461e-01,-8.937947845458984375e+01,8.313784492202103138e-04,9.228639304637908936e-02,-8.519676208496093750e+00,1.074738334864377975e-03,5.396541953086853027e-02,-4.855546474456787109e+00,-5.666642449796199799e-03,5.464333891868591309e-01,1.255100220441818237e-02,9.255493059754371643e-03,1.000000000000000000e+00,6.637573096668347716e-05,0.000000000000000000e+00
2.830169916152954102e+00,6.656564941406250000e+02,8.947085571289062500e+01,8.947085571289062500e+01,-7.424005270004272461e-01,-8.937947845458984375e+01,8.313784492202103138e-04,9.228639304637908936e-02,-8.519676208496093750e+00,1.074738334864377975e-03,5.396541953086853027e-02,-4.855546474456787109e+00,-5.666642449796199799e-03,5.464333891868591309e-01,1.255100220441818237e-02,9.255493059754371643e-03,1.000000000000000000e+00,6.637573096668347716e-05,0.000000000000000000e+00
2.830169916152954102e+00,6.656564941406250000e+02,8.947085571289062500e+01,8.947085571289062500e+01,-7.424005270004272461e-01,-8.937947845458984375e+01,8.313784492202103138e-04,9.228639304637908936e-02,-8.519676208496093750e+00,1.074738334864377975e-03,5.396541953086853027e-02,-4.855546474456787109e+00,-5.666642449796199799e-03,5.464333891868591309e-01,1.255100220441818237e-02,9.255493059754371643e-03,1.000000000000000000e+00,6.637573096668347716e-05,0.000000000000000000e+00
2.830169916152954102e+00,6.656564941406250000e+02,8.947085571289062500e+01,8.947085571289062500e+01,-7.424005270004272461e-01,-8.937947845458984375e+01,8.313784492202103138e-04,9.228639304637908936e-02,-8.519676208496093750e+00,1.074738334864377975e-03,5.396541953086853027e-02,-4.855546474456787109e+00,-5.666642449796199799e-03,5.464333891868591309e-01,1.255100220441818237e-02,9.255493059754371643e-03,1.000000000000000000e+00,6.637573096668347716e-05,0.000000000000000000e+00
2.917726278305053711e+00,6.656635131835937500e+02,8.881694793701171875e+01,8.881694793701171875e+01,-7.583627104759216309e-01,-8.937915039062500000e+01,1.241255551576614380e-03,9.551393240690231323e-02,-8.813010215759277344e+00,7.672777865082025528e-04,3.686241805553436279e-02,-3.350230455398559570e+00,-3.511572722345590591e-03,-5.449176579713821411e-02,3.997588064521551132e-03,3.499717218801379204e-03,5.000000000000000000e-01,1.958211214514449239e-05,0.000000000000000000e+00
