# Time,X,Y,Z,Roll,Pitch,Yaw,Vx,Vy,Vz,Ax,Ay,Az,Wx,Wy,Wz,Throttle,Steer,Brake
0.000000000000000000e+00,-1.650203552246093750e+02,5.246613311767578125e+01,5.246613311767578125e+01,1.181622617878019810e-03,-4.141235351562500000e-02,0.000000000000000000e+00,-1.439181960449786857e-05,1.126774762383320194e-08,1.275416230782866478e-03,1.993719706661067903e-05,3.739594092166953487e-07,1.464305073022842407e-02,-4.866769813816063106e-06,5.150897894054651260e-03,7.366620025095471647e-08,0.000000000000000000e+00,3.253587638027966022e-04,1.000000000000000000e+00
1.045818328857421875e-01,-1.650203552246093750e+02,5.246613311767578125e+01,5.246613311767578125e+01,1.181622617878019810e-03,-4.141235351562500000e-02,0.000000000000000000e+00,-1.439181960449786857e-05,1.126774762383320194e-08,1.275416230782866478e-03,1.993719706661067903e-05,3.739594092166953487e-07,1.464305073022842407e-02,-4.866769813816063106e-06,5.150897894054651260e-03,7.366620025095471647e-08,0.000000000000000000e+00,3.253587638027966022e-04,1.000000000000000000e+00
1.045818328857421875e-01,-1.650203552246093750e+02,5.246613311767578125e+01,5.246613311767578125e+01,1.181622617878019810e-03,-4.141235351562500000e-02,0.000000000000000000e+00,-1.439181960449786857e-05,1.126774762383320194e-08,1.275416230782866478e-03,1.993719706661067903e-05,3.739594092166953487e-07,1.464305073022842407e-02,-4.866769813816063106e-06,5.150897894054651260e-03,7.366620025095471647e-08,0.000000000000000000e+00,3.253587638027966022e-04,1.000000000000000000e+00
1.045818328857421875e-01,-1.650203552246093750e+02,5.246613311767578125e+01,5.246613311767578125e+01,1.181622617878019810e-03,-4.141235351562500000e-02,0.000000000000000000e+00,-1.439181960449786857e-05,1.126774762383320194e-08,1.275416230782866478e-03,1.993719706661067903e-05,3.739594092166953487e-07,1.464305073022842407e-02,-4.866769813816063106e-06,5.150897894054651260e-03,7.366620025095471647e-08,0.000000000000000000e+00,3.253587638027966022e-04,1.000000000000000000e+00
1.045818328857421875e-01,-1.650203552246093750e+02,5.246613311767578125e+01,5.246613311767578125e+01,1.181622617878019810e-03,-4.141235351562500000e-02,0.000000000000000000e+00,-1.439181960449786857e-05,1.126774762383320194e-08,1.275416230782866478e-03,1.993719706661067903e-05,3.739594092166953487e-07,1.464305073022842407e-02,-4.866769813816063106e-06,5.150897894054651260e-03,7.366620025095471647e-08,0.000000000000000000e+00,3.253587638027966022e-04,1.000000000000000000e+00
1.045818328857421875e-01,-1.650203552246093750e+02,5.246613311767578125e+01,5.246613311767578125e+01,1.181622617878019810e-03,-4.141235351562500000e-02,0.000000000000000000e+00,-1.439181960449786857e-05,1.126774762383320194e-08,1.275416230782866478e-03,1.993719706661067903e-05,3.739594092166953487e-07,1.464305073022842407e-02,-4.866769813816063106e-06,5.150897894054651260e-03,7.366620025095471647e-08,0.000000000000000000e+00,3.253587638027966022e-04,1.000000000000000000e+00
1.045818328857421875e-01,-1.650203552246093750e+02,5.246613311767578125e+01,5.246613311767578125e+01,7.444905932061374187e-04,-4.141235351562500000e-02,3.733833580099599203e-07,-1.037218225974356756e-05,-1.174318597918500018e-08,-1.186077832244336605e-03,3.838868360617198050e-05,-2.197609774157172069e-07,-2.350796945393085480e-02,-3.404114522709278390e-06,3.709275741130113602e-03,6.839387367563176667e-08,0.000000000000000000e+00,3.253587638027966022e-04,1.000000000000000000e+00
2.092907428741455078e-01,-1.650203552246093750e+02,5.246613311767578125e+01,5.246613311767578125e+01,7.444905932061374187e-04,-4.141235351562500000e-02,3.733833580099599203e-07,-1.037218225974356756e-05,-1.174318597918500018e-08,-1.186077832244336605e-03,3.838868360617198050e-05,-2.197609774157172069e-07,-2.350796945393085480e-02,-3.404114522709278390e-06,3.709275741130113602e-03,6.839387367563176667e-08,0.000000000000000000e+00,3.253587638027966022e-04,1.000000000000000000e+00
2.092907428741455078e-01,-1.650203552246093750e+02,5.246613311767578125e+01,5.246613311767578125e+01,7.444905932061374187e-04,-4.141235351562500000e-02,3.733833580099599203e-07,-1.037218225974356756e-05,-1.174318597918500018e-08,-1.186077832244336605e-03,3.838868360617198050e-05,-2.197609774157172069e-07,-2.350796945393085480e-02,-3.404114522709278390e-06,3.709275741130113602e-03,6.839387367563176667e-08,0.000000000000000000e+00,3.253587638027966022e-04,1.000000000000000000e+00
2.092907428741455078e-01,-1.650203552246093750e+02,5.246613311767578125e+01,5.246613311767578125e+01,7.444905932061374187e-04,-4.141235351562500000e-02,3.733833580099599203e-07,-1.037218225974356756e-05,-1.174318597918500018e-08,-1.186077832244336605e-03,3.838868360617198050e-05,-2.197609774157172069e-07,-2.350796945393085480e-02,-3.404114522709278390e-06,3.709275741130113602e-03,6.839387367563176667e-08,0.000000000000000000e+00,3.253587638027966022e-04,1.000000000000000000e+00
2.092907428741455078e-01,-1.650203552246093750e+02,5.246613311767578125e+01,5.246613311767578125e+01,7.444905932061374187e-04,-4.141235351562500000e-02,3.733833580099599203e-07,-1.037218225974356756e-05,-1.174318597918500018e-08,-1.186077832244336605e-03,3.838868360617198050e-05,-2.197609774157172069e-07,-2.350796945393085480e-02,-3.404114522709278390e-06,3.709275741130113602e-03,6.839387367563176667e-08,0.000000000000000000e+00,3.253587638027966022e-04,1.000000000000000000e+00
2.092907428741455078e-01,-1.650203552246093750e+02,5.246613311767578125e+01,5.246613311767578125e+01,4.507924604695290327e-04,-4.141235351562500000e-02,5.899746611248701811e-07,-6.769122592231724411e-06,-1.117155967733651778e-08,-3.513513365760445595e-04,4.828636156162247062e-05,7.660642786788685044e-09,1.118657737970352173e-02,-3.473811148069216870e-06,2.420261269435286522e-03,4.805032105537065945e-08,0.000000000000000000e+00,3.253587638027966022e-04,1.000000000000000000e+00
2.839093208312988281e-01,-1.650203552246093750e+02,5.246613311767578125e+01,5.246613311767578125e+01,4.507924604695290327e-04,-4.141235351562500000e-02,5.899746611248701811e-07,-6.769122592231724411e-06,-1.117155967733651778e-08,-3.513513365760445595e-04,4.828636156162247062e-05,7.660642786788685044e-09,1.118657737970352173e-02,-3.473811148069216870e-06,2.420261269435286522e-03,4.805032105537065945e-08,0.000000000000000000e+00,3.253587638027966022e-04,1.000000000000000000e+00
2.839093208312988281e-01,-1.650203552246093750e+02,5.246613311767578125e+01,5.246613311767578125e+01,4.507924604695290327e-04,-4.141235351562500000e-02,5.899746611248701811e-07,-6.769122592231724411e-06,-1.117155967733651778e-08,-3.513513365760445595e-04,4.828636156162247062e-05,7.660642786788685044e-09,1.118657737970352173e-02,-3.473811148069216870e-06,2.420261269435286522e-03,4.805032105537065945e-08,0.000000000000000000e+00,3.253587638027966022e-04,1.000000000000000000e+00
2.839093208312988281e-01,-1.650203552246093750e+02,5.246613311767578125e+01,5.246613311767578125e+01,4.507924604695290327e-04,-4.141235351562500000e-02,5.899746611248701811e-07,-6.769122592231724411e-06,-1.117155967733651778e-08,-3.513513365760445595e-04,4.828636156162247062e-05,7.660642786788685044e-09,1.118657737970352173e-02,-3.473811148069216870e-06,2.420261269435286522e-03,4.805032105537065945e-08,0.000000000000000000e+00,3.253587638027966022e-04,1.000000000000000000e+00
2.839093208312988281e-01,-1.650203552246093750e+02,5.246613311767578125e+01,5.246613311767578125e+01,4.507924604695290327e-04,-4.141235351562500000e-02,5.899746611248701811e-07,-6.769122592231724411e-06,-1.117155967733651778e-08,-3.513513365760445595e-04,4.828636156162247062e-05,7.660642786788685044e-09,1.118657737970352173e-02,-3.473811148069216870e-06,2.420261269435286522e-03,4.805032105537065945e-08,0.000000000000000000e+00,3.253587638027966022e-04,1.000000000000000000e+00
3.569011688232421875e-01,-1.650203552246093750e+02,5.246613311767578125e+01,5.246613311767578125e+01,4.507924604695290327e-04,-4.141235351562500000e-02,5.899746611248701811e-07,-2.932529469035216607e-06,3.421372696266189450e-08,3.597580653149634600e-04,5.256194344838149846e-05,6.217856594048498664e-07,9.742312133312225342e-03,1.754463028191821650e-06,1.054185326211154461e-03,-2.255871223155736516e-08,0.000000000000000000e+00,3.253580944146960974e-04,1.000000000000000000e+00
3.569011688232421875e-01,-1.650203552246093750e+02,5.246613311767578125e+01,5.246613311767578125e+01,4.507924604695290327e-04,-4.141235351562500000e-02,5.899746611248701811e-07,-2.932529469035216607e-06,3.421372696266189450e-08,3.597580653149634600e-04,5.256194344838149846e-05,6.217856594048498664e-07,9.742312133312225342e-03,1.754463028191821650e-06,1.054185326211154461e-03,-2.255871223155736516e-08,0.000000000000000000e+00,3.253580944146960974e-04,1.000000000000000000e+00
3.569011688232421875e-01,-1.650203552246093750e+02,5.246613311767578125e+01,5.246613311767578125e+01,4.507924604695290327e-04,-4.141235351562500000e-02,5.899746611248701811e-07,-2.932529469035216607e-06,3.421372696266189450e-08,3.597580653149634600e-04,5.256194344838149846e-05,6.217856594048498664e-07,9.742312133312225342e-03,1.754463028191821650e-06,1.054185326211154461e-03,-2.255871223155736516e-08,0.000000000000000000e+00,3.253580944146960974e-04,1.000000000000000000e+00
3.569011688232421875e-01,-1.650203552246093750e+02,5.246613311767578125e+01,5.246613311767578125e+01,4.507924604695290327e-04,-4.141235351562500000e-02,5.899746611248701811e-07,-2.932529469035216607e-06,3.421372696266189450e-08,3.597580653149634600e-04,5.256194344838149846e-05,6.217856594048498664e-07,9.742312133312225342e-03,1.754463028191821650e-06,1.054185326211154461e-03,-2.255871223155736516e-08,0.000000000000000000e+00,3.253580944146960974e-04,1.000000000000000000e+00
4.765405654907226562e-01,-1.650203552246093750e+02,5.246613311767578125e+01,5.246613311767578125e+01,3.210188588127493858e-04,-4.141235351562500000e-02,0.000000000000000000e+00,-3.308968871351680718e-06,5.920382406543467368e-09,5.021124961785972118e-04,-3.146450353597174399e-06,-2.364885318684173399e-07,1.189862494356930256e-03,1.855240725490148179e-06,1.185658853501081467e-03,3.786287727791659563e-09,0.000000000000000000e+00,3.253580944146960974e-04,1.000000000000000000e+00
4.765405654907226562e-01,-1.650203552246093750e+02,5.246613311767578125e+01,5.246613311767578125e+01,3.210188588127493858e-04,-4.141235351562500000e-02,0.000000000000000000e+00,-3.308968871351680718e-06,5.920382406543467368e-09,5.021124961785972118e-04,-3.146450353597174399e-06,-2.364885318684173399e-07,1.189862494356930256e-03,1.855240725490148179e-06,1.185658853501081467e-03,3.786287727791659563e-09,0.000000000000000000e+00,3.253580944146960974e-04,1.000000000000000000e+00
4.765405654907226562e-01,-1.650203552246093750e+02,5.246613311767578125e+01,5.246613311767578125e+01,3.210188588127493858e-04,-4.141235351562500000e-02,0.000000000000000000e+00,-3.308968871351680718e-06,5.920382406543467368e-09,5.021124961785972118e-04,-3.146450353597174399e-06,-2.364885318684173399e-07,1.189862494356930256e-03,1.855240725490148179e-06,1.185658853501081467e-03,3.786287727791659563e-09,0.000000000000000000e+00,3.253580944146960974e-04,1.000000000000000000e+00
4.765405654907226562e-01,-1.650203552246093750e+02,5.246613311767578125e+01,5.246613311767578125e+01,3.210188588127493858e-04,-4.141235351562500000e-02,0.000000000000000000e+00,-3.308968871351680718e-06,5.920382406543467368e-09,5.021124961785972118e-04,-3.146450353597174399e-06,-2.364885318684173399e-07,1.189862494356930256e-03,1.855240725490148179e-06,1.185658853501081467e-03,3.786287727791659563e-09,0.000000000000000000e+00,3.253580944146960974e-04,1.000000000000000000e+00
4.765405654907226562e-01,-1.650203552246093750e+02,5.246613311767578125e+01,5.246613311767578125e+01,3.210188588127493858e-04,-4.141235351562500000e-02,0.000000000000000000e+00,-3.308968871351680718e-06,5.920382406543467368e-09,5.021124961785972118e-04,-3.146450353597174399e-06,-2.364885318684173399e-07,1.189862494356930256e-03,1.855240725490148179e-06,1.185658853501081467e-03,3.786287727791659563e-09,0.000000000000000000e+00,3.253580944146960974e-04,1.000000000000000000e+00
4.765405654907226562e-01,-1.650203552246093750e+02,5.246613311767578125e+01,5.246613311767578125e+01,3.210188588127493858e-04,-4.141235351562500000e-02,0.000000000000000000e+00,-3.308968871351680718e-06,5.920382406543467368e-09,5.021124961785972118e-04,-3.146450353597174399e-06,-2.364885318684173399e-07,1.189862494356930256e-03,1.855240725490148179e-06,1.185658853501081467e-03,3.786287727791659563e-09,0.000000000000000000e+00,3.253580944146960974e-04,1.000000000000000000e+00
4.765405654907226562e-01,-1.650203552246093750e+02,5.246613311767578125e+01,5.246613311767578125e+01,3.210188588127493858e-04,-4.141235351562500000e-02,0.000000000000000000e+00,-3.308968871351680718e-06,5.920382406543467368e-09,5.021124961785972118e-04,-3.146450353597174399e-06,-2.364885318684173399e-07,1.189862494356930256e-03,1.855240725490148179e-06,1.185658853501081467e-03,3.786287727791659563e-09,0.000000000000000000e+00,3.253580944146960974e-04,1.000000000000000000e+00
6.200885772705078125e-01,-1.650203552246093750e+02,5.246613311767578125e+01,5.246613311767578125e+01,2.117358526447787881e-04,-4.141235351562500000e-02,4.558523016839899356e-07,-2.679071940292487852e-06,-1.124006914210440300e-07,-7.498444174416363239e-04,4.388057732285233214e-06,-8.242613489528594073e-07,-8.721520192921161652e-03,-4.233786967233754694e-05,9.578319732099771500e-04,1.989880793473730591e-08,0.000000000000000000e+00,3.253580944146960974e-04,1.000000000000000000e+00
6.200885772705078125e-01,-1.650203552246093750e+02,5.246613311767578125e+01,5.246613311767578125e+01,2.117358526447787881e-04,-4.141235351562500000e-02,4.558523016839899356e-07,-2.679071940292487852e-06,-1.124006914210440300e-07,-7.498444174416363239e-04,4.388057732285233214e-06,-8.242613489528594073e-07,-8.721520192921161652e-03,-4.233786967233754694e-05,9.578319732099771500e-04,1.989880793473730591e-08,0.000000000000000000e+00,3.253580944146960974e-04,1.000000000000000000e+00
6.200885772705078125e-01,-1.650203552246093750e+02,5.246613311767578125e+01,5.246613311767578125e+01,2.117358526447787881e-04,-4.141235351562500000e-02,4.558523016839899356e-07,-2.679071940292487852e-06,-1.124006914210440300e-07,-7.498444174416363239e-04,4.388057732285233214e-06,-8.242613489528594073e-07,-8.721520192921161652e-03,-4.233786967233754694e-05,9.578319732099771500e-04,1.989880793473730591e-08,0.000000000000000000e+00,3.253580944146960974e-04,1.000000000000000000e+00
6.200885772705078125e-01,-1.650203552246093750e+02,5.246613311767578125e+01,5.246613311767578125e+01,2.117358526447787881e-04,-4.141235351562500000e-02,4.558523016839899356e-07,-2.679071940292487852e-06,-1.124006914210440300e-07,-7.498444174416363239e-04,4.388057732285233214e-06,-8.242613489528594073e-07,-8.721520192921161652e-03,-4.233786967233754694e-05,9.578319732099771500e-04,1.989880793473730591e-08,0.000000000000000000e+00,3.253580944146960974e-04,1.000000000000000000e+00
6.200885772705078125e-01,-1.650203552246093750e+02,5.246613311767578125e+01,5.246613311767578125e+01,2.117358526447787881e-04,-4.141235351562500000e-02,4.558523016839899356e-07,-2.679071940292487852e-06,-1.124006914210440300e-07,-7.498444174416363239e-04,4.388057732285233214e-06,-8.242613489528594073e-07,-8.721520192921161652e-03,-4.233786967233754694e-05,9.578319732099771500e-04,1.989880793473730591e-08,0.000000000000000000e+00,3.253580944146960974e-04,1.000000000000000000e+00
6.200885772705078125e-01,-1.650203552246093750e+02,5.246613311767578125e+01,5.246613311767578125e+01,2.117358526447787881e-04,-4.141235351562500000e-02,4.558523016839899356e-07,-2.679071940292487852e-06,-1.124006914210440300e-07,-7.498444174416363239e-04,4.388057732285233214e-06,-8.242613489528594073e-07,-8.721520192921161652e-03,-4.233786967233754694e-05,9.578319732099771500e-04,1.989880793473730591e-08,0.000000000000000000e+00,3.253580944146960974e-04,1.000000000000000000e+00
7.946169376373291016e-01,-1.650203552246093750e+02,5.246613311767578125e+01,5.246613311767578125e+01,2.117358526447787881e-04,-4.141235351562500000e-02,4.558523016839899356e-07,-1.847209773586655501e-06,3.366067646837223037e-09,9.163282811641693115e-05,4.766343863593647256e-06,6.633119937760056928e-07,4.821435548365116119e-03,1.409850597156037111e-06,6.606644019484519958e-04,1.135451110911844808e-08,0.000000000000000000e+00,3.253580944146960974e-04,1.000000000000000000e+00
7.946169376373291016e-01,-1.650203552246093750e+02,5.246613311767578125e+01,5.246613311767578125e+01,2.117358526447787881e-04,-4.141235351562500000e-02,4.558523016839899356e-07,-1.847209773586655501e-06,3.366067646837223037e-09,9.163282811641693115e-05,4.766343863593647256e-06,6.633119937760056928e-07,4.821435548365116119e-03,1.409850597156037111e-06,6.606644019484519958e-04,1.135451110911844808e-08,0.000000000000000000e+00,3.253580944146960974e-04,1.000000000000000000e+00
7.946169376373291016e-01,-1.650203552246093750e+02,5.246613311767578125e+01,5.246613311767578125e+01,2.117358526447787881e-04,-4.141235351562500000e-02,4.558523016839899356e-07,-1.847209773586655501e-06,3.366067646837223037e-09,9.163282811641693115e-05,4.766343863593647256e-06,6.633119937760056928e-07,4.821435548365116119e-03,1.409850597156037111e-06,6.606644019484519958e-04,1.135451110911844808e-08,0.000000000000000000e+00,3.253580944146960974e-04,1.000000000000000000e+00
8.783230781555175781e-01,-1.650203552246093750e+02,5.246613311767578125e+01,5.246613311767578125e+01,2.117358526447787881e-04,-4.141235351562500000e-02,4.558523016839899356e-07,0.000000000000000000e+00,0.000000000000000000e+00,0.000000000000000000e+00,2.206779390689916909e-05,-4.021291388767167518e-08,-1.094696577638387680e-03,0.000000000000000000e+00,0.000000000000000000e+00,0.000000000000000000e+00,0.000000000000000000e+00,3.253580944146960974e-04,1.000000000000000000e+00
8.783230781555175781e-01,-1.650203552246093750e+02,5.246613311767578125e+01,5.246613311767578125e+01,2.117358526447787881e-04,-4.141235351562500000e-02,4.558523016839899356e-07,0.000000000000000000e+00,0.000000000000000000e+00,0.000000000000000000e+00,2.206779390689916909e-05,-4.021291388767167518e-08,-1.094696577638387680e-03,0.000000000000000000e+00,0.000000000000000000e+00,0.000000000000000000e+00,0.000000000000000000e+00,3.253580944146960974e-04,1.000000000000000000e+00
8.783230781555175781e-01,-1.650203552246093750e+02,5.246613311767578125e+01,5.246613311767578125e+01,2.117358526447787881e-04,-4.141235351562500000e-02,4.558523016839899356e-07,0.000000000000000000e+00,0.000000000000000000e+00,0.000000000000000000e+00,2.206779390689916909e-05,-4.021291388767167518e-08,-1.094696577638387680e-03,0.000000000000000000e+00,0.000000000000000000e+00,0.000000000000000000e+00,0.000000000000000000e+00,3.253580944146960974e-04,1.000000000000000000e+00
9.483780860900878906e-01,-1.650203552246093750e+02,5.246613311767578125e+01,5.246613311767578125e+01,7.513207674492150545e-05,-4.141235351562500000e-02,-3.180554506831273498e-15,-6.132140697445720434e-07,-5.847510670120570353e-11,1.801058184355497360e-03,-8.753322617849335074e-06,-8.347027513622151673e-10,2.570919878780841827e-02,-3.414130134160586749e-08,2.199900773121044040e-04,-1.737793908773710427e-09,0.000000000000000000e+00,3.253580944146960974e-04,1.000000000000000000e+00
9.483780860900878906e-01,-1.650203552246093750e+02,5.246613311767578125e+01,5.246613311767578125e+01,7.513207674492150545e-05,-4.141235351562500000e-02,-3.180554506831273498e-15,-6.132140697445720434e-07,-5.847510670120570353e-11,1.801058184355497360e-03,-8.753322617849335074e-06,-8.347027513622151673e-10,2.570919878780841827e-02,-3.414130134160586749e-08,2.199900773121044040e-04,-1.737793908773710427e-09,0.000000000000000000e+00,3.253580944146960974e-04,1.000000000000000000e+00
9.483780860900878906e-01,-1.650203552246093750e+02,5.246613311767578125e+01,5.246613311767578125e+01,7.513207674492150545e-05,-4.141235351562500000e-02,-3.180554506831273498e-15,-6.132140697445720434e-07,-5.847510670120570353e-11,1.801058184355497360e-03,-8.753322617849335074e-06,-8.347027513622151673e-10,2.570919878780841827e-02,-3.414130134160586749e-08,2.199900773121044040e-04,-1.737793908773710427e-09,0.000000000000000000e+00,3.253580944146960974e-04,1.000000000000000000e+00
9.483780860900878906e-01,-1.650203552246093750e+02,5.246613311767578125e+01,5.246613311767578125e+01,7.513207674492150545e-05,-4.141235351562500000e-02,-3.180554506831273498e-15,-6.132140697445720434e-07,-5.847510670120570353e-11,1.801058184355497360e-03,-8.753322617849335074e-06,-8.347027513622151673e-10,2.570919878780841827e-02,-3.414130134160586749e-08,2.199900773121044040e-04,-1.737793908773710427e-09,0.000000000000000000e+00,3.253580944146960974e-04,1.000000000000000000e+00
9.483780860900878906e-01,-1.650203552246093750e+02,5.246613311767578125e+01,5.246613311767578125e+01,7.513207674492150545e-05,-4.141235351562500000e-02,-3.180554506831273498e-15,-5.822618618367414456e-07,-9.028734426763662668e-10,5.754045560024678707e-04,3.927994498553744052e-07,-1.071584954104309872e-08,-1.555417478084564209e-02,-2.301597135101474123e-07,2.084993466269224882e-04,2.235704066322341532e-09,0.000000000000000000e+00,3.253580944146960974e-04,1.000000000000000000e+00
1.027177095413208008e+00,-1.650203552246093750e+02,5.246613311767578125e+01,5.246613311767578125e+01,7.513207674492150545e-05,-4.141235351562500000e-02,-3.180554506831273498e-15,-5.822618618367414456e-07,-9.028734426763662668e-10,5.754045560024678707e-04,3.927994498553744052e-07,-1.071584954104309872e-08,-1.555417478084564209e-02,-2.301597135101474123e-07,2.084993466269224882e-04,2.235704066322341532e-09,0.000000000000000000e+00,3.253580944146960974e-04,1.000000000000000000e+00
1.027177095413208008e+00,-1.650203552246093750e+02,5.246613311767578125e+01,5.246613311767578125e+01,7.513207674492150545e-05,-4.141235351562500000e-02,-3.180554506831273498e-15,-5.822618618367414456e-07,-9.028734426763662668e-10,5.754045560024678707e-04,3.927994498553744052e-07,-1.071584954104309872e-08,-1.555417478084564209e-02,-2.301597135101474123e-07,2.084993466269224882e-04,2.235704066322341532e-09,0.000000000000000000e+00,3.253580944146960974e-04,1.000000000000000000e+00
1.095043420791625977e+00,-1.650203552246093750e+02,5.246613311767578125e+01,5.246613311767578125e+01,7.513207674492150545e-05,-4.141235351562500000e-02,-3.180554506831273498e-15,-5.115246040077181533e-07,1.919826075891251094e-09,-1.049477141350507736e-03,1.042302756104618311e-06,4.159204536335892044e-08,-2.394238486886024475e-02,6.122656373008794617e-07,1.829648244893178344e-04,2.546381772106087737e-09,0.000000000000000000e+00,3.253580944146960974e-04,1.000000000000000000e+00
1.095043420791625977e+00,-1.650203552246093750e+02,5.246613311767578125e+01,5.246613311767578125e+01,7.513207674492150545e-05,-4.141235351562500000e-02,-3.180554506831273498e-15,-5.115246040077181533e-07,1.919826075891251094e-09,-1.049477141350507736e-03,1.042302756104618311e-06,4.159204536335892044e-08,-2.394238486886024475e-02,6.122656373008794617e-07,1.829648244893178344e-04,2.546381772106087737e-09,0.000000000000000000e+00,3.253580944146960974e-04,1.000000000000000000e+00
1.095043420791625977e+00,-1.650203552246093750e+02,5.246613311767578125e+01,5.246613311767578125e+01,7.513207674492150545e-05,-4.141235351562500000e-02,-3.180554506831273498e-15,-5.115246040077181533e-07,1.919826075891251094e-09,-1.049477141350507736e-03,1.042302756104618311e-06,4.159204536335892044e-08,-2.394238486886024475e-02,6.122656373008794617e-07,1.829648244893178344e-04,2.546381772106087737e-09,0.000000000000000000e+00,3.253580944146960974e-04,1.000000000000000000e+00
1.095043420791625977e+00,-1.650203552246093750e+02,5.246613311767578125e+01,5.246613311767578125e+01,7.513207674492150545e-05,-4.141235351562500000e-02,-3.180554506831273498e-15,-5.115246040077181533e-07,1.919826075891251094e-09,-1.049477141350507736e-03,1.042302756104618311e-06,4.159204536335892044e-08,-2.394238486886024475e-02,6.122656373008794617e-07,1.829648244893178344e-04,2.546381772106087737e-09,0.000000000000000000e+00,3.253580944146960974e-04,1.000000000000000000e+00
1.168572425842285156e+00,-1.650203552246093750e+02,5.246613311767578125e+01,5.246613311767578125e+01,7.513207674492150545e-05,-4.141235351562500000e-02,-3.180554506831273498e-15,-4.800378974323393777e-07,4.702445988158387991e-09,1.083751441910862923e-03,4.282215684270340716e-07,3.784384006166874315e-08,2.901206910610198975e-02,1.457286998629570007e-06,1.727017370285466313e-04,-4.692121358118583885e-09,0.000000000000000000e+00,3.253580944146960974e-04,1.000000000000000000e+00
1.168572425842285156e+00,-1.650203552246093750e+02,5.246613311767578125e+01,5.246613311767578125e+01,7.513207674492150545e-05,-4.141235351562500000e-02,-3.180554506831273498e-15,-4.800378974323393777e-07,4.702445988158387991e-09,1.083751441910862923e-03,4.282215684270340716e-07,3.784384006166874315e-08,2.901206910610198975e-02,1.457286998629570007e-06,1.727017370285466313e-04,-4.692121358118583885e-09,0.000000000000000000e+00,3.253580944146960974e-04,1.000000000000000000e+00
1.168572425842285156e+00,-1.650203552246093750e+02,5.246613311767578125e+01,5.246613311767578125e+01,7.513207674492150545e-05,-4.141235351562500000e-02,-3.180554506831273498e-15,-4.800378974323393777e-07,4.702445988158387991e-09,1.083751441910862923e-03,4.282215684270340716e-07,3.784384006166874315e-08,2.901206910610198975e-02,1.457286998629570007e-06,1.727017370285466313e-04,-4.692121358118583885e-09,0.000000000000000000e+00,3.253580944146960974e-04,1.000000000000000000e+00
1.168572425842285156e+00,-1.650203552246093750e+02,5.246613311767578125e+01,5.246613311767578125e+01,7.513207674492150545e-05,-4.141235351562500000e-02,-3.180554506831273498e-15,-4.800378974323393777e-07,4.702445988158387991e-09,1.083751441910862923e-03,4.282215684270340716e-07,3.784384006166874315e-08,2.901206910610198975e-02,1.457286998629570007e-06,1.727017370285466313e-04,-4.692121358118583885e-09,0.000000000000000000e+00,3.253580944146960974e-04,1.000000000000000000e+00
1.168572425842285156e+00,-1.650203552246093750e+02,5.246613311767578125e+01,5.246613311767578125e+01,7.513207674492150545e-05,-4.141235351562500000e-02,-3.180554506831273498e-15,-3.088224787006765837e-07,2.506539864555179520e-09,-4.308829666115343571e-04,2.281398565173731185e-06,-2.925984787793822761e-08,-2.018208801746368408e-02,7.261094197019701824e-07,1.104473485611379147e-04,1.975143826271619218e-09,0.000000000000000000e+00,3.253580944146960974e-04,1.000000000000000000e+00
1.243620872497558594e+00,-1.650203552246093750e+02,5.246613311767578125e+01,5.246613311767578125e+01,7.513207674492150545e-05,-4.141235351562500000e-02,-3.180554506831273498e-15,-3.088224787006765837e-07,2.506539864555179520e-09,-4.308829666115343571e-04,2.281398565173731185e-06,-2.925984787793822761e-08,-2.018208801746368408e-02,7.261094197019701824e-07,1.104473485611379147e-04,1.975143826271619218e-09,0.000000000000000000e+00,3.253580944146960974e-04,1.000000000000000000e+00
1.243620872497558594e+00,-1.650203552246093750e+02,5.246613311767578125e+01,5.246613311767578125e+01,7.513207674492150545e-05,-4.141235351562500000e-02,-3.180554506831273498e-15,-3.088224787006765837e-07,2.506539864555179520e-09,-4.308829666115343571e-04,2.281398565173731185e-06,-2.925984787793822761e-08,-2.018208801746368408e-02,7.261094197019701824e-07,1.104473485611379147e-04,1.975143826271619218e-09,0.000000000000000000e+00,3.253580944146960974e-04,1.000000000000000000e+00
1.243620872497558594e+00,-1.650203552246093750e+02,5.246613311767578125e+01,5.246613311767578125e+01,7.513207674492150545e-05,-4.141235351562500000e-02,-3.180554506831273498e-15,-7.288383585546398535e-08,8.141887519741430879e-08,-1.167598893516696990e-04,3.448282313911477104e-06,1.153316816271399148e-06,4.590961150825023651e-03,1.978864202101249248e-05,2.617939571791794151e-05,-4.493161398499978532e-10,0.000000000000000000e+00,3.253580944146960974e-04,1.000000000000000000e+00
1.312042951583862305e+00,-1.650203552246093750e+02,5.246613311767578125e+01,5.246613311767578125e+01,7.513207674492150545e-05,-4.141235351562500000e-02,-3.180554506831273498e-15,-7.288383585546398535e-08,8.141887519741430879e-08,-1.167598893516696990e-04,3.448282313911477104e-06,1.153316816271399148e-06,4.590961150825023651e-03,1.978864202101249248e-05,2.617939571791794151e-05,-4.493161398499978532e-10,0.000000000000000000e+00,3.253580944146960974e-04,1.000000000000000000e+00
1.312042951583862305e+00,-1.650203552246093750e+02,5.246613311767578125e+01,5.246613311767578125e+01,7.513207674492150545e-05,-4.141235351562500000e-02,-3.180554506831273498e-15,-7.288383585546398535e-08,8.141887519741430879e-08,-1.167598893516696990e-04,3.448282313911477104e-06,1.153316816271399148e-06,4.590961150825023651e-03,1.978864202101249248e-05,2.617939571791794151e-05,-4.493161398499978532e-10,0.000000000000000000e+00,3.253580944146960974e-04,1.000000000000000000e+00
1.383129358291625977e+00,-1.650203552246093750e+02,5.246613311767578125e+01,5.246613311767578125e+01,7.513207674492150545e-05,-4.141235351562500000e-02,-3.180554506831273498e-15,-1.320285605288518127e-07,-9.628924146909412229e-08,7.710164645686745644e-04,-8.320117217408551369e-07,-2.499888751117396168e-06,1.248869393020868301e-02,-2.965384919662028551e-05,4.762124081025831401e-05,-6.107706007618673993e-10,0.000000000000000000e+00,3.253580944146960974e-04,1.000000000000000000e+00
1.383129358291625977e+00,-1.650203552246093750e+02,5.246613311767578125e+01,5.246613311767578125e+01,7.513207674492150545e-05,-4.141235351562500000e-02,-3.180554506831273498e-15,-1.320285605288518127e-07,-9.628924146909412229e-08,7.710164645686745644e-04,-8.320117217408551369e-07,-2.499888751117396168e-06,1.248869393020868301e-02,-2.965384919662028551e-05,4.762124081025831401e-05,-6.107706007618673993e-10,0.000000000000000000e+00,3.253580944146960974e-04,1.000000000000000000e+00
1.383129358291625977e+00,-1.650203552246093750e+02,5.246613311767578125e+01,5.246613311767578125e+01,7.513207674492150545e-05,-4.141235351562500000e-02,-3.180554506831273498e-15,-1.320285605288518127e-07,-9.628924146909412229e-08,7.710164645686745644e-04,-8.320117217408551369e-07,-2.499888751117396168e-06,1.248869393020868301e-02,-2.965384919662028551e-05,4.762124081025831401e-05,-6.107706007618673993e-10,0.000000000000000000e+00,3.253580944146960974e-04,1.000000000000000000e+00
1.450951814651489258e+00,-1.650203552246093750e+02,5.246613311767578125e+01,5.246613311767578125e+01,7.513207674492150545e-05,-4.141235351562500000e-02,-3.180554506831273498e-15,-1.311385631197481416e-07,-7.844316485261515481e-08,-1.978592918021604419e-04,1.312245956341939745e-08,2.631293227750575170e-07,-1.428547129034996033e-02,-3.797716999542899430e-05,4.652065763366408646e-05,7.268396551296518737e-09,0.000000000000000000e+00,3.253580944146960974e-04,1.000000000000000000e+00
1.450951814651489258e+00,-1.650203552246093750e+02,5.246613311767578125e+01,5.246613311767578125e+01,7.513207674492150545e-05,-4.141235351562500000e-02,-3.180554506831273498e-15,-1.311385631197481416e-07,-7.844316485261515481e-08,-1.978592918021604419e-04,1.312245956341939745e-08,2.631293227750575170e-07,-1.428547129034996033e-02,-3.797716999542899430e-05,4.652065763366408646e-05,7.268396551296518737e-09,0.000000000000000000e+00,3.253580944146960974e-04,1.000000000000000000e+00
1.450951814651489258e+00,-1.650203552246093750e+02,5.246613311767578125e+01,5.246613311767578125e+01,7.513207674492150545e-05,-4.141235351562500000e-02,-3.180554506831273498e-15,-1.311385631197481416e-07,-7.844316485261515481e-08,-1.978592918021604419e-04,1.312245956341939745e-08,2.631293227750575170e-07,-1.428547129034996033e-02,-3.797716999542899430e-05,4.652065763366408646e-05,7.268396551296518737e-09,0.000000000000000000e+00,3.253580944146960974e-04,1.000000000000000000e+00
1.527701377868652344e+00,-1.650203552246093750e+02,5.246613311767578125e+01,5.246613311767578125e+01,7.513207674492150545e-05,-4.141235351562500000e-02,-3.180554506831273498e-15,-1.203738548838373390e-07,-9.056980587729412946e-08,2.146620245184749365e-04,1.402575833253649762e-07,-1.580027344516565790e-07,5.374900996685028076e-03,-2.353512900299392641e-05,4.365768836578354239e-05,-3.400238535178345956e-09,0.000000000000000000e+00,3.253580944146960974e-04,1.000000000000000000e+00
1.527701377868652344e+00,-1.650203552246093750e+02,5.246613311767578125e+01,5.246613311767578125e+01,7.513207674492150545e-05,-4.141235351562500000e-02,-3.180554506831273498e-15,-1.203738548838373390e-07,-9.056980587729412946e-08,2.146620245184749365e-04,1.402575833253649762e-07,-1.580027344516565790e-07,5.374900996685028076e-03,-2.353512900299392641e-05,4.365768836578354239e-05,-3.400238535178345956e-09,0.000000000000000000e+00,3.253580944146960974e-04,1.000000000000000000e+00
1.527701377868652344e+00,-1.650203552246093750e+02,5.246613311767578125e+01,5.246613311767578125e+01,7.513207674492150545e-05,-4.141235351562500000e-02,-3.180554506831273498e-15,-1.203738548838373390e-07,-9.056980587729412946e-08,2.146620245184749365e-04,1.402575833253649762e-07,-1.580027344516565790e-07,5.374900996685028076e-03,-2.353512900299392641e-05,4.365768836578354239e-05,-3.400238535178345956e-09,0.000000000000000000e+00,3.253580944146960974e-04,1.000000000000000000e+00
1.600134611129760742e+00,-1.650203552246093750e+02,5.246613311767578125e+01,5.246613311767578125e+01,7.513207674492150545e-05,-4.141235351562500000e-02,-3.180554506831273498e-15,-6.556621912068294478e-08,-9.078837592824129388e-08,-1.168548478744924068e-03,7.566642352685448714e-07,-3.017538219296511670e-09,-1.909635215997695923e-02,-2.767276237136684358e-05,2.362170744163449854e-05,1.125474990981700785e-10,0.000000000000000000e+00,3.253580944146960974e-04,1.000000000000000000e+00
1.600134611129760742e+00,-1.650203552246093750e+02,5.246613311767578125e+01,5.246613311767578125e+01,7.513207674492150545e-05,-4.141235351562500000e-02,-3.180554506831273498e-15,-6.556621912068294478e-08,-9.078837592824129388e-08,-1.168548478744924068e-03,7.566642352685448714e-07,-3.017538219296511670e-09,-1.909635215997695923e-02,-2.767276237136684358e-05,2.362170744163449854e-05,1.125474990981700785e-10,0.000000000000000000e+00,3.253580944146960974e-04,1.000000000000000000e+00
1.600134611129760742e+00,-1.650203552246093750e+02,5.246613311767578125e+01,5.246613311767578125e+01,7.513207674492150545e-05,-4.141235351562500000e-02,-3.180554506831273498e-15,-6.556621912068294478e-08,-9.078837592824129388e-08,-1.168548478744924068e-03,7.566642352685448714e-07,-3.017538219296511670e-09,-1.909635215997695923e-02,-2.767276237136684358e-05,2.362170744163449854e-05,1.125474990981700785e-10,0.000000000000000000e+00,3.253580944146960974e-04,1.000000000000000000e+00
1.600134611129760742e+00,-1.650203552246093750e+02,5.246613311767578125e+01,5.246613311767578125e+01,7.513207674492150545e-05,-4.141235351562500000e-02,-3.180554506831273498e-15,-6.556621912068294478e-08,-9.078837592824129388e-08,-1.168548478744924068e-03,7.566642352685448714e-07,-3.017538219296511670e-09,-1.909635215997695923e-02,-2.767276237136684358e-05,2.362170744163449854e-05,1.125474990981700785e-10,0.000000000000000000e+00,3.253580944146960974e-04,1.000000000000000000e+00
1.600134611129760742e+00,-1.650203552246093750e+02,5.246613311767578125e+01,5.246613311767578125e+01,7.513207674492150545e-05,-4.141235351562500000e-02,-3.180554506831273498e-15,-6.556621912068294478e-08,-9.078837592824129388e-08,-1.168548478744924068e-03,7.566642352685448714e-07,-3.017538219296511670e-09,-1.909635215997695923e-02,-2.767276237136684358e-05,2.362170744163449854e-05,1.125474990981700785e-10,0.000000000000000000e+00,3.253580944146960974e-04,1.000000000000000000e+00
1.600134611129760742e+00,-1.650203552246093750e+02,5.246613311767578125e+01,5.246613311767578125e+01,7.513207674492150545e-05,-4.141235351562500000e-02,-3.180554506831273498e-15,-7.929384793214921956e-08,2.110212804495859018e-08,1.424010843038558960e-04,-1.189787184330270975e-07,9.697660061647184193e-07,1.136212982237339020e-02,1.466512730985414237e-05,2.885948742914479226e-05,-4.994347158060463698e-09,0.000000000000000000e+00,3.253580944146960974e-04,1.000000000000000000e+00
1.715513467788696289e+00,-1.650203552246093750e+02,5.246613311767578125e+01,5.246613311767578125e+01,7.513207674492150545e-05,-4.141235351562500000e-02,-3.180554506831273498e-15,-7.929384793214921956e-08,2.110212804495859018e-08,1.424010843038558960e-04,-1.189787184330270975e-07,9.697660061647184193e-07,1.136212982237339020e-02,1.466512730985414237e-05,2.885948742914479226e-05,-4.994347158060463698e-09,0.000000000000000000e+00,3.253580944146960974e-04,1.000000000000000000e+00
1.715513467788696289e+00,-1.650203552246093750e+02,5.246613311767578125e+01,5.246613311767578125e+01,7.513207674492150545e-05,-4.141235351562500000e-02,-3.180554506831273498e-15,-7.929384793214921956e-08,2.110212804495859018e-08,1.424010843038558960e-04,-1.189787184330270975e-07,9.697660061647184193e-07,1.136212982237339020e-02,1.466512730985414237e-05,2.885948742914479226e-05,-4.994347158060463698e-09,0.000000000000000000e+00,3.253580944146960974e-04,1.000000000000000000e+00
1.715513467788696289e+00,-1.650203552246093750e+02,5.246613311767578125e+01,5.246613311767578125e+01,7.513207674492150545e-05,-4.141235351562500000e-02,-3.180554506831273498e-15,-2.775693452861105470e-08,4.179735668685680139e-09,-3.108269593212753534e-04,5.280332402435305994e-07,-1.733822330152179347e-07,-4.643651656806468964e-03,1.252013248631556053e-06,1.001448163151508197e-05,-4.196435143821730662e-10,0.000000000000000000e+00,3.253580944146960974e-04,1.000000000000000000e+00
1.813115119934082031e+00,-1.650203552246093750e+02,5.246613311767578125e+01,5.246613311767578125e+01,7.513207674492150545e-05,-4.141235351562500000e-02,-3.180554506831273498e-15,-2.775693452861105470e-08,4.179735668685680139e-09,-3.108269593212753534e-04,5.280332402435305994e-07,-1.733822330152179347e-07,-4.643651656806468964e-03,1.252013248631556053e-06,1.001448163151508197e-05,-4.196435143821730662e-10,0.000000000000000000e+00,3.253580944146960974e-04,1.000000000000000000e+00
1.813115119934082031e+00,-1.650203552246093750e+02,5.246613311767578125e+01,5.246613311767578125e+01,7.513207674492150545e-05,-4.141235351562500000e-02,-3.180554506831273498e-15,-2.775693452861105470e-08,4.179735668685680139e-09,-3.108269593212753534e-04,5.280332402435305994e-07,-1.733822330152179347e-07,-4.643651656806468964e-03,1.252013248631556053e-06,1.001448163151508197e-05,-4.196435143821730662e-10,0.000000000000000000e+00,3.253580944146960974e-04,1.000000000000000000e+00
1.813115119934082031e+00,-1.650203552246093750e+02,5.246613311767578125e+01,5.246613311767578125e+01,7.513207674492150545e-05,-4.141235351562500000e-02,-3.180554506831273498e-15,-2.775693452861105470e-08,4.179735668685680139e-09,-3.108269593212753534e-04,5.280332402435305994e-07,-1.733822330152179347e-07,-4.643651656806468964e-03,1.252013248631556053e-06,1.001448163151508197e-05,-4.196435143821730662e-10,0.000000000000000000e+00,3.253580944146960974e-04,1.000000000000000000e+00
1.896134853363037109e+00,-1.650203552246093750e+02,5.246613311767578125e+01,5.246613311767578125e+01,7.513207674492150545e-05,-4.141235351562500000e-02,-3.180554506831273498e-15,4.353264415613011806e-09,2.024852996385106962e-08,4.411933332448825240e-05,3.867779412303207209e-07,1.935539160058397101e-07,4.275444895029067993e-03,5.709689503419212997e-06,-2.196248715335968882e-06,4.055863644936152923e-09,0.000000000000000000e+00,3.253580944146960974e-04,1.000000000000000000e+00
1.896134853363037109e+00,-1.650203552246093750e+02,5.246613311767578125e+01,5.246613311767578125e+01,7.513207674492150545e-05,-4.141235351562500000e-02,-3.180554506831273498e-15,4.353264415613011806e-09,2.024852996385106962e-08,4.411933332448825240e-05,3.867779412303207209e-07,1.935539160058397101e-07,4.275444895029067993e-03,5.709689503419212997e-06,-2.196248715335968882e-06,4.055863644936152923e-09,0.000000000000000000e+00,3.253580944146960974e-04,1.000000000000000000e+00
1.896134853363037109e+00,-1.650203552246093750e+02,5.246613311767578125e+01,5.246613311767578125e+01,7.513207674492150545e-05,-4.141235351562500000e-02,-3.180554506831273498e-15,4.353264415613011806e-09,2.024852996385106962e-08,4.411933332448825240e-05,3.867779412303207209e-07,1.935539160058397101e-07,4.275444895029067993e-03,5.709689503419212997e-06,-2.196248715335968882e-06,4.055863644936152923e-09,0.000000000000000000e+00,3.253580944146960974e-04,1.000000000000000000e+00
1.896134853363037109e+00,-1.650203552246093750e+02,5.246613311767578125e+01,5.246613311767578125e+01,7.513207674492150545e-05,-4.141235351562500000e-02,-3.180554506831273498e-15,4.353264415613011806e-09,2.024852996385106962e-08,4.411933332448825240e-05,3.867779412303207209e-07,1.935539160058397101e-07,4.275444895029067993e-03,5.709689503419212997e-06,-2.196248715335968882e-06,4.055863644936152923e-09,0.000000000000000000e+00,3.253580944146960974e-04,1.000000000000000000e+00
1.896134853363037109e+00,-1.650203552246093750e+02,5.246613311767578125e+01,5.246613311767578125e+01,7.513207674492150545e-05,-4.141235351562500000e-02,-3.180554506831273498e-15,4.353264415613011806e-09,2.024852996385106962e-08,4.411933332448825240e-05,3.867779412303207209e-07,1.935539160058397101e-07,4.275444895029067993e-03,5.709689503419212997e-06,-2.196248715335968882e-06,4.055863644936152923e-09,0.000000000000000000e+00,3.253580944146960974e-04,1.000000000000000000e+00
1.896134853363037109e+00,-1.650203552246093750e+02,5.246613311767578125e+01,5.246613311767578125e+01,7.513207674492150545e-05,-4.141235351562500000e-02,-3.180554506831273498e-15,4.353264415613011806e-09,2.024852996385106962e-08,4.411933332448825240e-05,3.867779412303207209e-07,1.935539160058397101e-07,4.275444895029067993e-03,5.709689503419212997e-06,-2.196248715335968882e-06,4.055863644936152923e-09,0.000000000000000000e+00,3.253580944146960974e-04,1.000000000000000000e+00
1.896134853363037109e+00,-1.650203552246093750e+02,5.246613311767578125e+01,5.246613311767578125e+01,7.513207674492150545e-05,-4.141235351562500000e-02,-3.180554506831273498e-15,4.353264415613011806e-09,2.024852996385106962e-08,4.411933332448825240e-05,3.867779412303207209e-07,1.935539160058397101e-07,4.275444895029067993e-03,5.709689503419212997e-06,-2.196248715335968882e-06,4.055863644936152923e-09,0.000000000000000000e+00,3.253580944146960974e-04,1.000000000000000000e+00
1.896134853363037109e+00,-1.650203552246093750e+02,5.246613311767578125e+01,5.246613311767578125e+01,7.513207674492150545e-05,-4.141235351562500000e-02,-3.180554506831273498e-15,4.353264415613011806e-09,2.024852996385106962e-08,4.411933332448825240e-05,3.867779412303207209e-07,1.935539160058397101e-07,4.275444895029067993e-03,5.709689503419212997e-06,-2.196248715335968882e-06,4.055863644936152923e-09,0.000000000000000000e+00,3.253580944146960974e-04,1.000000000000000000e+00
2.195794820785522461e+00,-1.650203552246093750e+02,5.246613311767578125e+01,5.246613311767578125e+01,7.513207674492150545e-05,-4.141235351562500000e-02,-3.180554506831273498e-15,-2.564065626486922156e-09,4.265629238719981231e-10,1.683370792306959629e-04,-6.551451861014356837e-07,-4.426495081588655012e-07,5.866657476872205734e-03,1.601143679863525904e-07,9.482355380896478891e-07,-2.163850071346118398e-10,0.000000000000000000e+00,3.253580944146960974e-04,1.000000000000000000e+00
2.195794820785522461e+00,-1.650203552246093750e+02,5.246613311767578125e+01,5.246613311767578125e+01,7.513207674492150545e-05,-4.141235351562500000e-02,-3.180554506831273498e-15,-2.564065626486922156e-09,4.265629238719981231e-10,1.683370792306959629e-04,-6.551451861014356837e-07,-4.426495081588655012e-07,5.866657476872205734e-03,1.601143679863525904e-07,9.482355380896478891e-07,-2.163850071346118398e-10,0.000000000000000000e+00,3.253580944146960974e-04,1.000000000000000000e+00
2.195794820785522461e+00,-1.650203552246093750e+02,5.246613311767578125e+01,5.246613311767578125e+01,7.513207674492150545e-05,-4.141235351562500000e-02,-3.180554506831273498e-15,-2.564065626486922156e-09,4.265629238719981231e-10,1.683370792306959629e-04,-6.551451861014356837e-07,-4.426495081588655012e-07,5.866657476872205734e-03,1.601143679863525904e-07,9.482355380896478891e-07,-2.163850071346118398e-10,0.000000000000000000e+00,3.253580944146960974e-04,1.000000000000000000e+00
2.195794820785522461e+00,-1.650203552246093750e+02,5.246613311767578125e+01,5.246613311767578125e+01,7.513207674492150545e-05,-4.141235351562500000e-02,-3.180554506831273498e-15,-2.564065626486922156e-09,4.265629238719981231e-10,1.683370792306959629e-04,-6.551451861014356837e-07,-4.426495081588655012e-07,5.866657476872205734e-03,1.601143679863525904e-07,9.482355380896478891e-07,-2.163850071346118398e-10,0.000000000000000000e+00,3.253580944146960974e-04,1.000000000000000000e+00
2.195794820785522461e+00,-1.650203552246093750e+02,5.246613311767578125e+01,5.246613311767578125e+01,7.513207674492150545e-05,-4.141235351562500000e-02,-3.180554506831273498e-15,-2.564065626486922156e-09,4.265629238719981231e-10,1.683370792306959629e-04,-6.551451861014356837e-07,-4.426495081588655012e-07,5.866657476872205734e-03,1.601143679863525904e-07,9.482355380896478891e-07,-2.163850071346118398e-10,0.000000000000000000e+00,3.253580944146960974e-04,1.000000000000000000e+00
2.195794820785522461e+00,-1.650203552246093750e+02,5.246613311767578125e+01,5.246613311767578125e+01,7.513207674492150545e-05,-4.141235351562500000e-02,-3.180554506831273498e-15,-2.564065626486922156e-09,4.265629238719981231e-10,1.683370792306959629e-04,-6.551451861014356837e-07,-4.426495081588655012e-07,5.866657476872205734e-03,1.601143679863525904e-07,9.482355380896478891e-07,-2.163850071346118398e-10,0.000000000000000000e+00,3.253580944146960974e-04,1.000000000000000000e+00
2.195794820785522461e+00,-1.650203552246093750e+02,5.246613311767578125e+01,5.246613311767578125e+01,7.513207674492150545e-05,-4.141235351562500000e-02,-3.180554506831273498e-15,-2.564065626486922156e-09,4.265629238719981231e-10,1.683370792306959629e-04,-6.551451861014356837e-07,-4.426495081588655012e-07,5.866657476872205734e-03,1.601143679863525904e-07,9.482355380896478891e-07,-2.163850071346118398e-10,0.000000000000000000e+00,3.253580944146960974e-04,1.000000000000000000e+00
2.195794820785522461e+00,-1.650203552246093750e+02,5.246613311767578125e+01,5.246613311767578125e+01,7.513207674492150545e-05,-4.141235351562500000e-02,-3.180554506831273498e-15,-2.564065626486922156e-09,4.265629238719981231e-10,1.683370792306959629e-04,-6.551451861014356837e-07,-4.426495081588655012e-07,5.866657476872205734e-03,1.601143679863525904e-07,9.482355380896478891e-07,-2.163850071346118398e-10,0.000000000000000000e+00,3.253580944146960974e-04,1.000000000000000000e+00
2.195794820785522461e+00,-1.650203552246093750e+02,5.246613311767578125e+01,5.246613311767578125e+01,7.513207674492150545e-05,-4.141235351562500000e-02,-3.180554506831273498e-15,-2.564065626486922156e-09,4.265629238719981231e-10,1.683370792306959629e-04,-6.551451861014356837e-07,-4.426495081588655012e-07,5.866657476872205734e-03,1.601143679863525904e-07,9.482355380896478891e-07,-2.163850071346118398e-10,0.000000000000000000e+00,3.253580944146960974e-04,1.000000000000000000e+00
2.195794820785522461e+00,-1.650203552246093750e+02,5.246613311767578125e+01,5.246613311767578125e+01,7.513207674492150545e-05,-4.141235351562500000e-02,-3.180554506831273498e-15,-2.564065626486922156e-09,4.265629238719981231e-10,1.683370792306959629e-04,-6.551451861014356837e-07,-4.426495081588655012e-07,5.866657476872205734e-03,1.601143679863525904e-07,9.482355380896478891e-07,-2.163850071346118398e-10,0.000000000000000000e+00,3.253580944146960974e-04,1.000000000000000000e+00
2.374083757400512695e+00,-1.650203552246093750e+02,5.246613311767578125e+01,5.246613311767578125e+01,7.513207674492150545e-05,-4.141235351562500000e-02,-3.180554506831273498e-15,-8.742312651577321958e-09,4.312069368239690448e-09,1.112704398110508919e-03,-3.465300224547718244e-08,2.179331204388290644e-08,5.296836141496896744e-03,1.316372959081490990e-06,3.147608822473557666e-06,-2.172419605317443825e-10,0.000000000000000000e+00,3.253580944146960974e-04,1.000000000000000000e+00
2.374083757400512695e+00,-1.650203552246093750e+02,5.246613311767578125e+01,5.246613311767578125e+01,7.513207674492150545e-05,-4.141235351562500000e-02,-3.180554506831273498e-15,-8.742312651577321958e-09,4.312069368239690448e-09,1.112704398110508919e-03,-3.465300224547718244e-08,2.179331204388290644e-08,5.296836141496896744e-03,1.316372959081490990e-06,3.147608822473557666e-06,-2.172419605317443825e-10,0.000000000000000000e+00,3.253580944146960974e-04,1.000000000000000000e+00
2.374083757400512695e+00,-1.650203552246093750e+02,5.246613311767578125e+01,5.246613311767578125e+01,7.513207674492150545e-05,-4.141235351562500000e-02,-3.180554506831273498e-15,-8.742312651577321958e-09,4.312069368239690448e-09,1.112704398110508919e-03,-3.465300224547718244e-08,2.179331204388290644e-08,5.296836141496896744e-03,1.316372959081490990e-06,3.147608822473557666e-06,-2.172419605317443825e-10,0.000000000000000000e+00,3.253580944146960974e-04,1.000000000000000000e+00
2.447860002517700195e+00,-1.650203552246093750e+02,5.246613311767578125e+01,5.246613311767578125e+01,7.513207674492150545e-05,-4.141235351562500000e-02,-3.180554506831273498e-15,-1.906548874330837862e-08,8.993627176323570893e-09,-1.403860747814178467e-03,-1.399254756506707054e-07,6.345617009628767846e-08,-3.411077708005905151e-02,2.771679419311112724e-06,6.831782229710370302e-06,-2.140067116573884931e-11,0.000000000000000000e+00,3.253580944146960974e-04,1.000000000000000000e+00
2.447860002517700195e+00,-1.650203552246093750e+02,5.246613311767578125e+01,5.246613311767578125e+01,7.513207674492150545e-05,-4.141235351562500000e-02,-3.180554506831273498e-15,-1.906548874330837862e-08,8.993627176323570893e-09,-1.403860747814178467e-03,-1.399254756506707054e-07,6.345617009628767846e-08,-3.411077708005905151e-02,2.771679419311112724e-06,6.831782229710370302e-06,-2.140067116573884931e-11,0.000000000000000000e+00,3.253580944146960974e-04,1.000000000000000000e+00
2.500878810882568359e+00,-1.650203552246093750e+02,5.246613311767578125e+01,5.246613311767578125e+01,7.513207674492150545e-05,-4.141235351562500000e-02,-3.180554506831273498e-15,-1.992596487809805694e-08,1.499563140328064037e-08,9.666827972978353500e-04,-1.622963985425940336e-08,1.132051892227536882e-07,4.471137002110481262e-02,4.544667717709671706e-06,7.833788913558237255e-06,-4.367702644003657042e-09,0.000000000000000000e+00,3.253580944146960974e-04,1.000000000000000000e+00
2.500878810882568359e+00,-1.650203552246093750e+02,5.246613311767578125e+01,5.246613311767578125e+01,7.513207674492150545e-05,-4.141235351562500000e-02,-3.180554506831273498e-15,-1.992596487809805694e-08,1.499563140328064037e-08,9.666827972978353500e-04,-1.622963985425940336e-08,1.132051892227536882e-07,4.471137002110481262e-02,4.544667717709671706e-06,7.833788913558237255e-06,-4.367702644003657042e-09,0.000000000000000000e+00,3.253580944146960974e-04,1.000000000000000000e+00
2.560195446014404297e+00,-1.650203552246093750e+02,5.246613311767578125e+01,5.246613311767578125e+01,7.513207674492150545e-05,-4.141235351562500000e-02,-3.180554506831273498e-15,-2.270734178466682351e-08,5.042311901348739411e-09,1.728067174553871155e-03,-4.689033517024654429e-08,-1.677998113791545620e-07,1.283593289554119110e-02,1.329314841314044315e-06,8.887717740435618907e-06,-5.082821719071262123e-09,0.000000000000000000e+00,3.253580944146960974e-04,1.000000000000000000e+00
2.560195446014404297e+00,-1.650203552246093750e+02,5.246613311767578125e+01,5.246613311767578125e+01,7.513207674492150545e-05,-4.141235351562500000e-02,-3.180554506831273498e-15,-2.270734178466682351e-08,5.042311901348739411e-09,1.728067174553871155e-03,-4.689033517024654429e-08,-1.677998113791545620e-07,1.283593289554119110e-02,1.329314841314044315e-06,8.887717740435618907e-06,-5.082821719071262123e-09,0.000000000000000000e+00,3.253580944146960974e-04,1.000000000000000000e+00
2.560195446014404297e+00,-1.650203552246093750e+02,5.246613311767578125e+01,5.246613311767578125e+01,7.513207674492150545e-05,-4.141235351562500000e-02,-3.180554506831273498e-15,-2.270734178466682351e-08,5.042311901348739411e-09,1.728067174553871155e-03,-4.689033517024654429e-08,-1.677998113791545620e-07,1.283593289554119110e-02,1.329314841314044315e-06,8.887717740435618907e-06,-5.082821719071262123e-09,0.000000000000000000e+00,3.253580944146960974e-04,1.000000000000000000e+00
2.618730545043945312e+00,-1.650203552246093750e+02,5.246613311767578125e+01,5.246613311767578125e+01,7.513207674492150545e-05,-4.141235351562500000e-02,-3.180554506831273498e-15,3.730199793494648475e-08,3.037469298305950360e-08,-4.879990592598915100e-04,1.025185611069900915e-06,4.327725093844492221e-07,-3.785875812172889709e-02,1.356826714982162230e-06,-1.372427959722699597e-05,3.361825484660130314e-09,0.000000000000000000e+00,3.253580944146960974e-04,1.000000000000000000e+00
2.618730545043945312e+00,-1.650203552246093750e+02,5.246613311767578125e+01,5.246613311767578125e+01,7.513207674492150545e-05,-4.141235351562500000e-02,-3.180554506831273498e-15,3.730199793494648475e-08,3.037469298305950360e-08,-4.879990592598915100e-04,1.025185611069900915e-06,4.327725093844492221e-07,-3.785875812172889709e-02,1.356826714982162230e-06,-1.372427959722699597e-05,3.361825484660130314e-09,0.000000000000000000e+00,3.253580944146960974e-04,1.000000000000000000e+00
2.677334070205688477e+00,-1.650203552246093750e+02,5.246613311767578125e+01,5.246613311767578125e+01,7.513207674492150545e-05,-4.141235351562500000e-02,-3.180554506831273498e-15,3.117963487397901190e-08,3.098726164552090268e-09,-1.342672330792993307e-04,-1.044708994868415175e-07,-4.654321799080207711e-07,6.036016158759593964e-03,1.359122279609437101e-06,-1.186506869998993352e-05,4.241786921710399838e-09,0.000000000000000000e+00,3.253580944146960974e-04,1.000000000000000000e+00
2.677334070205688477e+00,-1.650203552246093750e+02,5.246613311767578125e+01,5.246613311767578125e+01,7.513207674492150545e-05,-4.141235351562500000e-02,-3.180554506831273498e-15,3.117963487397901190e-08,3.098726164552090268e-09,-1.342672330792993307e-04,-1.044708994868415175e-07,-4.654321799080207711e-07,6.036016158759593964e-03,1.359122279609437101e-06,-1.186506869998993352e-05,4.241786921710399838e-09,0.000000000000000000e+00,3.253580944146960974e-04,1.000000000000000000e+00
2.677334070205688477e+00,-1.650203552246093750e+02,5.246613311767578125e+01,5.246613311767578125e+01,7.513207674492150545e-05,-4.141235351562500000e-02,-3.180554506831273498e-15,3.117963487397901190e-08,3.098726164552090268e-09,-1.342672330792993307e-04,-1.044708994868415175e-07,-4.654321799080207711e-07,6.036016158759593964e-03,1.359122279609437101e-06,-1.186506869998993352e-05,4.241786921710399838e-09,0.000000000000000000e+00,3.253580944146960974e-04,1.000000000000000000e+00
2.677334070205688477e+00,-1.650203552246093750e+02,5.246613311767578125e+01,5.246613311767578125e+01,7.513207674492150545e-05,-4.141235351562500000e-02,-3.180554506831273498e-15,-5.330711427831147375e-09,2.214817884649278312e-09,-6.084503911552019417e-05,-4.699440410149691161e-07,-1.137725202937645008e-08,9.450560319237411022e-04,7.217426514216640498e-07,1.936616627062903717e-06,-2.228714990337721247e-10,0.000000000000000000e+00,3.253580944146960974e-04,1.000000000000000000e+00
2.755024909973144531e+00,-1.650203552246093750e+02,5.246613311767578125e+01,5.246613311767578125e+01,7.513207674492150545e-05,-4.141235351562500000e-02,-3.180554506831273498e-15,-5.330711427831147375e-09,2.214817884649278312e-09,-6.084503911552019417e-05,-4.699440410149691161e-07,-1.137725202937645008e-08,9.450560319237411022e-04,7.217426514216640498e-07,1.936616627062903717e-06,-2.228714990337721247e-10,0.000000000000000000e+00,3.253580944146960974e-04,1.000000000000000000e+00
2.755024909973144531e+00,-1.650203552246093750e+02,5.246613311767578125e+01,5.246613311767578125e+01,7.513207674492150545e-05,-4.141235351562500000e-02,-3.180554506831273498e-15,-5.330711427831147375e-09,2.214817884649278312e-09,-6.084503911552019417e-05,-4.699440410149691161e-07,-1.137725202937645008e-08,9.450560319237411022e-04,7.217426514216640498e-07,1.936616627062903717e-06,-2.228714990337721247e-10,0.000000000000000000e+00,3.253580944146960974e-04,1.000000000000000000e+00
2.755024909973144531e+00,-1.650203552246093750e+02,5.246613311767578125e+01,5.246613311767578125e+01,7.513207674492150545e-05,-4.141235351562500000e-02,-3.180554506831273498e-15,-5.330711427831147375e-09,2.214817884649278312e-09,-6.084503911552019417e-05,-4.699440410149691161e-07,-1.137725202937645008e-08,9.450560319237411022e-04,7.217426514216640498e-07,1.936616627062903717e-06,-2.228714990337721247e-10,0.000000000000000000e+00,3.253580944146960974e-04,1.000000000000000000e+00
2.830169916152954102e+00,-1.650203552246093750e+02,5.246613311767578125e+01,5.246613311767578125e+01,7.513207674492150545e-05,-4.141235351562500000e-02,-3.180554506831273498e-15,4.726719282643898623e-08,1.097955504292258411e-09,-6.410746718756854534e-04,6.999520678618864622e-07,-1.486276168805034104e-08,-7.721466012299060822e-03,3.431740935866400832e-07,-1.760422856023069471e-05,4.389661079073903238e-09,0.000000000000000000e+00,3.253580944146960974e-04,1.000000000000000000e+00
2.830169916152954102e+00,-1.650203552246093750e+02,5.246613311767578125e+01,5.246613311767578125e+01,7.513207674492150545e-05,-4.141235351562500000e-02,-3.180554506831273498e-15,4.726719282643898623e-08,1.097955504292258411e-09,-6.410746718756854534e-04,6.999520678618864622e-07,-1.486276168805034104e-08,-7.721466012299060822e-03,3.431740935866400832e-07,-1.760422856023069471e-05,4.389661079073903238e-09,0.000000000000000000e+00,3.253580944146960974e-04,1.000000000000000000e+00
2.830169916152954102e+00,-1.650203552246093750e+02,5.246613311767578125e+01,5.246613311767578125e+01,7.513207674492150545e-05,-4.141235351562500000e-02,-3.180554506831273498e-15,4.726719282643898623e-08,1.097955504292258411e-09,-6.410746718756854534e-04,6.999520678618864622e-07,-1.486276168805034104e-08,-7.721466012299060822e-03,3.431740935866400832e-07,-1.760422856023069471e-05,4.389661079073903238e-09,0.000000000000000000e+00,3.253580944146960974e-04,1.000000000000000000e+00
2.830169916152954102e+00,-1.650203552246093750e+02,5.246613311767578125e+01,5.246613311767578125e+01,7.513207674492150545e-05,-4.141235351562500000e-02,-3.180554506831273498e-15,4.726719282643898623e-08,1.097955504292258411e-09,-6.410746718756854534e-04,6.999520678618864622e-07,-1.486276168805034104e-08,-7.721466012299060822e-03,3.431740935866400832e-07,-1.760422856023069471e-05,4.389661079073903238e-09,0.000000000000000000e+00,3.253580944146960974e-04,1.000000000000000000e+00
2.830169916152954102e+00,-1.650203552246093750e+02,5.246613311767578125e+01,5.246613311767578125e+01,7.513207674492150545e-05,-4.141235351562500000e-02,-3.180554506831273498e-15,4.726719282643898623e-08,1.097955504292258411e-09,-6.410746718756854534e-04,6.999520678618864622e-07,-1.486276168805034104e-08,-7.721466012299060822e-03,3.431740935866400832e-07,-1.760422856023069471e-05,4.389661079073903238e-09,0.000000000000000000e+00,3.253580944146960974e-04,1.000000000000000000e+00
2.917726278305053711e+00,-1.650203552246093750e+02,5.246613311767578125e+01,5.246613311767578125e+01,7.513207674492150545e-05,-4.141235351562500000e-02,-3.180554506831273498e-15,3.519394553563870431e-08,-1.291656670510121785e-09,1.394443679600954056e-04,-1.378911491656253929e-07,-2.729227155384705839e-08,8.914475329220294952e-03,-3.223619273740041535e-07,-1.330596023763064295e-05,4.766018246726844154e-09,0.000000000000000000e+00,3.253580944146960974e-04,1.000000000000000000e+00
