# Time,X,Y,Z,Roll,Pitch,Yaw,Vx,Vy,Vz,Ax,Ay,Az,Wx,Wy,Wz,Throttle,Steer,Brake
0.000000000000000000e+00,2.374607391357421875e+02,2.516295471191406250e+02,2.516295471191406250e+02,-4.354928433895111084e-02,-1.941833347082138062e-01,1.782994018867611885e-03,5.307373523712158203e+00,-3.486860077828168869e-03,-4.939334303344367072e-06,1.888347864151000977e-01,-8.690354973077774048e-02,1.185143992188386619e-05,1.349093765020370483e-01,-2.175412178039550781e+00,-8.440394401550292969e+00,1.000000000000000000e+00,-2.122107706964015961e-02,0.000000000000000000e+00
1.045818328857421875e-01,2.374607391357421875e+02,2.516295471191406250e+02,2.516295471191406250e+02,-4.354928433895111084e-02,-1.941833347082138062e-01,1.782994018867611885e-03,5.307373523712158203e+00,-3.486860077828168869e-03,-4.939334303344367072e-06,1.888347864151000977e-01,-8.690354973077774048e-02,1.185143992188386619e-05,1.349093765020370483e-01,-2.175412178039550781e+00,-8.440394401550292969e+00,1.000000000000000000e+00,-2.122107706964015961e-02,0.000000000000000000e+00
1.045818328857421875e-01,2.374607391357421875e+02,2.516295471191406250e+02,2.516295471191406250e+02,-4.354928433895111084e-02,-1.941833347082138062e-01,1.782994018867611885e-03,5.307373523712158203e+00,-3.486860077828168869e-03,-4.939334303344367072e-06,1.888347864151000977e-01,-8.690354973077774048e-02,1.185143992188386619e-05,1.349093765020370483e-01,-2.175412178039550781e+00,-8.440394401550292969e+00,1.000000000000000000e+00,-2.122107706964015961e-02,0.000000000000000000e+00
1.045818328857421875e-01,2.374607391357421875e+02,2.516295471191406250e+02,2.516295471191406250e+02,-4.354928433895111084e-02,-1.941833347082138062e-01,1.782994018867611885e-03,5.307373523712158203e+00,-3.486860077828168869e-03,-4.939334303344367072e-06,1.888347864151000977e-01,-8.690354973077774048e-02,1.185143992188386619e-05,1.349093765020370483e-01,-2.175412178039550781e+00,-8.440394401550292969e+00,1.000000000000000000e+00,-2.122107706964015961e-02,0.000000000000000000e+00
1.045818328857421875e-01,2.374607391357421875e+02,2.516295471191406250e+02,2.516295471191406250e+02,-4.354928433895111084e-02,-1.941833347082138062e-01,1.782994018867611885e-03,5.307373523712158203e+00,-3.486860077828168869e-03,-4.939334303344367072e-06,1.888347864151000977e-01,-8.690354973077774048e-02,1.185143992188386619e-05,1.349093765020370483e-01,-2.175412178039550781e+00,-8.440394401550292969e+00,1.000000000000000000e+00,-2.122107706964015961e-02,0.000000000000000000e+00
1.045818328857421875e-01,2.374607391357421875e+02,2.516295471191406250e+02,2.516295471191406250e+02,-4.354928433895111084e-02,-1.941833347082138062e-01,1.782994018867611885e-03,5.307373523712158203e+00,-3.486860077828168869e-03,-4.939334303344367072e-06,1.888347864151000977e-01,-8.690354973077774048e-02,1.185143992188386619e-05,1.349093765020370483e-01,-2.175412178039550781e+00,-8.440394401550292969e+00,1.000000000000000000e+00,-2.122107706964015961e-02,0.000000000000000000e+00
1.045818328857421875e-01,2.380058898925781250e+02,2.516266784667968750e+02,2.516266784667968750e+02,-6.200445443391799927e-02,-6.125182509422302246e-01,-4.934691637754440308e-02,5.314459800720214844e+00,-2.409359626471996307e-02,-7.113224455679301172e-06,6.767597049474716187e-02,-1.968002021312713623e-01,-2.076127202599309385e-05,7.171971797943115234e-01,-2.595213413238525391e+00,-9.242181777954101562e+00,1.000000000000000000e+00,-1.055730599910020828e-02,0.000000000000000000e+00
2.092907428741455078e-01,2.380058898925781250e+02,2.516266784667968750e+02,2.516266784667968750e+02,-6.200445443391799927e-02,-6.125182509422302246e-01,-4.934691637754440308e-02,5.314459800720214844e+00,-2.409359626471996307e-02,-7.113224455679301172e-06,6.767597049474716187e-02,-1.968002021312713623e-01,-2.076127202599309385e-05,7.171971797943115234e-01,-2.595213413238525391e+00,-9.242181777954101562e+00,1.000000000000000000e+00,-1.055730599910020828e-02,0.000000000000000000e+00
2.092907428741455078e-01,2.380058898925781250e+02,2.516266784667968750e+02,2.516266784667968750e+02,-6.200445443391799927e-02,-6.125182509422302246e-01,-4.934691637754440308e-02,5.314459800720214844e+00,-2.409359626471996307e-02,-7.113224455679301172e-06,6.767597049474716187e-02,-1.968002021312713623e-01,-2.076127202599309385e-05,7.171971797943115234e-01,-2.595213413238525391e+00,-9.242181777954101562e+00,1.000000000000000000e+00,-1.055730599910020828e-02,0.000000000000000000e+00
2.092907428741455078e-01,2.380058898925781250e+02,2.516266784667968750e+02,2.516266784667968750e+02,-6.200445443391799927e-02,-6.125182509422302246e-01,-4.934691637754440308e-02,5.314459800720214844e+00,-2.409359626471996307e-02,-7.113224455679301172e-06,6.767597049474716187e-02,-1.968002021312713623e-01,-2.076127202599309385e-05,7.171971797943115234e-01,-2.595213413238525391e+00,-9.242181777954101562e+00,1.000000000000000000e+00,-1.055730599910020828e-02,0.000000000000000000e+00
2.092907428741455078e-01,2.380058898925781250e+02,2.516266784667968750e+02,2.516266784667968750e+02,-6.200445443391799927e-02,-6.125182509422302246e-01,-4.934691637754440308e-02,5.314459800720214844e+00,-2.409359626471996307e-02,-7.113224455679301172e-06,6.767597049474716187e-02,-1.968002021312713623e-01,-2.076127202599309385e-05,7.171971797943115234e-01,-2.595213413238525391e+00,-9.242181777954101562e+00,1.000000000000000000e+00,-1.055730599910020828e-02,0.000000000000000000e+00
2.092907428741455078e-01,2.385518646240234375e+02,2.516218566894531250e+02,2.516218566894531250e+02,-6.454528123140335083e-02,-9.841613769531250000e-01,-1.318359225988388062e-01,5.322124004364013672e+00,-4.522649198770523071e-02,-6.140639015939086676e-06,1.027117371559143066e-01,-2.832122445106506348e-01,1.303409226238727570e-05,7.933737635612487793e-01,-2.689026117324829102e+00,-7.974380970001220703e+00,1.000000000000000000e+00,1.296619232743978500e-02,0.000000000000000000e+00
2.839093208312988281e-01,2.385518646240234375e+02,2.516218566894531250e+02,2.516218566894531250e+02,-6.454528123140335083e-02,-9.841613769531250000e-01,-1.318359225988388062e-01,5.322124004364013672e+00,-4.522649198770523071e-02,-6.140639015939086676e-06,1.027117371559143066e-01,-2.832122445106506348e-01,1.303409226238727570e-05,7.933737635612487793e-01,-2.689026117324829102e+00,-7.974380970001220703e+00,1.000000000000000000e+00,1.296619232743978500e-02,0.000000000000000000e+00
2.839093208312988281e-01,2.385518646240234375e+02,2.516218566894531250e+02,2.516218566894531250e+02,-6.454528123140335083e-02,-9.841613769531250000e-01,-1.318359225988388062e-01,5.322124004364013672e+00,-4.522649198770523071e-02,-6.140639015939086676e-06,1.027117371559143066e-01,-2.832122445106506348e-01,1.303409226238727570e-05,7.933737635612487793e-01,-2.689026117324829102e+00,-7.974380970001220703e+00,1.000000000000000000e+00,1.296619232743978500e-02,0.000000000000000000e+00
2.839093208312988281e-01,2.385518646240234375e+02,2.516218566894531250e+02,2.516218566894531250e+02,-6.454528123140335083e-02,-9.841613769531250000e-01,-1.318359225988388062e-01,5.322124004364013672e+00,-4.522649198770523071e-02,-6.140639015939086676e-06,1.027117371559143066e-01,-2.832122445106506348e-01,1.303409226238727570e-05,7.933737635612487793e-01,-2.689026117324829102e+00,-7.974380970001220703e+00,1.000000000000000000e+00,1.296619232743978500e-02,0.000000000000000000e+00
2.839093208312988281e-01,2.385518646240234375e+02,2.516218566894531250e+02,2.516218566894531250e+02,-6.454528123140335083e-02,-9.841613769531250000e-01,-1.318359225988388062e-01,5.322124004364013672e+00,-4.522649198770523071e-02,-6.140639015939086676e-06,1.027117371559143066e-01,-2.832122445106506348e-01,1.303409226238727570e-05,7.933737635612487793e-01,-2.689026117324829102e+00,-7.974380970001220703e+00,1.000000000000000000e+00,1.296619232743978500e-02,0.000000000000000000e+00
3.569011688232421875e-01,2.389604949951171875e+02,2.516174774169921875e+02,2.516174774169921875e+02,-8.990577608346939087e-02,-1.089874267578125000e+00,-1.850585788488388062e-01,5.579849720001220703e+00,-6.436843425035476685e-02,-3.146655444652424194e-06,3.530883550643920898e+00,-2.622476816177368164e-01,4.101805461687035859e-05,7.060655951499938965e-01,2.253542184829711914e+00,2.695019960403442383e+00,1.000000000000000000e+00,2.879735641181468964e-02,0.000000000000000000e+00
3.569011688232421875e-01,2.389604949951171875e+02,2.516174774169921875e+02,2.516174774169921875e+02,-8.990577608346939087e-02,-1.089874267578125000e+00,-1.850585788488388062e-01,5.579849720001220703e+00,-6.436843425035476685e-02,-3.146655444652424194e-06,3.530883550643920898e+00,-2.622476816177368164e-01,4.101805461687035859e-05,7.060655951499938965e-01,2.253542184829711914e+00,2.695019960403442383e+00,1.000000000000000000e+00,2.879735641181468964e-02,0.000000000000000000e+00
3.569011688232421875e-01,2.389604949951171875e+02,2.516174774169921875e+02,2.516174774169921875e+02,-8.990577608346939087e-02,-1.089874267578125000e+00,-1.850585788488388062e-01,5.579849720001220703e+00,-6.436843425035476685e-02,-3.146655444652424194e-06,3.530883550643920898e+00,-2.622476816177368164e-01,4.101805461687035859e-05,7.060655951499938965e-01,2.253542184829711914e+00,2.695019960403442383e+00,1.000000000000000000e+00,2.879735641181468964e-02,0.000000000000000000e+00
3.569011688232421875e-01,2.389604949951171875e+02,2.516174774169921875e+02,2.516174774169921875e+02,-8.990577608346939087e-02,-1.089874267578125000e+00,-1.850585788488388062e-01,5.579849720001220703e+00,-6.436843425035476685e-02,-3.146655444652424194e-06,3.530883550643920898e+00,-2.622476816177368164e-01,4.101805461687035859e-05,7.060655951499938965e-01,2.253542184829711914e+00,2.695019960403442383e+00,1.000000000000000000e+00,2.879735641181468964e-02,0.000000000000000000e+00
4.765405654907226562e-01,2.393572082519531250e+02,2.516125488281250000e+02,2.516125488281250000e+02,-5.401313304901123047e-02,-1.153137207031250000e+00,-2.148742526769638062e-01,5.335624217987060547e+00,-6.723342090845108032e-02,-3.976241259806556627e-06,-2.041346788406372070e+00,-2.394684962928295135e-02,-6.934052180440630764e-06,2.106634527444839478e-01,-2.325777530670166016e+00,-3.423218965530395508e+00,1.000000000000000000e+00,3.651849180459976196e-02,0.000000000000000000e+00
4.765405654907226562e-01,2.393572082519531250e+02,2.516125488281250000e+02,2.516125488281250000e+02,-5.401313304901123047e-02,-1.153137207031250000e+00,-2.148742526769638062e-01,5.335624217987060547e+00,-6.723342090845108032e-02,-3.976241259806556627e-06,-2.041346788406372070e+00,-2.394684962928295135e-02,-6.934052180440630764e-06,2.106634527444839478e-01,-2.325777530670166016e+00,-3.423218965530395508e+00,1.000000000000000000e+00,3.651849180459976196e-02,0.000000000000000000e+00
4.765405654907226562e-01,2.393572082519531250e+02,2.516125488281250000e+02,2.516125488281250000e+02,-5.401313304901123047e-02,-1.153137207031250000e+00,-2.148742526769638062e-01,5.335624217987060547e+00,-6.723342090845108032e-02,-3.976241259806556627e-06,-2.041346788406372070e+00,-2.394684962928295135e-02,-6.934052180440630764e-06,2.106634527444839478e-01,-2.325777530670166016e+00,-3.423218965530395508e+00,1.000000000000000000e+00,3.651849180459976196e-02,0.000000000000000000e+00
4.765405654907226562e-01,2.393572082519531250e+02,2.516125488281250000e+02,2.516125488281250000e+02,-5.401313304901123047e-02,-1.153137207031250000e+00,-2.148742526769638062e-01,5.335624217987060547e+00,-6.723342090845108032e-02,-3.976241259806556627e-06,-2.041346788406372070e+00,-2.394684962928295135e-02,-6.934052180440630764e-06,2.106634527444839478e-01,-2.325777530670166016e+00,-3.423218965530395508e+00,1.000000000000000000e+00,3.651849180459976196e-02,0.000000000000000000e+00
4.765405654907226562e-01,2.393572082519531250e+02,2.516125488281250000e+02,2.516125488281250000e+02,-5.401313304901123047e-02,-1.153137207031250000e+00,-2.148742526769638062e-01,5.335624217987060547e+00,-6.723342090845108032e-02,-3.976241259806556627e-06,-2.041346788406372070e+00,-2.394684962928295135e-02,-6.934052180440630764e-06,2.106634527444839478e-01,-2.325777530670166016e+00,-3.423218965530395508e+00,1.000000000000000000e+00,3.651849180459976196e-02,0.000000000000000000e+00
4.765405654907226562e-01,2.393572082519531250e+02,2.516125488281250000e+02,2.516125488281250000e+02,-5.401313304901123047e-02,-1.153137207031250000e+00,-2.148742526769638062e-01,5.335624217987060547e+00,-6.723342090845108032e-02,-3.976241259806556627e-06,-2.041346788406372070e+00,-2.394684962928295135e-02,-6.934052180440630764e-06,2.106634527444839478e-01,-2.325777530670166016e+00,-3.423218965530395508e+00,1.000000000000000000e+00,3.651849180459976196e-02,0.000000000000000000e+00
4.765405654907226562e-01,2.393572082519531250e+02,2.516125488281250000e+02,2.516125488281250000e+02,-5.401313304901123047e-02,-1.153137207031250000e+00,-2.148742526769638062e-01,5.335624217987060547e+00,-6.723342090845108032e-02,-3.976241259806556627e-06,-2.041346788406372070e+00,-2.394684962928295135e-02,-6.934052180440630764e-06,2.106634527444839478e-01,-2.325777530670166016e+00,-3.423218965530395508e+00,1.000000000000000000e+00,3.651849180459976196e-02,0.000000000000000000e+00
6.200885772705078125e-01,2.399052124023437500e+02,2.516057891845703125e+02,2.516057891845703125e+02,-6.438819319009780884e-02,-9.568787217140197754e-01,-2.106018066406250000e-01,5.342778205871582031e+00,-7.180923968553543091e-02,-4.271748821338405833e-06,4.983690008521080017e-02,-3.187657520174980164e-02,-2.058597374343662523e-06,-3.799030482769012451e-01,-2.616926193237304688e+00,-2.085010766983032227e+00,1.000000000000000000e+00,4.203217849135398865e-02,0.000000000000000000e+00
6.200885772705078125e-01,2.399052124023437500e+02,2.516057891845703125e+02,2.516057891845703125e+02,-6.438819319009780884e-02,-9.568787217140197754e-01,-2.106018066406250000e-01,5.342778205871582031e+00,-7.180923968553543091e-02,-4.271748821338405833e-06,4.983690008521080017e-02,-3.187657520174980164e-02,-2.058597374343662523e-06,-3.799030482769012451e-01,-2.616926193237304688e+00,-2.085010766983032227e+00,1.000000000000000000e+00,4.203217849135398865e-02,0.000000000000000000e+00
6.200885772705078125e-01,2.399052124023437500e+02,2.516057891845703125e+02,2.516057891845703125e+02,-6.438819319009780884e-02,-9.568787217140197754e-01,-2.106018066406250000e-01,5.342778205871582031e+00,-7.180923968553543091e-02,-4.271748821338405833e-06,4.983690008521080017e-02,-3.187657520174980164e-02,-2.058597374343662523e-06,-3.799030482769012451e-01,-2.616926193237304688e+00,-2.085010766983032227e+00,1.000000000000000000e+00,4.203217849135398865e-02,0.000000000000000000e+00
6.200885772705078125e-01,2.399052124023437500e+02,2.516057891845703125e+02,2.516057891845703125e+02,-6.438819319009780884e-02,-9.568787217140197754e-01,-2.106018066406250000e-01,5.342778205871582031e+00,-7.180923968553543091e-02,-4.271748821338405833e-06,4.983690008521080017e-02,-3.187657520174980164e-02,-2.058597374343662523e-06,-3.799030482769012451e-01,-2.616926193237304688e+00,-2.085010766983032227e+00,1.000000000000000000e+00,4.203217849135398865e-02,0.000000000000000000e+00
6.200885772705078125e-01,2.399052124023437500e+02,2.516057891845703125e+02,2.516057891845703125e+02,-6.438819319009780884e-02,-9.568787217140197754e-01,-2.106018066406250000e-01,5.342778205871582031e+00,-7.180923968553543091e-02,-4.271748821338405833e-06,4.983690008521080017e-02,-3.187657520174980164e-02,-2.058597374343662523e-06,-3.799030482769012451e-01,-2.616926193237304688e+00,-2.085010766983032227e+00,1.000000000000000000e+00,4.203217849135398865e-02,0.000000000000000000e+00
6.200885772705078125e-01,2.399052124023437500e+02,2.516057891845703125e+02,2.516057891845703125e+02,-6.438819319009780884e-02,-9.568787217140197754e-01,-2.106018066406250000e-01,5.342778205871582031e+00,-7.180923968553543091e-02,-4.271748821338405833e-06,4.983690008521080017e-02,-3.187657520174980164e-02,-2.058597374343662523e-06,-3.799030482769012451e-01,-2.616926193237304688e+00,-2.085010766983032227e+00,1.000000000000000000e+00,4.203217849135398865e-02,0.000000000000000000e+00
7.946169376373291016e-01,2.404540710449218750e+02,2.515995330810546875e+02,2.515995330810546875e+02,-6.432671844959259033e-02,-6.659851074218750000e-01,-1.420592963695526123e-01,5.350937843322753906e+00,-6.328392028808593750e-02,5.835514002683339640e-06,4.675250127911567688e-02,4.884775727987289429e-02,5.791186413262039423e-05,-9.766048192977905273e-01,-2.669688224792480469e+00,-1.105868220329284668e+00,1.000000000000000000e+00,4.123952612280845642e-02,0.000000000000000000e+00
7.946169376373291016e-01,2.404540710449218750e+02,2.515995330810546875e+02,2.515995330810546875e+02,-6.432671844959259033e-02,-6.659851074218750000e-01,-1.420592963695526123e-01,5.350937843322753906e+00,-6.328392028808593750e-02,5.835514002683339640e-06,4.675250127911567688e-02,4.884775727987289429e-02,5.791186413262039423e-05,-9.766048192977905273e-01,-2.669688224792480469e+00,-1.105868220329284668e+00,1.000000000000000000e+00,4.123952612280845642e-02,0.000000000000000000e+00
7.946169376373291016e-01,2.404540710449218750e+02,2.515995330810546875e+02,2.515995330810546875e+02,-6.432671844959259033e-02,-6.659851074218750000e-01,-1.420592963695526123e-01,5.350937843322753906e+00,-6.328392028808593750e-02,5.835514002683339640e-06,4.675250127911567688e-02,4.884775727987289429e-02,5.791186413262039423e-05,-9.766048192977905273e-01,-2.669688224792480469e+00,-1.105868220329284668e+00,1.000000000000000000e+00,4.123952612280845642e-02,0.000000000000000000e+00
8.783230781555175781e-01,2.410037384033203125e+02,2.515943756103515625e+02,2.515943756103515625e+02,-6.210007518529891968e-02,-3.741150200366973877e-01,-3.631592169404029846e-02,5.359260559082031250e+00,-5.030310153961181641e-02,6.846240466984454542e-06,9.942778199911117554e-02,1.550760716199874878e-01,1.207469904329627752e-05,-1.148323297500610352e+00,-2.685497999191284180e+00,-1.578840851783752441e+00,1.000000000000000000e+00,3.012824803590774536e-02,0.000000000000000000e+00
8.783230781555175781e-01,2.410037384033203125e+02,2.515943756103515625e+02,2.515943756103515625e+02,-6.210007518529891968e-02,-3.741150200366973877e-01,-3.631592169404029846e-02,5.359260559082031250e+00,-5.030310153961181641e-02,6.846240466984454542e-06,9.942778199911117554e-02,1.550760716199874878e-01,1.207469904329627752e-05,-1.148323297500610352e+00,-2.685497999191284180e+00,-1.578840851783752441e+00,1.000000000000000000e+00,3.012824803590774536e-02,0.000000000000000000e+00
8.783230781555175781e-01,2.410037384033203125e+02,2.515943756103515625e+02,2.515943756103515625e+02,-6.210007518529891968e-02,-3.741150200366973877e-01,-3.631592169404029846e-02,5.359260559082031250e+00,-5.030310153961181641e-02,6.846240466984454542e-06,9.942778199911117554e-02,1.550760716199874878e-01,1.207469904329627752e-05,-1.148323297500610352e+00,-2.685497999191284180e+00,-1.578840851783752441e+00,1.000000000000000000e+00,3.012824803590774536e-02,0.000000000000000000e+00
9.483780860900878906e-01,2.414624938964843750e+02,2.515935516357421875e+02,2.515935516357421875e+02,-4.546856507658958435e-02,3.759952485561370850e-01,7.711089402437210083e-02,5.362535953521728516e+00,-2.215539105236530304e-02,1.096572418646246661e-06,4.675460979342460632e-02,4.017944037914276123e-01,-8.207362407119944692e-05,-1.615546226501464844e+00,-2.310342073440551758e+00,1.302407932281494141e+01,1.000000000000000000e+00,2.343953028321266174e-02,0.000000000000000000e+00
9.483780860900878906e-01,2.414624938964843750e+02,2.515935516357421875e+02,2.515935516357421875e+02,-4.546856507658958435e-02,3.759952485561370850e-01,7.711089402437210083e-02,5.362535953521728516e+00,-2.215539105236530304e-02,1.096572418646246661e-06,4.675460979342460632e-02,4.017944037914276123e-01,-8.207362407119944692e-05,-1.615546226501464844e+00,-2.310342073440551758e+00,1.302407932281494141e+01,1.000000000000000000e+00,2.343953028321266174e-02,0.000000000000000000e+00
9.483780860900878906e-01,2.414624938964843750e+02,2.515935516357421875e+02,2.515935516357421875e+02,-4.546856507658958435e-02,3.759952485561370850e-01,7.711089402437210083e-02,5.362535953521728516e+00,-2.215539105236530304e-02,1.096572418646246661e-06,4.675460979342460632e-02,4.017944037914276123e-01,-8.207362407119944692e-05,-1.615546226501464844e+00,-2.310342073440551758e+00,1.302407932281494141e+01,1.000000000000000000e+00,2.343953028321266174e-02,0.000000000000000000e+00
9.483780860900878906e-01,2.414624938964843750e+02,2.515935516357421875e+02,2.515935516357421875e+02,-4.546856507658958435e-02,3.759952485561370850e-01,7.711089402437210083e-02,5.362535953521728516e+00,-2.215539105236530304e-02,1.096572418646246661e-06,4.675460979342460632e-02,4.017944037914276123e-01,-8.207362407119944692e-05,-1.615546226501464844e+00,-2.310342073440551758e+00,1.302407932281494141e+01,1.000000000000000000e+00,2.343953028321266174e-02,0.000000000000000000e+00
9.483780860900878906e-01,2.418481445312500000e+02,2.515945587158203125e+02,2.515945587158203125e+02,-7.321279495954513550e-02,8.563928008079528809e-01,2.006115615367889404e-01,5.601984500885009766e+00,1.264260057359933853e-02,-9.878681339614558965e-06,3.038725376129150391e+00,4.416044354438781738e-01,-1.392816193401813507e-04,-1.906846523284912109e+00,2.151583433151245117e+00,2.874622344970703125e+00,1.000000000000000000e+00,-1.760281156748533249e-03,0.000000000000000000e+00
1.027177095413208008e+00,2.418481445312500000e+02,2.515945587158203125e+02,2.515945587158203125e+02,-7.321279495954513550e-02,8.563928008079528809e-01,2.006115615367889404e-01,5.601984500885009766e+00,1.264260057359933853e-02,-9.878681339614558965e-06,3.038725376129150391e+00,4.416044354438781738e-01,-1.392816193401813507e-04,-1.906846523284912109e+00,2.151583433151245117e+00,2.874622344970703125e+00,1.000000000000000000e+00,-1.760281156748533249e-03,0.000000000000000000e+00
1.027177095413208008e+00,2.418481445312500000e+02,2.515945587158203125e+02,2.515945587158203125e+02,-7.321279495954513550e-02,8.563928008079528809e-01,2.006115615367889404e-01,5.601984500885009766e+00,1.264260057359933853e-02,-9.878681339614558965e-06,3.038725376129150391e+00,4.416044354438781738e-01,-1.392816193401813507e-04,-1.906846523284912109e+00,2.151583433151245117e+00,2.874622344970703125e+00,1.000000000000000000e+00,-1.760281156748533249e-03,0.000000000000000000e+00
1.095043420791625977e+00,2.422772369384765625e+02,2.515979003906250000e+02,2.515979003906250000e+02,-2.594105713069438934e-02,1.361751079559326172e+00,3.280794620513916016e-01,5.337953567504882812e+00,3.581196814775466919e-02,-2.391438101767562330e-05,-3.890455722808837891e+00,3.413971364498138428e-01,-2.068139001494273543e-04,-1.432148098945617676e+00,-2.543054342269897461e+00,9.282110214233398438e+00,1.000000000000000000e+00,-2.209019288420677185e-02,0.000000000000000000e+00
1.095043420791625977e+00,2.422772369384765625e+02,2.515979003906250000e+02,2.515979003906250000e+02,-2.594105713069438934e-02,1.361751079559326172e+00,3.280794620513916016e-01,5.337953567504882812e+00,3.581196814775466919e-02,-2.391438101767562330e-05,-3.890455722808837891e+00,3.413971364498138428e-01,-2.068139001494273543e-04,-1.432148098945617676e+00,-2.543054342269897461e+00,9.282110214233398438e+00,1.000000000000000000e+00,-2.209019288420677185e-02,0.000000000000000000e+00
1.095043420791625977e+00,2.422772369384765625e+02,2.515979003906250000e+02,2.515979003906250000e+02,-2.594105713069438934e-02,1.361751079559326172e+00,3.280794620513916016e-01,5.337953567504882812e+00,3.581196814775466919e-02,-2.391438101767562330e-05,-3.890455722808837891e+00,3.413971364498138428e-01,-2.068139001494273543e-04,-1.432148098945617676e+00,-2.543054342269897461e+00,9.282110214233398438e+00,1.000000000000000000e+00,-2.209019288420677185e-02,0.000000000000000000e+00
1.095043420791625977e+00,2.422772369384765625e+02,2.515979003906250000e+02,2.515979003906250000e+02,-2.594105713069438934e-02,1.361751079559326172e+00,3.280794620513916016e-01,5.337953567504882812e+00,3.581196814775466919e-02,-2.391438101767562330e-05,-3.890455722808837891e+00,3.413971364498138428e-01,-2.068139001494273543e-04,-1.432148098945617676e+00,-2.543054342269897461e+00,9.282110214233398438e+00,1.000000000000000000e+00,-2.209019288420677185e-02,0.000000000000000000e+00
1.168572425842285156e+00,2.426497039794921875e+02,2.516011199951171875e+02,2.516011199951171875e+02,-5.520158633589744568e-02,1.398037672042846680e+00,3.994453549385070801e-01,5.584647655487060547e+00,5.806095153093338013e-02,-3.006526821991428733e-05,3.355057954788208008e+00,3.025878369808197021e-01,-8.365252870135009289e-05,-8.264193534851074219e-01,2.191381216049194336e+00,2.820512294769287109e+00,1.000000000000000000e+00,-4.477672651410102844e-02,0.000000000000000000e+00
1.168572425842285156e+00,2.426497039794921875e+02,2.516011199951171875e+02,2.516011199951171875e+02,-5.520158633589744568e-02,1.398037672042846680e+00,3.994453549385070801e-01,5.584647655487060547e+00,5.806095153093338013e-02,-3.006526821991428733e-05,3.355057954788208008e+00,3.025878369808197021e-01,-8.365252870135009289e-05,-8.264193534851074219e-01,2.191381216049194336e+00,2.820512294769287109e+00,1.000000000000000000e+00,-4.477672651410102844e-02,0.000000000000000000e+00
1.168572425842285156e+00,2.426497039794921875e+02,2.516011199951171875e+02,2.516011199951171875e+02,-5.520158633589744568e-02,1.398037672042846680e+00,3.994453549385070801e-01,5.584647655487060547e+00,5.806095153093338013e-02,-3.006526821991428733e-05,3.355057954788208008e+00,3.025878369808197021e-01,-8.365252870135009289e-05,-8.264193534851074219e-01,2.191381216049194336e+00,2.820512294769287109e+00,1.000000000000000000e+00,-4.477672651410102844e-02,0.000000000000000000e+00
1.168572425842285156e+00,2.426497039794921875e+02,2.516011199951171875e+02,2.516011199951171875e+02,-5.520158633589744568e-02,1.398037672042846680e+00,3.994453549385070801e-01,5.584647655487060547e+00,5.806095153093338013e-02,-3.006526821991428733e-05,3.355057954788208008e+00,3.025878369808197021e-01,-8.365252870135009289e-05,-8.264193534851074219e-01,2.191381216049194336e+00,2.820512294769287109e+00,1.000000000000000000e+00,-4.477672651410102844e-02,0.000000000000000000e+00
1.168572425842285156e+00,2.430496978759765625e+02,2.516044616699218750e+02,2.516044616699218750e+02,-2.023785002529621124e-02,1.125445961952209473e+00,4.144253730773925781e-01,5.339872360229492188e+00,5.883224308490753174e-02,-1.754502773110289127e-05,-3.261563777923583984e+00,1.027724891901016235e-02,1.668287732172757387e-04,2.154796570539474487e-01,-2.305298328399658203e+00,-7.989718437194824219e+00,1.000000000000000000e+00,-4.881060495972633362e-02,0.000000000000000000e+00
1.243620872497558594e+00,2.430496978759765625e+02,2.516044616699218750e+02,2.516044616699218750e+02,-2.023785002529621124e-02,1.125445961952209473e+00,4.144253730773925781e-01,5.339872360229492188e+00,5.883224308490753174e-02,-1.754502773110289127e-05,-3.261563777923583984e+00,1.027724891901016235e-02,1.668287732172757387e-04,2.154796570539474487e-01,-2.305298328399658203e+00,-7.989718437194824219e+00,1.000000000000000000e+00,-4.881060495972633362e-02,0.000000000000000000e+00
1.243620872497558594e+00,2.430496978759765625e+02,2.516044616699218750e+02,2.516044616699218750e+02,-2.023785002529621124e-02,1.125445961952209473e+00,4.144253730773925781e-01,5.339872360229492188e+00,5.883224308490753174e-02,-1.754502773110289127e-05,-3.261563777923583984e+00,1.027724891901016235e-02,1.668287732172757387e-04,2.154796570539474487e-01,-2.305298328399658203e+00,-7.989718437194824219e+00,1.000000000000000000e+00,-4.881060495972633362e-02,0.000000000000000000e+00
1.243620872497558594e+00,2.434618835449218750e+02,2.516080932617187500e+02,2.516080932617187500e+02,-6.295385211706161499e-02,7.954990863800048828e-01,3.644028604030609131e-01,5.597547531127929688e+00,6.031963601708412170e-02,3.690165613079443574e-06,3.765965223312377930e+00,2.173849381506443024e-02,3.103558556176722050e-04,9.890789985656738281e-01,2.507527828216552734e+00,-1.847331285476684570e+00,1.000000000000000000e+00,-4.197330772876739502e-02,0.000000000000000000e+00
1.312042951583862305e+00,2.434618835449218750e+02,2.516080932617187500e+02,2.516080932617187500e+02,-6.295385211706161499e-02,7.954990863800048828e-01,3.644028604030609131e-01,5.597547531127929688e+00,6.031963601708412170e-02,3.690165613079443574e-06,3.765965223312377930e+00,2.173849381506443024e-02,3.103558556176722050e-04,9.890789985656738281e-01,2.507527828216552734e+00,-1.847331285476684570e+00,1.000000000000000000e+00,-4.197330772876739502e-02,0.000000000000000000e+00
1.312042951583862305e+00,2.434618835449218750e+02,2.516080932617187500e+02,2.516080932617187500e+02,-6.295385211706161499e-02,7.954990863800048828e-01,3.644028604030609131e-01,5.597547531127929688e+00,6.031963601708412170e-02,3.690165613079443574e-06,3.765965223312377930e+00,2.173849381506443024e-02,3.103558556176722050e-04,9.890789985656738281e-01,2.507527828216552734e+00,-1.847331285476684570e+00,1.000000000000000000e+00,-4.197330772876739502e-02,0.000000000000000000e+00
1.383129358291625977e+00,2.438356170654296875e+02,2.516103210449218750e+02,2.516103210449218750e+02,-4.568713158369064331e-02,3.289100229740142822e-01,2.658524215221405029e-01,5.368883132934570312e+00,4.425487294793128967e-02,2.396255513303913176e-05,-3.216710567474365234e+00,-2.259892374277114868e-01,2.851795288734138012e-04,1.730128526687622070e+00,-2.025739669799804688e+00,-1.024961185455322266e+01,1.000000000000000000e+00,-3.137987479567527771e-02,0.000000000000000000e+00
1.383129358291625977e+00,2.438356170654296875e+02,2.516103210449218750e+02,2.516103210449218750e+02,-4.568713158369064331e-02,3.289100229740142822e-01,2.658524215221405029e-01,5.368883132934570312e+00,4.425487294793128967e-02,2.396255513303913176e-05,-3.216710567474365234e+00,-2.259892374277114868e-01,2.851795288734138012e-04,1.730128526687622070e+00,-2.025739669799804688e+00,-1.024961185455322266e+01,1.000000000000000000e+00,-3.137987479567527771e-02,0.000000000000000000e+00
1.383129358291625977e+00,2.438356170654296875e+02,2.516103210449218750e+02,2.516103210449218750e+02,-4.568713158369064331e-02,3.289100229740142822e-01,2.658524215221405029e-01,5.368883132934570312e+00,4.425487294793128967e-02,2.396255513303913176e-05,-3.216710567474365234e+00,-2.259892374277114868e-01,2.851795288734138012e-04,1.730128526687622070e+00,-2.025739669799804688e+00,-1.024961185455322266e+01,1.000000000000000000e+00,-3.137987479567527771e-02,0.000000000000000000e+00
1.450951814651489258e+00,2.442274932861328125e+02,2.516118316650390625e+02,2.516118316650390625e+02,-8.614917099475860596e-02,-4.904174059629440308e-02,1.225948035717010498e-01,5.612164020538330078e+00,2.259976416826248169e-02,3.057998765143565834e-05,3.587025642395019531e+00,-3.192911446094512939e-01,9.756993677001446486e-05,2.200496673583984375e+00,2.328731060028076172e+00,-2.027976989746093750e+00,1.000000000000000000e+00,-1.627922989428043365e-02,0.000000000000000000e+00
1.450951814651489258e+00,2.442274932861328125e+02,2.516118316650390625e+02,2.516118316650390625e+02,-8.614917099475860596e-02,-4.904174059629440308e-02,1.225948035717010498e-01,5.612164020538330078e+00,2.259976416826248169e-02,3.057998765143565834e-05,3.587025642395019531e+00,-3.192911446094512939e-01,9.756993677001446486e-05,2.200496673583984375e+00,2.328731060028076172e+00,-2.027976989746093750e+00,1.000000000000000000e+00,-1.627922989428043365e-02,0.000000000000000000e+00
1.450951814651489258e+00,2.442274932861328125e+02,2.516118316650390625e+02,2.516118316650390625e+02,-8.614917099475860596e-02,-4.904174059629440308e-02,1.225948035717010498e-01,5.612164020538330078e+00,2.259976416826248169e-02,3.057998765143565834e-05,3.587025642395019531e+00,-3.192911446094512939e-01,9.756993677001446486e-05,2.200496673583984375e+00,2.328731060028076172e+00,-2.027976989746093750e+00,1.000000000000000000e+00,-1.627922989428043365e-02,0.000000000000000000e+00
1.527701377868652344e+00,2.445989227294921875e+02,2.516117401123046875e+02,2.516117401123046875e+02,-6.292653083801269531e-02,-4.445495009422302246e-01,-2.569579891860485077e-02,5.383960247039794922e+00,2.329054521396756172e-03,2.104473787767346948e-05,-2.973356008529663086e+00,-2.641149759292602539e-01,-1.242384896613657475e-04,2.162014484405517578e+00,-2.106308460235595703e+00,-8.590202331542968750e+00,1.000000000000000000e+00,7.336662383750081062e-04,0.000000000000000000e+00
1.527701377868652344e+00,2.445989227294921875e+02,2.516117401123046875e+02,2.516117401123046875e+02,-6.292653083801269531e-02,-4.445495009422302246e-01,-2.569579891860485077e-02,5.383960247039794922e+00,2.329054521396756172e-03,2.104473787767346948e-05,-2.973356008529663086e+00,-2.641149759292602539e-01,-1.242384896613657475e-04,2.162014484405517578e+00,-2.106308460235595703e+00,-8.590202331542968750e+00,1.000000000000000000e+00,7.336662383750081062e-04,0.000000000000000000e+00
1.527701377868652344e+00,2.445989227294921875e+02,2.516117401123046875e+02,2.516117401123046875e+02,-6.292653083801269531e-02,-4.445495009422302246e-01,-2.569579891860485077e-02,5.383960247039794922e+00,2.329054521396756172e-03,2.104473787767346948e-05,-2.973356008529663086e+00,-2.641149759292602539e-01,-1.242384896613657475e-04,2.162014484405517578e+00,-2.106308460235595703e+00,-8.590202331542968750e+00,1.000000000000000000e+00,7.336662383750081062e-04,0.000000000000000000e+00
1.600134611129760742e+00,2.450240631103515625e+02,2.516106567382812500e+02,2.516106567382812500e+02,-1.100480034947395325e-01,-6.203306317329406738e-01,-1.810912936925888062e-01,5.647378921508789062e+00,-2.460048161447048187e-02,8.486398996865318622e-07,3.636710166931152344e+00,-3.717842698097229004e-01,-2.788236306514590979e-04,1.888923883438110352e+00,2.467736005783081055e+00,1.725601077079772949e+00,1.000000000000000000e+00,1.541626919060945511e-02,0.000000000000000000e+00
1.600134611129760742e+00,2.450240631103515625e+02,2.516106567382812500e+02,2.516106567382812500e+02,-1.100480034947395325e-01,-6.203306317329406738e-01,-1.810912936925888062e-01,5.647378921508789062e+00,-2.460048161447048187e-02,8.486398996865318622e-07,3.636710166931152344e+00,-3.717842698097229004e-01,-2.788236306514590979e-04,1.888923883438110352e+00,2.467736005783081055e+00,1.725601077079772949e+00,1.000000000000000000e+00,1.541626919060945511e-02,0.000000000000000000e+00
1.600134611129760742e+00,2.450240631103515625e+02,2.516106567382812500e+02,2.516106567382812500e+02,-1.100480034947395325e-01,-6.203306317329406738e-01,-1.810912936925888062e-01,5.647378921508789062e+00,-2.460048161447048187e-02,8.486398996865318622e-07,3.636710166931152344e+00,-3.717842698097229004e-01,-2.788236306514590979e-04,1.888923883438110352e+00,2.467736005783081055e+00,1.725601077079772949e+00,1.000000000000000000e+00,1.541626919060945511e-02,0.000000000000000000e+00
1.600134611129760742e+00,2.450240631103515625e+02,2.516106567382812500e+02,2.516106567382812500e+02,-1.100480034947395325e-01,-6.203306317329406738e-01,-1.810912936925888062e-01,5.647378921508789062e+00,-2.460048161447048187e-02,8.486398996865318622e-07,3.636710166931152344e+00,-3.717842698097229004e-01,-2.788236306514590979e-04,1.888923883438110352e+00,2.467736005783081055e+00,1.725601077079772949e+00,1.000000000000000000e+00,1.541626919060945511e-02,0.000000000000000000e+00
1.600134611129760742e+00,2.450240631103515625e+02,2.516106567382812500e+02,2.516106567382812500e+02,-1.100480034947395325e-01,-6.203306317329406738e-01,-1.810912936925888062e-01,5.647378921508789062e+00,-2.460048161447048187e-02,8.486398996865318622e-07,3.636710166931152344e+00,-3.717842698097229004e-01,-2.788236306514590979e-04,1.888923883438110352e+00,2.467736005783081055e+00,1.725601077079772949e+00,1.000000000000000000e+00,1.541626919060945511e-02,0.000000000000000000e+00
1.600134611129760742e+00,2.454226837158203125e+02,2.516081542968750000e+02,2.516081542968750000e+02,-8.065769821405410767e-02,-7.807007431983947754e-01,-2.843322455883026123e-01,5.404524803161621094e+00,-3.674570843577384949e-02,-1.504680130892666057e-05,-2.104840755462646484e+00,-1.052638813853263855e-01,-1.377673615934327245e-04,1.108323693275451660e+00,-2.301231384277343750e+00,-4.954354286193847656e+00,1.000000000000000000e+00,2.437606640160083771e-02,0.000000000000000000e+00
1.715513467788696289e+00,2.454226837158203125e+02,2.516081542968750000e+02,2.516081542968750000e+02,-8.065769821405410767e-02,-7.807007431983947754e-01,-2.843322455883026123e-01,5.404524803161621094e+00,-3.674570843577384949e-02,-1.504680130892666057e-05,-2.104840755462646484e+00,-1.052638813853263855e-01,-1.377673615934327245e-04,1.108323693275451660e+00,-2.301231384277343750e+00,-4.954354286193847656e+00,1.000000000000000000e+00,2.437606640160083771e-02,0.000000000000000000e+00
1.715513467788696289e+00,2.454226837158203125e+02,2.516081542968750000e+02,2.516081542968750000e+02,-8.065769821405410767e-02,-7.807007431983947754e-01,-2.843322455883026123e-01,5.404524803161621094e+00,-3.674570843577384949e-02,-1.504680130892666057e-05,-2.104840755462646484e+00,-1.052638813853263855e-01,-1.377673615934327245e-04,1.108323693275451660e+00,-2.301231384277343750e+00,-4.954354286193847656e+00,1.000000000000000000e+00,2.437606640160083771e-02,0.000000000000000000e+00
1.715513467788696289e+00,2.459775695800781250e+02,2.516038360595703125e+02,2.516038360595703125e+02,-8.743324875831604004e-02,-7.226256728172302246e-01,-3.376159369945526123e-01,5.411167621612548828e+00,-4.752418026328086853e-02,-1.586649523233063519e-05,6.806051731109619141e-02,-1.104332953691482544e-01,-8.398361387662589550e-06,2.012477722018957138e-03,-2.684276580810546875e+00,-3.608744859695434570e+00,1.000000000000000000e+00,3.266577050089836121e-02,0.000000000000000000e+00
1.813115119934082031e+00,2.459775695800781250e+02,2.516038360595703125e+02,2.516038360595703125e+02,-8.743324875831604004e-02,-7.226256728172302246e-01,-3.376159369945526123e-01,5.411167621612548828e+00,-4.752418026328086853e-02,-1.586649523233063519e-05,6.806051731109619141e-02,-1.104332953691482544e-01,-8.398361387662589550e-06,2.012477722018957138e-03,-2.684276580810546875e+00,-3.608744859695434570e+00,1.000000000000000000e+00,3.266577050089836121e-02,0.000000000000000000e+00
1.813115119934082031e+00,2.459775695800781250e+02,2.516038360595703125e+02,2.516038360595703125e+02,-8.743324875831604004e-02,-7.226256728172302246e-01,-3.376159369945526123e-01,5.411167621612548828e+00,-4.752418026328086853e-02,-1.586649523233063519e-05,6.806051731109619141e-02,-1.104332953691482544e-01,-8.398361387662589550e-06,2.012477722018957138e-03,-2.684276580810546875e+00,-3.608744859695434570e+00,1.000000000000000000e+00,3.266577050089836121e-02,0.000000000000000000e+00
1.813115119934082031e+00,2.459775695800781250e+02,2.516038360595703125e+02,2.516038360595703125e+02,-8.743324875831604004e-02,-7.226256728172302246e-01,-3.376159369945526123e-01,5.411167621612548828e+00,-4.752418026328086853e-02,-1.586649523233063519e-05,6.806051731109619141e-02,-1.104332953691482544e-01,-8.398361387662589550e-06,2.012477722018957138e-03,-2.684276580810546875e+00,-3.608744859695434570e+00,1.000000000000000000e+00,3.266577050089836121e-02,0.000000000000000000e+00
1.896134853363037109e+00,2.465195770263671875e+02,2.515991210937500000e+02,2.515991210937500000e+02,-7.836958765983581543e-02,-6.052551269531250000e-01,-2.924804091453552246e-01,5.418219089508056641e+00,-4.788809642195701599e-02,4.567356882034800947e-06,8.493725210428237915e-02,-4.383489955216646194e-03,2.461324620526283979e-04,-8.234021067619323730e-01,-2.671905040740966797e+00,-2.937002420425415039e+00,1.000000000000000000e+00,3.051768057048320770e-02,0.000000000000000000e+00
1.896134853363037109e+00,2.465195770263671875e+02,2.515991210937500000e+02,2.515991210937500000e+02,-7.836958765983581543e-02,-6.052551269531250000e-01,-2.924804091453552246e-01,5.418219089508056641e+00,-4.788809642195701599e-02,4.567356882034800947e-06,8.493725210428237915e-02,-4.383489955216646194e-03,2.461324620526283979e-04,-8.234021067619323730e-01,-2.671905040740966797e+00,-2.937002420425415039e+00,1.000000000000000000e+00,3.051768057048320770e-02,0.000000000000000000e+00
1.896134853363037109e+00,2.465195770263671875e+02,2.515991210937500000e+02,2.515991210937500000e+02,-7.836958765983581543e-02,-6.052551269531250000e-01,-2.924804091453552246e-01,5.418219089508056641e+00,-4.788809642195701599e-02,4.567356882034800947e-06,8.493725210428237915e-02,-4.383489955216646194e-03,2.461324620526283979e-04,-8.234021067619323730e-01,-2.671905040740966797e+00,-2.937002420425415039e+00,1.000000000000000000e+00,3.051768057048320770e-02,0.000000000000000000e+00
1.896134853363037109e+00,2.465195770263671875e+02,2.515991210937500000e+02,2.515991210937500000e+02,-7.836958765983581543e-02,-6.052551269531250000e-01,-2.924804091453552246e-01,5.418219089508056641e+00,-4.788809642195701599e-02,4.567356882034800947e-06,8.493725210428237915e-02,-4.383489955216646194e-03,2.461324620526283979e-04,-8.234021067619323730e-01,-2.671905040740966797e+00,-2.937002420425415039e+00,1.000000000000000000e+00,3.051768057048320770e-02,0.000000000000000000e+00
1.896134853363037109e+00,2.465195770263671875e+02,2.515991210937500000e+02,2.515991210937500000e+02,-7.836958765983581543e-02,-6.052551269531250000e-01,-2.924804091453552246e-01,5.418219089508056641e+00,-4.788809642195701599e-02,4.567356882034800947e-06,8.493725210428237915e-02,-4.383489955216646194e-03,2.461324620526283979e-04,-8.234021067619323730e-01,-2.671905040740966797e+00,-2.937002420425415039e+00,1.000000000000000000e+00,3.051768057048320770e-02,0.000000000000000000e+00
1.896134853363037109e+00,2.465195770263671875e+02,2.515991210937500000e+02,2.515991210937500000e+02,-7.836958765983581543e-02,-6.052551269531250000e-01,-2.924804091453552246e-01,5.418219089508056641e+00,-4.788809642195701599e-02,4.567356882034800947e-06,8.493725210428237915e-02,-4.383489955216646194e-03,2.461324620526283979e-04,-8.234021067619323730e-01,-2.671905040740966797e+00,-2.937002420425415039e+00,1.000000000000000000e+00,3.051768057048320770e-02,0.000000000000000000e+00
1.896134853363037109e+00,2.465195770263671875e+02,2.515991210937500000e+02,2.515991210937500000e+02,-7.836958765983581543e-02,-6.052551269531250000e-01,-2.924804091453552246e-01,5.418219089508056641e+00,-4.788809642195701599e-02,4.567356882034800947e-06,8.493725210428237915e-02,-4.383489955216646194e-03,2.461324620526283979e-04,-8.234021067619323730e-01,-2.671905040740966797e+00,-2.937002420425415039e+00,1.000000000000000000e+00,3.051768057048320770e-02,0.000000000000000000e+00
1.896134853363037109e+00,2.465195770263671875e+02,2.515991210937500000e+02,2.515991210937500000e+02,-7.836958765983581543e-02,-6.052551269531250000e-01,-2.924804091453552246e-01,5.418219089508056641e+00,-4.788809642195701599e-02,4.567356882034800947e-06,8.493725210428237915e-02,-4.383489955216646194e-03,2.461324620526283979e-04,-8.234021067619323730e-01,-2.671905040740966797e+00,-2.937002420425415039e+00,1.000000000000000000e+00,3.051768057048320770e-02,0.000000000000000000e+00
2.195794820785522461e+00,2.480305786132812500e+02,2.515895690917968750e+02,2.515895690917968750e+02,-1.170626059174537659e-01,-5.050658434629440308e-02,1.586528681218624115e-02,5.716966629028320312e+00,-2.268414944410324097e-02,1.118496493290876970e-05,8.119752258062362671e-02,2.528196573257446289e-01,-1.917038025567308068e-04,-1.126381993293762207e+00,2.296080350875854492e+00,5.915375709533691406e+00,1.000000000000000000e+00,2.557201124727725983e-02,0.000000000000000000e+00
2.195794820785522461e+00,2.480305786132812500e+02,2.515895690917968750e+02,2.515895690917968750e+02,-1.170626059174537659e-01,-5.050658434629440308e-02,1.586528681218624115e-02,5.716966629028320312e+00,-2.268414944410324097e-02,1.118496493290876970e-05,8.119752258062362671e-02,2.528196573257446289e-01,-1.917038025567308068e-04,-1.126381993293762207e+00,2.296080350875854492e+00,5.915375709533691406e+00,1.000000000000000000e+00,2.557201124727725983e-02,0.000000000000000000e+00
2.195794820785522461e+00,2.480305786132812500e+02,2.515895690917968750e+02,2.515895690917968750e+02,-1.170626059174537659e-01,-5.050658434629440308e-02,1.586528681218624115e-02,5.716966629028320312e+00,-2.268414944410324097e-02,1.118496493290876970e-05,8.119752258062362671e-02,2.528196573257446289e-01,-1.917038025567308068e-04,-1.126381993293762207e+00,2.296080350875854492e+00,5.915375709533691406e+00,1.000000000000000000e+00,2.557201124727725983e-02,0.000000000000000000e+00
2.195794820785522461e+00,2.480305786132812500e+02,2.515895690917968750e+02,2.515895690917968750e+02,-1.170626059174537659e-01,-5.050658434629440308e-02,1.586528681218624115e-02,5.716966629028320312e+00,-2.268414944410324097e-02,1.118496493290876970e-05,8.119752258062362671e-02,2.528196573257446289e-01,-1.917038025567308068e-04,-1.126381993293762207e+00,2.296080350875854492e+00,5.915375709533691406e+00,1.000000000000000000e+00,2.557201124727725983e-02,0.000000000000000000e+00
2.195794820785522461e+00,2.480305786132812500e+02,2.515895690917968750e+02,2.515895690917968750e+02,-1.170626059174537659e-01,-5.050658434629440308e-02,1.586528681218624115e-02,5.716966629028320312e+00,-2.268414944410324097e-02,1.118496493290876970e-05,8.119752258062362671e-02,2.528196573257446289e-01,-1.917038025567308068e-04,-1.126381993293762207e+00,2.296080350875854492e+00,5.915375709533691406e+00,1.000000000000000000e+00,2.557201124727725983e-02,0.000000000000000000e+00
2.195794820785522461e+00,2.480305786132812500e+02,2.515895690917968750e+02,2.515895690917968750e+02,-1.170626059174537659e-01,-5.050658434629440308e-02,1.586528681218624115e-02,5.716966629028320312e+00,-2.268414944410324097e-02,1.118496493290876970e-05,8.119752258062362671e-02,2.528196573257446289e-01,-1.917038025567308068e-04,-1.126381993293762207e+00,2.296080350875854492e+00,5.915375709533691406e+00,1.000000000000000000e+00,2.557201124727725983e-02,0.000000000000000000e+00
2.195794820785522461e+00,2.480305786132812500e+02,2.515895690917968750e+02,2.515895690917968750e+02,-1.170626059174537659e-01,-5.050658434629440308e-02,1.586528681218624115e-02,5.716966629028320312e+00,-2.268414944410324097e-02,1.118496493290876970e-05,8.119752258062362671e-02,2.528196573257446289e-01,-1.917038025567308068e-04,-1.126381993293762207e+00,2.296080350875854492e+00,5.915375709533691406e+00,1.000000000000000000e+00,2.557201124727725983e-02,0.000000000000000000e+00
2.195794820785522461e+00,2.480305786132812500e+02,2.515895690917968750e+02,2.515895690917968750e+02,-1.170626059174537659e-01,-5.050658434629440308e-02,1.586528681218624115e-02,5.716966629028320312e+00,-2.268414944410324097e-02,1.118496493290876970e-05,8.119752258062362671e-02,2.528196573257446289e-01,-1.917038025567308068e-04,-1.126381993293762207e+00,2.296080350875854492e+00,5.915375709533691406e+00,1.000000000000000000e+00,2.557201124727725983e-02,0.000000000000000000e+00
2.195794820785522461e+00,2.480305786132812500e+02,2.515895690917968750e+02,2.515895690917968750e+02,-1.170626059174537659e-01,-5.050658434629440308e-02,1.586528681218624115e-02,5.716966629028320312e+00,-2.268414944410324097e-02,1.118496493290876970e-05,8.119752258062362671e-02,2.528196573257446289e-01,-1.917038025567308068e-04,-1.126381993293762207e+00,2.296080350875854492e+00,5.915375709533691406e+00,1.000000000000000000e+00,2.557201124727725983e-02,0.000000000000000000e+00
2.195794820785522461e+00,2.480305786132812500e+02,2.515895690917968750e+02,2.515895690917968750e+02,-1.170626059174537659e-01,-5.050658434629440308e-02,1.586528681218624115e-02,5.716966629028320312e+00,-2.268414944410324097e-02,1.118496493290876970e-05,8.119752258062362671e-02,2.528196573257446289e-01,-1.917038025567308068e-04,-1.126381993293762207e+00,2.296080350875854492e+00,5.915375709533691406e+00,1.000000000000000000e+00,2.557201124727725983e-02,0.000000000000000000e+00
2.374083757400512695e+00,2.483269805908203125e+02,2.515886688232421875e+02,2.515886688232421875e+02,-1.036344543099403381e-01,3.107187710702419281e-02,6.737288087606430054e-02,5.688978672027587891e+00,-1.667205430567264557e-02,6.836937245680019259e-06,-1.569808870553970337e-01,3.372107818722724915e-02,-2.438753472233656794e-05,-9.095059037208557129e-01,1.748284101486206055e+00,4.700180530548095703e+00,1.000000000000000000e+00,1.308066025376319885e-02,0.000000000000000000e+00
2.374083757400512695e+00,2.483269805908203125e+02,2.515886688232421875e+02,2.515886688232421875e+02,-1.036344543099403381e-01,3.107187710702419281e-02,6.737288087606430054e-02,5.688978672027587891e+00,-1.667205430567264557e-02,6.836937245680019259e-06,-1.569808870553970337e-01,3.372107818722724915e-02,-2.438753472233656794e-05,-9.095059037208557129e-01,1.748284101486206055e+00,4.700180530548095703e+00,1.000000000000000000e+00,1.308066025376319885e-02,0.000000000000000000e+00
2.374083757400512695e+00,2.483269805908203125e+02,2.515886688232421875e+02,2.515886688232421875e+02,-1.036344543099403381e-01,3.107187710702419281e-02,6.737288087606430054e-02,5.688978672027587891e+00,-1.667205430567264557e-02,6.836937245680019259e-06,-1.569808870553970337e-01,3.372107818722724915e-02,-2.438753472233656794e-05,-9.095059037208557129e-01,1.748284101486206055e+00,4.700180530548095703e+00,1.000000000000000000e+00,1.308066025376319885e-02,0.000000000000000000e+00
2.447860002517700195e+00,2.488822784423828125e+02,2.515870513916015625e+02,2.515870513916015625e+02,-6.658750772476196289e-02,8.286524564027786255e-03,1.253009140491485596e-01,5.695859432220458984e+00,-1.157855149358510971e-02,5.339686026673007291e-07,9.326525777578353882e-02,6.903987377882003784e-02,-8.543358126189559698e-05,-3.376358151435852051e-01,2.545889616012573242e+00,3.846634149551391602e+00,1.000000000000000000e+00,1.122602354735136032e-02,0.000000000000000000e+00
2.447860002517700195e+00,2.488822784423828125e+02,2.515870513916015625e+02,2.515870513916015625e+02,-6.658750772476196289e-02,8.286524564027786255e-03,1.253009140491485596e-01,5.695859432220458984e+00,-1.157855149358510971e-02,5.339686026673007291e-07,9.326525777578353882e-02,6.903987377882003784e-02,-8.543358126189559698e-05,-3.376358151435852051e-01,2.545889616012573242e+00,3.846634149551391602e+00,1.000000000000000000e+00,1.122602354735136032e-02,0.000000000000000000e+00
2.500878810882568359e+00,2.492917785644531250e+02,2.515861053466796875e+02,2.515861053466796875e+02,-3.988830372691154480e-02,-5.441283807158470154e-02,1.374402940273284912e-01,5.450566768646240234e+00,-7.569687906652688980e-03,-6.445886356232222170e-06,-4.626521587371826172e+00,7.561209797859191895e-02,-1.316486595897004008e-04,-5.531689897179603577e-02,-2.254445552825927734e+00,-3.995151519775390625e+00,1.000000000000000000e+00,1.512237917631864548e-02,0.000000000000000000e+00
2.500878810882568359e+00,2.492917785644531250e+02,2.515861053466796875e+02,2.515861053466796875e+02,-3.988830372691154480e-02,-5.441283807158470154e-02,1.374402940273284912e-01,5.450566768646240234e+00,-7.569687906652688980e-03,-6.445886356232222170e-06,-4.626521587371826172e+00,7.561209797859191895e-02,-1.316486595897004008e-04,-5.531689897179603577e-02,-2.254445552825927734e+00,-3.995151519775390625e+00,1.000000000000000000e+00,1.512237917631864548e-02,0.000000000000000000e+00
2.560195446014404297e+00,2.495864410400390625e+02,2.515860137939453125e+02,2.515860137939453125e+02,-3.228630125522613525e-02,3.391480771824717522e-03,1.373306512832641602e-01,5.443679809570312500e+00,-4.062161315232515335e-03,-7.876305062382016331e-06,-1.161050200462341309e-01,5.913225933909416199e-02,-2.411496643617283553e-05,3.746821358799934387e-02,-2.201430797576904297e+00,-1.962777733802795410e+00,1.000000000000000000e+00,1.973155327141284943e-02,0.000000000000000000e+00
2.560195446014404297e+00,2.495864410400390625e+02,2.515860137939453125e+02,2.515860137939453125e+02,-3.228630125522613525e-02,3.391480771824717522e-03,1.373306512832641602e-01,5.443679809570312500e+00,-4.062161315232515335e-03,-7.876305062382016331e-06,-1.161050200462341309e-01,5.913225933909416199e-02,-2.411496643617283553e-05,3.746821358799934387e-02,-2.201430797576904297e+00,-1.962777733802795410e+00,1.000000000000000000e+00,1.973155327141284943e-02,0.000000000000000000e+00
2.560195446014404297e+00,2.495864410400390625e+02,2.515860137939453125e+02,2.515860137939453125e+02,-3.228630125522613525e-02,3.391480771824717522e-03,1.373306512832641602e-01,5.443679809570312500e+00,-4.062161315232515335e-03,-7.876305062382016331e-06,-1.161050200462341309e-01,5.913225933909416199e-02,-2.411496643617283553e-05,3.746821358799934387e-02,-2.201430797576904297e+00,-1.962777733802795410e+00,1.000000000000000000e+00,1.973155327141284943e-02,0.000000000000000000e+00
2.618730545043945312e+00,2.499168548583984375e+02,2.515862884521484375e+02,2.515862884521484375e+02,-3.677373751997947693e-02,1.067107096314430237e-01,1.327105313539505005e-01,5.446012973785400391e+00,-1.854123111115768552e-04,-9.420904461876489222e-06,3.985923528671264648e-02,6.622947752475738525e-02,-2.638757541717495769e-05,1.006668135523796082e-01,-2.280755043029785156e+00,-2.361534357070922852e+00,1.000000000000000000e+00,2.021051011979579926e-02,0.000000000000000000e+00
2.618730545043945312e+00,2.499168548583984375e+02,2.515862884521484375e+02,2.515862884521484375e+02,-3.677373751997947693e-02,1.067107096314430237e-01,1.327105313539505005e-01,5.446012973785400391e+00,-1.854123111115768552e-04,-9.420904461876489222e-06,3.985923528671264648e-02,6.622947752475738525e-02,-2.638757541717495769e-05,1.006668135523796082e-01,-2.280755043029785156e+00,-2.361534357070922852e+00,1.000000000000000000e+00,2.021051011979579926e-02,0.000000000000000000e+00
2.677334070205688477e+00,2.502429504394531250e+02,2.515865783691406250e+02,2.515865783691406250e+02,-3.945799916982650757e-02,1.560408324003219604e-01,1.230612695217132568e-01,5.448622226715087891e+00,1.451365416869521141e-03,-7.914338311820756644e-06,4.452382028102874756e-02,2.792968042194843292e-02,2.570777360233478248e-05,2.181695699691772461e-01,-2.271270751953125000e+00,-3.471855878829956055e+00,1.000000000000000000e+00,7.989398203790187836e-03,0.000000000000000000e+00
2.677334070205688477e+00,2.502429504394531250e+02,2.515865783691406250e+02,2.515865783691406250e+02,-3.945799916982650757e-02,1.560408324003219604e-01,1.230612695217132568e-01,5.448622226715087891e+00,1.451365416869521141e-03,-7.914338311820756644e-06,4.452382028102874756e-02,2.792968042194843292e-02,2.570777360233478248e-05,2.181695699691772461e-01,-2.271270751953125000e+00,-3.471855878829956055e+00,1.000000000000000000e+00,7.989398203790187836e-03,0.000000000000000000e+00
2.677334070205688477e+00,2.502429504394531250e+02,2.515865783691406250e+02,2.515865783691406250e+02,-3.945799916982650757e-02,1.560408324003219604e-01,1.230612695217132568e-01,5.448622226715087891e+00,1.451365416869521141e-03,-7.914338311820756644e-06,4.452382028102874756e-02,2.792968042194843292e-02,2.570777360233478248e-05,2.181695699691772461e-01,-2.271270751953125000e+00,-3.471855878829956055e+00,1.000000000000000000e+00,7.989398203790187836e-03,0.000000000000000000e+00
2.677334070205688477e+00,2.505695648193359375e+02,2.515867919921875000e+02,2.515867919921875000e+02,-4.205347225069999695e-02,1.527484804391860962e-01,1.091415807604789734e-01,5.451178073883056641e+00,3.288850188255310059e-03,-5.053733275417471305e-06,3.289766609668731689e-02,2.365124225616455078e-02,3.682036549434997141e-05,2.692634463310241699e-01,-2.277958154678344727e+00,-4.264973163604736328e+00,1.000000000000000000e+00,6.947447080165147781e-03,0.000000000000000000e+00
2.755024909973144531e+00,2.505695648193359375e+02,2.515867919921875000e+02,2.515867919921875000e+02,-4.205347225069999695e-02,1.527484804391860962e-01,1.091415807604789734e-01,5.451178073883056641e+00,3.288850188255310059e-03,-5.053733275417471305e-06,3.289766609668731689e-02,2.365124225616455078e-02,3.682036549434997141e-05,2.692634463310241699e-01,-2.277958154678344727e+00,-4.264973163604736328e+00,1.000000000000000000e+00,6.947447080165147781e-03,0.000000000000000000e+00
2.755024909973144531e+00,2.505695648193359375e+02,2.515867919921875000e+02,2.515867919921875000e+02,-4.205347225069999695e-02,1.527484804391860962e-01,1.091415807604789734e-01,5.451178073883056641e+00,3.288850188255310059e-03,-5.053733275417471305e-06,3.289766609668731689e-02,2.365124225616455078e-02,3.682036549434997141e-05,2.692634463310241699e-01,-2.277958154678344727e+00,-4.264973163604736328e+00,1.000000000000000000e+00,6.947447080165147781e-03,0.000000000000000000e+00
2.755024909973144531e+00,2.505695648193359375e+02,2.515867919921875000e+02,2.515867919921875000e+02,-4.205347225069999695e-02,1.527484804391860962e-01,1.091415807604789734e-01,5.451178073883056641e+00,3.288850188255310059e-03,-5.053733275417471305e-06,3.289766609668731689e-02,2.365124225616455078e-02,3.682036549434997141e-05,2.692634463310241699e-01,-2.277958154678344727e+00,-4.264973163604736328e+00,1.000000000000000000e+00,6.947447080165147781e-03,0.000000000000000000e+00
2.830169916152954102e+00,2.510053405761718750e+02,2.515873260498046875e+02,2.515873260498046875e+02,-8.816407620906829834e-02,1.774105727672576904e-01,8.717910200357437134e-02,5.718036174774169922e+00,5.271709524095058441e-03,-1.077484512279625051e-06,3.551241874694824219e+00,2.638710662722587585e-02,5.291434717946685851e-05,2.952612936496734619e-01,2.545572996139526367e+00,3.408658742904663086e+00,1.000000000000000000e+00,8.110017515718936920e-03,0.000000000000000000e+00
2.830169916152954102e+00,2.510053405761718750e+02,2.515873260498046875e+02,2.515873260498046875e+02,-8.816407620906829834e-02,1.774105727672576904e-01,8.717910200357437134e-02,5.718036174774169922e+00,5.271709524095058441e-03,-1.077484512279625051e-06,3.551241874694824219e+00,2.638710662722587585e-02,5.291434717946685851e-05,2.952612936496734619e-01,2.545572996139526367e+00,3.408658742904663086e+00,1.000000000000000000e+00,8.110017515718936920e-03,0.000000000000000000e+00
2.830169916152954102e+00,2.510053405761718750e+02,2.515873260498046875e+02,2.515873260498046875e+02,-8.816407620906829834e-02,1.774105727672576904e-01,8.717910200357437134e-02,5.718036174774169922e+00,5.271709524095058441e-03,-1.077484512279625051e-06,3.551241874694824219e+00,2.638710662722587585e-02,5.291434717946685851e-05,2.952612936496734619e-01,2.545572996139526367e+00,3.408658742904663086e+00,1.000000000000000000e+00,8.110017515718936920e-03,0.000000000000000000e+00
2.830169916152954102e+00,2.510053405761718750e+02,2.515873260498046875e+02,2.515873260498046875e+02,-8.816407620906829834e-02,1.774105727672576904e-01,8.717910200357437134e-02,5.718036174774169922e+00,5.271709524095058441e-03,-1.077484512279625051e-06,3.551241874694824219e+00,2.638710662722587585e-02,5.291434717946685851e-05,2.952612936496734619e-01,2.545572996139526367e+00,3.408658742904663086e+00,1.000000000000000000e+00,8.110017515718936920e-03,0.000000000000000000e+00
2.830169916152954102e+00,2.510053405761718750e+02,2.515873260498046875e+02,2.515873260498046875e+02,-8.816407620906829834e-02,1.774105727672576904e-01,8.717910200357437134e-02,5.718036174774169922e+00,5.271709524095058441e-03,-1.077484512279625051e-06,3.551241874694824219e+00,2.638710662722587585e-02,5.291434717946685851e-05,2.952612936496734619e-01,2.545572996139526367e+00,3.408658742904663086e+00,1.000000000000000000e+00,8.110017515718936920e-03,0.000000000000000000e+00
2.917726278305053711e+00,2.514238281250000000e+02,2.515873718261718750e+02,2.515873718261718750e+02,-5.767411366105079651e-02,5.393039062619209290e-02,6.347630918025970459e-02,5.467848777770996094e+00,4.839847330003976822e-03,3.385034915481810458e-06,-2.857443809509277344e+00,-4.932390525937080383e-03,5.096738823340274394e-05,3.315598964691162109e-01,-2.349491119384765625e+00,-5.009123802185058594e+00,1.000000000000000000e+00,9.719889611005783081e-03,0.000000000000000000e+00
