# Time,X,Y,Z,Roll,Pitch,Yaw,Vx,Vy,Vz,Ax,Ay,Az,Wx,Wy,Wz,Throttle,Steer,Brake
0.000000000000000000e+00,-2.296490783691406250e+02,2.401631164550781250e+02,2.401631164550781250e+02,1.178822293877601624e-01,-1.036071702837944031e-01,1.489968417445197701e-04,1.391221523284912109e+01,-2.518609166145324707e-02,-5.406569016486173496e-06,-2.135926783084869385e-01,-5.124589079059660435e-04,-1.741556116030551493e-05,-7.722250302322208881e-04,-6.182812899351119995e-02,-3.446144051849842072e-03,5.000000000000000000e-01,-1.425892151019070297e-05,0.000000000000000000e+00
1.045818328857421875e-01,-2.296490783691406250e+02,2.401631164550781250e+02,2.401631164550781250e+02,1.178822293877601624e-01,-1.036071702837944031e-01,1.489968417445197701e-04,1.391221523284912109e+01,-2.518609166145324707e-02,-5.406569016486173496e-06,-2.135926783084869385e-01,-5.124589079059660435e-04,-1.741556116030551493e-05,-7.722250302322208881e-04,-6.182812899351119995e-02,-3.446144051849842072e-03,5.000000000000000000e-01,-1.425892151019070297e-05,0.000000000000000000e+00
1.045818328857421875e-01,-2.296490783691406250e+02,2.401631164550781250e+02,2.401631164550781250e+02,1.178822293877601624e-01,-1.036071702837944031e-01,1.489968417445197701e-04,1.391221523284912109e+01,-2.518609166145324707e-02,-5.406569016486173496e-06,-2.135926783084869385e-01,-5.124589079059660435e-04,-1.741556116030551493e-05,-7.722250302322208881e-04,-6.182812899351119995e-02,-3.446144051849842072e-03,5.000000000000000000e-01,-1.425892151019070297e-05,0.000000000000000000e+00
1.045818328857421875e-01,-2.296490783691406250e+02,2.401631164550781250e+02,2.401631164550781250e+02,1.178822293877601624e-01,-1.036071702837944031e-01,1.489968417445197701e-04,1.391221523284912109e+01,-2.518609166145324707e-02,-5.406569016486173496e-06,-2.135926783084869385e-01,-5.124589079059660435e-04,-1.741556116030551493e-05,-7.722250302322208881e-04,-6.182812899351119995e-02,-3.446144051849842072e-03,5.000000000000000000e-01,-1.425892151019070297e-05,0.000000000000000000e+00
1.045818328857421875e-01,-2.296490783691406250e+02,2.401631164550781250e+02,2.401631164550781250e+02,1.178822293877601624e-01,-1.036071702837944031e-01,1.489968417445197701e-04,1.391221523284912109e+01,-2.518609166145324707e-02,-5.406569016486173496e-06,-2.135926783084869385e-01,-5.124589079059660435e-04,-1.741556116030551493e-05,-7.722250302322208881e-04,-6.182812899351119995e-02,-3.446144051849842072e-03,5.000000000000000000e-01,-1.425892151019070297e-05,0.000000000000000000e+00
1.045818328857421875e-01,-2.296490783691406250e+02,2.401631164550781250e+02,2.401631164550781250e+02,1.178822293877601624e-01,-1.036071702837944031e-01,1.489968417445197701e-04,1.391221523284912109e+01,-2.518609166145324707e-02,-5.406569016486173496e-06,-2.135926783084869385e-01,-5.124589079059660435e-04,-1.741556116030551493e-05,-7.722250302322208881e-04,-6.182812899351119995e-02,-3.446144051849842072e-03,5.000000000000000000e-01,-1.425892151019070297e-05,0.000000000000000000e+00
1.045818328857421875e-01,-2.282691192626953125e+02,2.401605987548828125e+02,2.401605987548828125e+02,6.913517415523529053e-02,-1.055908203125000000e-01,3.140274784527719021e-04,1.351555919647216797e+01,-2.466004155576229095e-02,3.241952072130516171e-06,-3.788178443908691406e+00,5.023928824812173843e-03,8.259584865299984813e-05,8.384191896766424179e-04,1.951639771461486816e+00,-6.023587659001350403e-02,5.000000000000000000e-01,-3.112182093900628388e-05,0.000000000000000000e+00
2.092907428741455078e-01,-2.282691192626953125e+02,2.401605987548828125e+02,2.401605987548828125e+02,6.913517415523529053e-02,-1.055908203125000000e-01,3.140274784527719021e-04,1.351555919647216797e+01,-2.466004155576229095e-02,3.241952072130516171e-06,-3.788178443908691406e+00,5.023928824812173843e-03,8.259584865299984813e-05,8.384191896766424179e-04,1.951639771461486816e+00,-6.023587659001350403e-02,5.000000000000000000e-01,-3.112182093900628388e-05,0.000000000000000000e+00
2.092907428741455078e-01,-2.282691192626953125e+02,2.401605987548828125e+02,2.401605987548828125e+02,6.913517415523529053e-02,-1.055908203125000000e-01,3.140274784527719021e-04,1.351555919647216797e+01,-2.466004155576229095e-02,3.241952072130516171e-06,-3.788178443908691406e+00,5.023928824812173843e-03,8.259584865299984813e-05,8.384191896766424179e-04,1.951639771461486816e+00,-6.023587659001350403e-02,5.000000000000000000e-01,-3.112182093900628388e-05,0.000000000000000000e+00
2.092907428741455078e-01,-2.282691192626953125e+02,2.401605987548828125e+02,2.401605987548828125e+02,6.913517415523529053e-02,-1.055908203125000000e-01,3.140274784527719021e-04,1.351555919647216797e+01,-2.466004155576229095e-02,3.241952072130516171e-06,-3.788178443908691406e+00,5.023928824812173843e-03,8.259584865299984813e-05,8.384191896766424179e-04,1.951639771461486816e+00,-6.023587659001350403e-02,5.000000000000000000e-01,-3.112182093900628388e-05,0.000000000000000000e+00
2.092907428741455078e-01,-2.282691192626953125e+02,2.401605987548828125e+02,2.401605987548828125e+02,6.913517415523529053e-02,-1.055908203125000000e-01,3.140274784527719021e-04,1.351555919647216797e+01,-2.466004155576229095e-02,3.241952072130516171e-06,-3.788178443908691406e+00,5.023928824812173843e-03,8.259584865299984813e-05,8.384191896766424179e-04,1.951639771461486816e+00,-6.023587659001350403e-02,5.000000000000000000e-01,-3.112182093900628388e-05,0.000000000000000000e+00
2.092907428741455078e-01,-2.269761810302734375e+02,2.401582946777343750e+02,2.401582946777343750e+02,-1.647031754255294800e-01,-1.154479756951332092e-01,1.028864877298474312e-03,1.259567260742187500e+01,-2.335973270237445831e-02,-8.619778782303910702e-06,-1.232784938812255859e+01,1.742607355117797852e-02,-1.589648454682901502e-04,-8.244425989687442780e-03,1.994385480880737305e+00,-1.108583360910415649e-01,1.000000000000000000e+00,2.244859933853149414e-05,0.000000000000000000e+00
2.839093208312988281e-01,-2.269761810302734375e+02,2.401582946777343750e+02,2.401582946777343750e+02,-1.647031754255294800e-01,-1.154479756951332092e-01,1.028864877298474312e-03,1.259567260742187500e+01,-2.335973270237445831e-02,-8.619778782303910702e-06,-1.232784938812255859e+01,1.742607355117797852e-02,-1.589648454682901502e-04,-8.244425989687442780e-03,1.994385480880737305e+00,-1.108583360910415649e-01,1.000000000000000000e+00,2.244859933853149414e-05,0.000000000000000000e+00
2.839093208312988281e-01,-2.269761810302734375e+02,2.401582946777343750e+02,2.401582946777343750e+02,-1.647031754255294800e-01,-1.154479756951332092e-01,1.028864877298474312e-03,1.259567260742187500e+01,-2.335973270237445831e-02,-8.619778782303910702e-06,-1.232784938812255859e+01,1.742607355117797852e-02,-1.589648454682901502e-04,-8.244425989687442780e-03,1.994385480880737305e+00,-1.108583360910415649e-01,1.000000000000000000e+00,2.244859933853149414e-05,0.000000000000000000e+00
2.839093208312988281e-01,-2.269761810302734375e+02,2.401582946777343750e+02,2.401582946777343750e+02,-1.647031754255294800e-01,-1.154479756951332092e-01,1.028864877298474312e-03,1.259567260742187500e+01,-2.335973270237445831e-02,-8.619778782303910702e-06,-1.232784938812255859e+01,1.742607355117797852e-02,-1.589648454682901502e-04,-8.244425989687442780e-03,1.994385480880737305e+00,-1.108583360910415649e-01,1.000000000000000000e+00,2.244859933853149414e-05,0.000000000000000000e+00
2.839093208312988281e-01,-2.269761810302734375e+02,2.401582946777343750e+02,2.401582946777343750e+02,-1.647031754255294800e-01,-1.154479756951332092e-01,1.028864877298474312e-03,1.259567260742187500e+01,-2.335973270237445831e-02,-8.619778782303910702e-06,-1.232784938812255859e+01,1.742607355117797852e-02,-1.589648454682901502e-04,-8.244425989687442780e-03,1.994385480880737305e+00,-1.108583360910415649e-01,1.000000000000000000e+00,2.244859933853149414e-05,0.000000000000000000e+00
3.569011688232421875e-01,-2.260623168945312500e+02,2.401566619873046875e+02,2.401566619873046875e+02,-2.728250622749328613e-01,-1.219482049345970154e-01,1.625523786060512066e-03,1.204809761047363281e+01,-2.263702079653739929e-02,-3.478484723018482327e-05,-7.501864910125732422e+00,9.901268407702445984e-03,-3.584656224120408297e-04,-7.844201289117336273e-03,1.159843325614929199e+00,-7.252257317304611206e-02,1.000000000000000000e+00,2.203901967732235789e-04,0.000000000000000000e+00
3.569011688232421875e-01,-2.260623168945312500e+02,2.401566619873046875e+02,2.401566619873046875e+02,-2.728250622749328613e-01,-1.219482049345970154e-01,1.625523786060512066e-03,1.204809761047363281e+01,-2.263702079653739929e-02,-3.478484723018482327e-05,-7.501864910125732422e+00,9.901268407702445984e-03,-3.584656224120408297e-04,-7.844201289117336273e-03,1.159843325614929199e+00,-7.252257317304611206e-02,1.000000000000000000e+00,2.203901967732235789e-04,0.000000000000000000e+00
3.569011688232421875e-01,-2.260623168945312500e+02,2.401566619873046875e+02,2.401566619873046875e+02,-2.728250622749328613e-01,-1.219482049345970154e-01,1.625523786060512066e-03,1.204809761047363281e+01,-2.263702079653739929e-02,-3.478484723018482327e-05,-7.501864910125732422e+00,9.901268407702445984e-03,-3.584656224120408297e-04,-7.844201289117336273e-03,1.159843325614929199e+00,-7.252257317304611206e-02,1.000000000000000000e+00,2.203901967732235789e-04,0.000000000000000000e+00
3.569011688232421875e-01,-2.260623168945312500e+02,2.401566619873046875e+02,2.401566619873046875e+02,-2.728250622749328613e-01,-1.219482049345970154e-01,1.625523786060512066e-03,1.204809761047363281e+01,-2.263702079653739929e-02,-3.478484723018482327e-05,-7.501864910125732422e+00,9.901268407702445984e-03,-3.584656224120408297e-04,-7.844201289117336273e-03,1.159843325614929199e+00,-7.252257317304611206e-02,1.000000000000000000e+00,2.203901967732235789e-04,0.000000000000000000e+00
4.765405654907226562e-01,-2.252023773193359375e+02,2.401550292968750000e+02,2.401550292968750000e+02,-3.218931257724761963e-01,-1.241455003619194031e-01,1.954943640157580376e-03,1.163414001464843750e+01,-2.198194898664951324e-02,-2.853930345736443996e-05,-3.460044145584106445e+00,5.475385580211877823e-03,5.220307139097712934e-05,-2.855830593034625053e-03,3.465531468391418457e-01,-6.770713254809379578e-03,1.000000000000000000e+00,3.885082842316478491e-04,0.000000000000000000e+00
4.765405654907226562e-01,-2.252023773193359375e+02,2.401550292968750000e+02,2.401550292968750000e+02,-3.218931257724761963e-01,-1.241455003619194031e-01,1.954943640157580376e-03,1.163414001464843750e+01,-2.198194898664951324e-02,-2.853930345736443996e-05,-3.460044145584106445e+00,5.475385580211877823e-03,5.220307139097712934e-05,-2.855830593034625053e-03,3.465531468391418457e-01,-6.770713254809379578e-03,1.000000000000000000e+00,3.885082842316478491e-04,0.000000000000000000e+00
4.765405654907226562e-01,-2.252023773193359375e+02,2.401550292968750000e+02,2.401550292968750000e+02,-3.218931257724761963e-01,-1.241455003619194031e-01,1.954943640157580376e-03,1.163414001464843750e+01,-2.198194898664951324e-02,-2.853930345736443996e-05,-3.460044145584106445e+00,5.475385580211877823e-03,5.220307139097712934e-05,-2.855830593034625053e-03,3.465531468391418457e-01,-6.770713254809379578e-03,1.000000000000000000e+00,3.885082842316478491e-04,0.000000000000000000e+00
4.765405654907226562e-01,-2.252023773193359375e+02,2.401550292968750000e+02,2.401550292968750000e+02,-3.218931257724761963e-01,-1.241455003619194031e-01,1.954943640157580376e-03,1.163414001464843750e+01,-2.198194898664951324e-02,-2.853930345736443996e-05,-3.460044145584106445e+00,5.475385580211877823e-03,5.220307139097712934e-05,-2.855830593034625053e-03,3.465531468391418457e-01,-6.770713254809379578e-03,1.000000000000000000e+00,3.885082842316478491e-04,0.000000000000000000e+00
4.765405654907226562e-01,-2.252023773193359375e+02,2.401550292968750000e+02,2.401550292968750000e+02,-3.218931257724761963e-01,-1.241455003619194031e-01,1.954943640157580376e-03,1.163414001464843750e+01,-2.198194898664951324e-02,-2.853930345736443996e-05,-3.460044145584106445e+00,5.475385580211877823e-03,5.220307139097712934e-05,-2.855830593034625053e-03,3.465531468391418457e-01,-6.770713254809379578e-03,1.000000000000000000e+00,3.885082842316478491e-04,0.000000000000000000e+00
4.765405654907226562e-01,-2.252023773193359375e+02,2.401550292968750000e+02,2.401550292968750000e+02,-3.218931257724761963e-01,-1.241455003619194031e-01,1.954943640157580376e-03,1.163414001464843750e+01,-2.198194898664951324e-02,-2.853930345736443996e-05,-3.460044145584106445e+00,5.475385580211877823e-03,5.220307139097712934e-05,-2.855830593034625053e-03,3.465531468391418457e-01,-6.770713254809379578e-03,1.000000000000000000e+00,3.885082842316478491e-04,0.000000000000000000e+00
4.765405654907226562e-01,-2.252023773193359375e+02,2.401550292968750000e+02,2.401550292968750000e+02,-3.218931257724761963e-01,-1.241455003619194031e-01,1.954943640157580376e-03,1.163414001464843750e+01,-2.198194898664951324e-02,-2.853930345736443996e-05,-3.460044145584106445e+00,5.475385580211877823e-03,5.220307139097712934e-05,-2.855830593034625053e-03,3.465531468391418457e-01,-6.770713254809379578e-03,1.000000000000000000e+00,3.885082842316478491e-04,0.000000000000000000e+00
6.200885772705078125e-01,-2.240606842041015625e+02,2.401528625488281250e+02,2.401528625488281250e+02,-3.006580770015716553e-01,-1.211852952837944031e-01,1.875094254501163960e-03,1.129221820831298828e+01,-2.131845988333225250e-02,1.283431629417464137e-05,-2.381933450698852539e+00,4.622071050107479095e-03,2.882214903365820646e-04,2.970509696751832962e-03,-5.649254322052001953e-01,5.000723898410797119e-02,1.000000000000000000e+00,4.183946002740412951e-04,0.000000000000000000e+00
6.200885772705078125e-01,-2.240606842041015625e+02,2.401528625488281250e+02,2.401528625488281250e+02,-3.006580770015716553e-01,-1.211852952837944031e-01,1.875094254501163960e-03,1.129221820831298828e+01,-2.131845988333225250e-02,1.283431629417464137e-05,-2.381933450698852539e+00,4.622071050107479095e-03,2.882214903365820646e-04,2.970509696751832962e-03,-5.649254322052001953e-01,5.000723898410797119e-02,1.000000000000000000e+00,4.183946002740412951e-04,0.000000000000000000e+00
6.200885772705078125e-01,-2.240606842041015625e+02,2.401528625488281250e+02,2.401528625488281250e+02,-3.006580770015716553e-01,-1.211852952837944031e-01,1.875094254501163960e-03,1.129221820831298828e+01,-2.131845988333225250e-02,1.283431629417464137e-05,-2.381933450698852539e+00,4.622071050107479095e-03,2.882214903365820646e-04,2.970509696751832962e-03,-5.649254322052001953e-01,5.000723898410797119e-02,1.000000000000000000e+00,4.183946002740412951e-04,0.000000000000000000e+00
6.200885772705078125e-01,-2.240606842041015625e+02,2.401528625488281250e+02,2.401528625488281250e+02,-3.006580770015716553e-01,-1.211852952837944031e-01,1.875094254501163960e-03,1.129221820831298828e+01,-2.131845988333225250e-02,1.283431629417464137e-05,-2.381933450698852539e+00,4.622071050107479095e-03,2.882214903365820646e-04,2.970509696751832962e-03,-5.649254322052001953e-01,5.000723898410797119e-02,1.000000000000000000e+00,4.183946002740412951e-04,0.000000000000000000e+00
6.200885772705078125e-01,-2.240606842041015625e+02,2.401528625488281250e+02,2.401528625488281250e+02,-3.006580770015716553e-01,-1.211852952837944031e-01,1.875094254501163960e-03,1.129221820831298828e+01,-2.131845988333225250e-02,1.283431629417464137e-05,-2.381933450698852539e+00,4.622071050107479095e-03,2.882214903365820646e-04,2.970509696751832962e-03,-5.649254322052001953e-01,5.000723898410797119e-02,1.000000000000000000e+00,4.183946002740412951e-04,0.000000000000000000e+00
6.200885772705078125e-01,-2.240606842041015625e+02,2.401528625488281250e+02,2.401528625488281250e+02,-3.006580770015716553e-01,-1.211852952837944031e-01,1.875094254501163960e-03,1.129221820831298828e+01,-2.131845988333225250e-02,1.283431629417464137e-05,-2.381933450698852539e+00,4.622071050107479095e-03,2.882214903365820646e-04,2.970509696751832962e-03,-5.649254322052001953e-01,5.000723898410797119e-02,1.000000000000000000e+00,4.183946002740412951e-04,0.000000000000000000e+00
7.946169376373291016e-01,-2.229392547607421875e+02,2.401507720947265625e+02,2.401507720947265625e+02,-2.120022326707839966e-01,-1.139831393957138062e-01,8.427787106484174728e-04,1.117044258117675781e+01,-2.026538178324699402e-02,4.706551771960221231e-05,-6.977412104606628418e-01,6.033850833773612976e-03,1.961354573722928762e-04,1.144435442984104156e-02,-1.060652494430541992e+00,8.463958650827407837e-02,1.000000000000000000e+00,4.396807926241308451e-04,0.000000000000000000e+00
7.946169376373291016e-01,-2.229392547607421875e+02,2.401507720947265625e+02,2.401507720947265625e+02,-2.120022326707839966e-01,-1.139831393957138062e-01,8.427787106484174728e-04,1.117044258117675781e+01,-2.026538178324699402e-02,4.706551771960221231e-05,-6.977412104606628418e-01,6.033850833773612976e-03,1.961354573722928762e-04,1.144435442984104156e-02,-1.060652494430541992e+00,8.463958650827407837e-02,1.000000000000000000e+00,4.396807926241308451e-04,0.000000000000000000e+00
7.946169376373291016e-01,-2.229392547607421875e+02,2.401507720947265625e+02,2.401507720947265625e+02,-2.120022326707839966e-01,-1.139831393957138062e-01,8.427787106484174728e-04,1.117044258117675781e+01,-2.026538178324699402e-02,4.706551771960221231e-05,-6.977412104606628418e-01,6.033850833773612976e-03,1.961354573722928762e-04,1.144435442984104156e-02,-1.060652494430541992e+00,8.463958650827407837e-02,1.000000000000000000e+00,4.396807926241308451e-04,0.000000000000000000e+00
8.783230781555175781e-01,-2.218197937011718750e+02,2.401486206054687500e+02,2.401486206054687500e+02,-9.484399855136871338e-02,-1.105346381664276123e-01,1.336320186965167522e-03,1.121028327941894531e+01,-2.147747389972209930e-02,3.989508331869728863e-05,4.759590923786163330e-01,-1.448032539337873459e-02,-8.566198812332004309e-05,-4.331519361585378647e-03,-1.208636641502380371e+00,1.893744245171546936e-02,1.000000000000000000e+00,0.000000000000000000e+00,0.000000000000000000e+00
8.783230781555175781e-01,-2.218197937011718750e+02,2.401486206054687500e+02,2.401486206054687500e+02,-9.484399855136871338e-02,-1.105346381664276123e-01,1.336320186965167522e-03,1.121028327941894531e+01,-2.147747389972209930e-02,3.989508331869728863e-05,4.759590923786163330e-01,-1.448032539337873459e-02,-8.566198812332004309e-05,-4.331519361585378647e-03,-1.208636641502380371e+00,1.893744245171546936e-02,1.000000000000000000e+00,0.000000000000000000e+00,0.000000000000000000e+00
8.783230781555175781e-01,-2.218197937011718750e+02,2.401486206054687500e+02,2.401486206054687500e+02,-9.484399855136871338e-02,-1.105346381664276123e-01,1.336320186965167522e-03,1.121028327941894531e+01,-2.147747389972209930e-02,3.989508331869728863e-05,4.759590923786163330e-01,-1.448032539337873459e-02,-8.566198812332004309e-05,-4.331519361585378647e-03,-1.208636641502380371e+00,1.893744245171546936e-02,1.000000000000000000e+00,0.000000000000000000e+00,0.000000000000000000e+00
9.483780860900878906e-01,-2.208753051757812500e+02,2.401468505859375000e+02,2.401468505859375000e+02,1.611924497410655022e-03,-1.064453125000000000e-01,1.457272883271798491e-04,1.132496166229248047e+01,-2.044344879686832428e-02,1.815542600525077432e-05,1.636976242065429688e+00,1.476018782705068588e-02,-3.103226772509515285e-04,1.463899016380310059e-02,-1.142620682716369629e+00,6.228953599929809570e-02,1.000000000000000000e+00,2.484736614860594273e-04,0.000000000000000000e+00
9.483780860900878906e-01,-2.208753051757812500e+02,2.401468505859375000e+02,2.401468505859375000e+02,1.611924497410655022e-03,-1.064453125000000000e-01,1.457272883271798491e-04,1.132496166229248047e+01,-2.044344879686832428e-02,1.815542600525077432e-05,1.636976242065429688e+00,1.476018782705068588e-02,-3.103226772509515285e-04,1.463899016380310059e-02,-1.142620682716369629e+00,6.228953599929809570e-02,1.000000000000000000e+00,2.484736614860594273e-04,0.000000000000000000e+00
9.483780860900878906e-01,-2.208753051757812500e+02,2.401468505859375000e+02,2.401468505859375000e+02,1.611924497410655022e-03,-1.064453125000000000e-01,1.457272883271798491e-04,1.132496166229248047e+01,-2.044344879686832428e-02,1.815542600525077432e-05,1.636976242065429688e+00,1.476018782705068588e-02,-3.103226772509515285e-04,1.463899016380310059e-02,-1.142620682716369629e+00,6.228953599929809570e-02,1.000000000000000000e+00,2.484736614860594273e-04,0.000000000000000000e+00
9.483780860900878906e-01,-2.208753051757812500e+02,2.401468505859375000e+02,2.401468505859375000e+02,1.611924497410655022e-03,-1.064453125000000000e-01,1.457272883271798491e-04,1.132496166229248047e+01,-2.044344879686832428e-02,1.815542600525077432e-05,1.636976242065429688e+00,1.476018782705068588e-02,-3.103226772509515285e-04,1.463899016380310059e-02,-1.142620682716369629e+00,6.228953599929809570e-02,1.000000000000000000e+00,2.484736614860594273e-04,0.000000000000000000e+00
9.483780860900878906e-01,-2.200757598876953125e+02,2.401453857421875000e+02,2.401453857421875000e+02,7.798026502132415771e-02,-1.023254245519638062e-01,-6.408691406250000000e-04,1.145832633972167969e+01,-2.024571783840656281e-02,-4.643743068299954757e-06,1.692466378211975098e+00,2.509307581931352615e-03,-2.893331984523683786e-04,8.229186758399009705e-03,-1.047008037567138672e+00,5.825123935937881470e-02,1.000000000000000000e+00,1.459323975723236799e-04,0.000000000000000000e+00
1.027177095413208008e+00,-2.200757598876953125e+02,2.401453857421875000e+02,2.401453857421875000e+02,7.798026502132415771e-02,-1.023254245519638062e-01,-6.408691406250000000e-04,1.145832633972167969e+01,-2.024571783840656281e-02,-4.643743068299954757e-06,1.692466378211975098e+00,2.509307581931352615e-03,-2.893331984523683786e-04,8.229186758399009705e-03,-1.047008037567138672e+00,5.825123935937881470e-02,1.000000000000000000e+00,1.459323975723236799e-04,0.000000000000000000e+00
1.027177095413208008e+00,-2.200757598876953125e+02,2.401453857421875000e+02,2.401453857421875000e+02,7.798026502132415771e-02,-1.023254245519638062e-01,-6.408691406250000000e-04,1.145832633972167969e+01,-2.024571783840656281e-02,-4.643743068299954757e-06,1.692466378211975098e+00,2.509307581931352615e-03,-2.893331984523683786e-04,8.229186758399009705e-03,-1.047008037567138672e+00,5.825123935937881470e-02,1.000000000000000000e+00,1.459323975723236799e-04,0.000000000000000000e+00
1.095043420791625977e+00,-2.191638183593750000e+02,2.401437835693359375e+02,2.401437835693359375e+02,1.552023738622665405e-01,-9.808349609375000000e-02,-1.281738397665321827e-03,1.163686847686767578e+01,-2.000269852578639984e-02,-2.688937820494174957e-05,2.630791187286376953e+00,3.580852644518017769e-03,-3.277860523667186499e-04,6.516337860375642776e-03,-9.079930186271667480e-01,5.263868346810340881e-02,1.000000000000000000e+00,1.004175428533926606e-04,0.000000000000000000e+00
1.095043420791625977e+00,-2.191638183593750000e+02,2.401437835693359375e+02,2.401437835693359375e+02,1.552023738622665405e-01,-9.808349609375000000e-02,-1.281738397665321827e-03,1.163686847686767578e+01,-2.000269852578639984e-02,-2.688937820494174957e-05,2.630791187286376953e+00,3.580852644518017769e-03,-3.277860523667186499e-04,6.516337860375642776e-03,-9.079930186271667480e-01,5.263868346810340881e-02,1.000000000000000000e+00,1.004175428533926606e-04,0.000000000000000000e+00
1.095043420791625977e+00,-2.191638183593750000e+02,2.401437835693359375e+02,2.401437835693359375e+02,1.552023738622665405e-01,-9.808349609375000000e-02,-1.281738397665321827e-03,1.163686847686767578e+01,-2.000269852578639984e-02,-2.688937820494174957e-05,2.630791187286376953e+00,3.580852644518017769e-03,-3.277860523667186499e-04,6.516337860375642776e-03,-9.079930186271667480e-01,5.263868346810340881e-02,1.000000000000000000e+00,1.004175428533926606e-04,0.000000000000000000e+00
1.095043420791625977e+00,-2.191638183593750000e+02,2.401437835693359375e+02,2.401437835693359375e+02,1.552023738622665405e-01,-9.808349609375000000e-02,-1.281738397665321827e-03,1.163686847686767578e+01,-2.000269852578639984e-02,-2.688937820494174957e-05,2.630791187286376953e+00,3.580852644518017769e-03,-3.277860523667186499e-04,6.516337860375642776e-03,-9.079930186271667480e-01,5.263868346810340881e-02,1.000000000000000000e+00,1.004175428533926606e-04,0.000000000000000000e+00
1.168572425842285156e+00,-2.183666381835937500e+02,2.401424102783203125e+02,2.401424102783203125e+02,2.097141146659851074e-01,-9.506224840879440308e-02,-1.586913946084678173e-03,1.180865573883056641e+01,-1.997301541268825531e-02,-3.704521805047988892e-05,2.336319684982299805e+00,4.036925674881786108e-04,-1.381201873300597072e-04,3.057264955714344978e-03,-7.635076045989990234e-01,4.186056926846504211e-02,1.000000000000000000e+00,2.720739212236367166e-05,0.000000000000000000e+00
1.168572425842285156e+00,-2.183666381835937500e+02,2.401424102783203125e+02,2.401424102783203125e+02,2.097141146659851074e-01,-9.506224840879440308e-02,-1.586913946084678173e-03,1.180865573883056641e+01,-1.997301541268825531e-02,-3.704521805047988892e-05,2.336319684982299805e+00,4.036925674881786108e-04,-1.381201873300597072e-04,3.057264955714344978e-03,-7.635076045989990234e-01,4.186056926846504211e-02,1.000000000000000000e+00,2.720739212236367166e-05,0.000000000000000000e+00
1.168572425842285156e+00,-2.183666381835937500e+02,2.401424102783203125e+02,2.401424102783203125e+02,2.097141146659851074e-01,-9.506224840879440308e-02,-1.586913946084678173e-03,1.180865573883056641e+01,-1.997301541268825531e-02,-3.704521805047988892e-05,2.336319684982299805e+00,4.036925674881786108e-04,-1.381201873300597072e-04,3.057264955714344978e-03,-7.635076045989990234e-01,4.186056926846504211e-02,1.000000000000000000e+00,2.720739212236367166e-05,0.000000000000000000e+00
1.168572425842285156e+00,-2.183666381835937500e+02,2.401424102783203125e+02,2.401424102783203125e+02,2.097141146659851074e-01,-9.506224840879440308e-02,-1.586913946084678173e-03,1.180865573883056641e+01,-1.997301541268825531e-02,-3.704521805047988892e-05,2.336319684982299805e+00,4.036925674881786108e-04,-1.381201873300597072e-04,3.057264955714344978e-03,-7.635076045989990234e-01,4.186056926846504211e-02,1.000000000000000000e+00,2.720739212236367166e-05,0.000000000000000000e+00
1.168572425842285156e+00,-2.174892730712890625e+02,2.401409301757812500e+02,2.401409301757812500e+02,2.605853676795959473e-01,-9.304808825254440308e-02,-1.586913946084678173e-03,1.200290107727050781e+01,-2.028467319905757904e-02,-4.400559555506333709e-05,2.588265895843505859e+00,-4.152754787355661392e-03,-9.274512558476999402e-05,-1.607698039151728153e-03,-6.177812814712524414e-01,2.066493034362792969e-02,1.000000000000000000e+00,-8.179513679351657629e-05,0.000000000000000000e+00
1.243620872497558594e+00,-2.174892730712890625e+02,2.401409301757812500e+02,2.401409301757812500e+02,2.605853676795959473e-01,-9.304808825254440308e-02,-1.586913946084678173e-03,1.200290107727050781e+01,-2.028467319905757904e-02,-4.400559555506333709e-05,2.588265895843505859e+00,-4.152754787355661392e-03,-9.274512558476999402e-05,-1.607698039151728153e-03,-6.177812814712524414e-01,2.066493034362792969e-02,1.000000000000000000e+00,-8.179513679351657629e-05,0.000000000000000000e+00
1.243620872497558594e+00,-2.174892730712890625e+02,2.401409301757812500e+02,2.401409301757812500e+02,2.605853676795959473e-01,-9.304808825254440308e-02,-1.586913946084678173e-03,1.200290107727050781e+01,-2.028467319905757904e-02,-4.400559555506333709e-05,2.588265895843505859e+00,-4.152754787355661392e-03,-9.274512558476999402e-05,-1.607698039151728153e-03,-6.177812814712524414e-01,2.066493034362792969e-02,1.000000000000000000e+00,-8.179513679351657629e-05,0.000000000000000000e+00
1.243620872497558594e+00,-2.174892730712890625e+02,2.401409301757812500e+02,2.401409301757812500e+02,2.605853676795959473e-01,-9.304808825254440308e-02,-1.586913946084678173e-03,1.200290107727050781e+01,-2.028467319905757904e-02,-4.400559555506333709e-05,2.588265895843505859e+00,-4.152754787355661392e-03,-9.274512558476999402e-05,-1.607698039151728153e-03,-6.177812814712524414e-01,2.066493034362792969e-02,1.000000000000000000e+00,-8.179513679351657629e-05,0.000000000000000000e+00
1.312042951583862305e+00,-2.165799102783203125e+02,2.401393737792968750e+02,2.401393737792968750e+02,2.968878149986267090e-01,-9.255981445312500000e-02,-1.312255859375000000e-03,1.218288326263427734e+01,-2.072205767035484314e-02,-4.310914300731383264e-05,2.630469560623168945e+00,-6.392446346580982208e-03,1.310180232394486666e-05,-3.907851874828338623e-03,-3.930921554565429688e-01,-1.674884515523444861e-05,1.000000000000000000e+00,-1.534073526272550225e-04,0.000000000000000000e+00
1.312042951583862305e+00,-2.165799102783203125e+02,2.401393737792968750e+02,2.401393737792968750e+02,2.968878149986267090e-01,-9.255981445312500000e-02,-1.312255859375000000e-03,1.218288326263427734e+01,-2.072205767035484314e-02,-4.310914300731383264e-05,2.630469560623168945e+00,-6.392446346580982208e-03,1.310180232394486666e-05,-3.907851874828338623e-03,-3.930921554565429688e-01,-1.674884515523444861e-05,1.000000000000000000e+00,-1.534073526272550225e-04,0.000000000000000000e+00
1.312042951583862305e+00,-2.157400665283203125e+02,2.401379089355468750e+02,2.401379089355468750e+02,3.159372210502624512e-01,-9.310912340879440308e-02,-1.037597423419356346e-03,1.232897186279296875e+01,-2.113296464085578918e-02,-3.410825956962071359e-05,2.055084705352783203e+00,-5.780387204140424728e-03,1.266189065063372254e-04,-4.411954898387193680e-03,-2.149688005447387695e-01,-1.193483732640743256e-02,1.000000000000000000e+00,-1.795454736566171050e-04,0.000000000000000000e+00
1.383129358291625977e+00,-2.157400665283203125e+02,2.401379089355468750e+02,2.401379089355468750e+02,3.159372210502624512e-01,-9.310912340879440308e-02,-1.037597423419356346e-03,1.232897186279296875e+01,-2.113296464085578918e-02,-3.410825956962071359e-05,2.055084705352783203e+00,-5.780387204140424728e-03,1.266189065063372254e-04,-4.411954898387193680e-03,-2.149688005447387695e-01,-1.193483732640743256e-02,1.000000000000000000e+00,-1.795454736566171050e-04,0.000000000000000000e+00
1.383129358291625977e+00,-2.157400665283203125e+02,2.401379089355468750e+02,2.401379089355468750e+02,3.159372210502624512e-01,-9.310912340879440308e-02,-1.037597423419356346e-03,1.232897186279296875e+01,-2.113296464085578918e-02,-3.410825956962071359e-05,2.055084705352783203e+00,-5.780387204140424728e-03,1.266189065063372254e-04,-4.411954898387193680e-03,-2.149688005447387695e-01,-1.193483732640743256e-02,1.000000000000000000e+00,-1.795454736566171050e-04,0.000000000000000000e+00
1.450951814651489258e+00,-2.148576507568359375e+02,2.401363677978515625e+02,2.401363677978515625e+02,3.254994750022888184e-01,-9.432982653379440308e-02,-7.324218167923390865e-04,1.246513175964355469e+01,-2.159805968403816223e-02,-2.410545857856050134e-05,2.007593154907226562e+00,-6.857537664473056793e-03,1.474850869271904230e-04,-4.672977607697248459e-03,-8.500039577484130859e-02,-1.965493895113468170e-02,1.000000000000000000e+00,-1.908870617626234889e-04,0.000000000000000000e+00
1.450951814651489258e+00,-2.148576507568359375e+02,2.401363677978515625e+02,2.401363677978515625e+02,3.254994750022888184e-01,-9.432982653379440308e-02,-7.324218167923390865e-04,1.246513175964355469e+01,-2.159805968403816223e-02,-2.410545857856050134e-05,2.007593154907226562e+00,-6.857537664473056793e-03,1.474850869271904230e-04,-4.672977607697248459e-03,-8.500039577484130859e-02,-1.965493895113468170e-02,1.000000000000000000e+00,-1.908870617626234889e-04,0.000000000000000000e+00
1.450951814651489258e+00,-2.148576507568359375e+02,2.401363677978515625e+02,2.401363677978515625e+02,3.254994750022888184e-01,-9.432982653379440308e-02,-7.324218167923390865e-04,1.246513175964355469e+01,-2.159805968403816223e-02,-2.410545857856050134e-05,2.007593154907226562e+00,-6.857537664473056793e-03,1.474850869271904230e-04,-4.672977607697248459e-03,-8.500039577484130859e-02,-1.965493895113468170e-02,1.000000000000000000e+00,-1.908870617626234889e-04,0.000000000000000000e+00
1.527701377868652344e+00,-2.140074157714843750e+02,2.401349029541015625e+02,2.401349029541015625e+02,3.273572921752929688e-01,-9.564208984375000000e-02,-4.882812500000000000e-04,1.258127307891845703e+01,-2.196194790303707123e-02,-1.367383356409845874e-05,1.513250589370727539e+00,-4.741241689771413803e-03,1.359177113045006990e-04,-3.440998494625091553e-03,5.907192826271057129e-03,-1.990716531872749329e-02,1.000000000000000000e+00,-1.686339965090155602e-04,0.000000000000000000e+00
1.527701377868652344e+00,-2.140074157714843750e+02,2.401349029541015625e+02,2.401349029541015625e+02,3.273572921752929688e-01,-9.564208984375000000e-02,-4.882812500000000000e-04,1.258127307891845703e+01,-2.196194790303707123e-02,-1.367383356409845874e-05,1.513250589370727539e+00,-4.741241689771413803e-03,1.359177113045006990e-04,-3.440998494625091553e-03,5.907192826271057129e-03,-1.990716531872749329e-02,1.000000000000000000e+00,-1.686339965090155602e-04,0.000000000000000000e+00
1.527701377868652344e+00,-2.140074157714843750e+02,2.401349029541015625e+02,2.401349029541015625e+02,3.273572921752929688e-01,-9.564208984375000000e-02,-4.882812500000000000e-04,1.258127307891845703e+01,-2.196194790303707123e-02,-1.367383356409845874e-05,1.513250589370727539e+00,-4.741241689771413803e-03,1.359177113045006990e-04,-3.440998494625091553e-03,5.907192826271057129e-03,-1.990716531872749329e-02,1.000000000000000000e+00,-1.686339965090155602e-04,0.000000000000000000e+00
1.600134611129760742e+00,-2.130363159179687500e+02,2.401332244873046875e+02,2.401332244873046875e+02,3.237372934818267822e-01,-9.722900390625000000e-02,-2.136230468750000000e-04,1.269938659667968750e+01,-2.244021557271480560e-02,-3.556659066816791892e-06,1.630653738975524902e+00,-6.602876354008913040e-03,1.396758598275482655e-04,-3.598131705075502396e-03,7.041808962821960449e-02,-2.139997296035289764e-02,1.000000000000000000e+00,-1.675608946243301034e-04,0.000000000000000000e+00
1.600134611129760742e+00,-2.130363159179687500e+02,2.401332244873046875e+02,2.401332244873046875e+02,3.237372934818267822e-01,-9.722900390625000000e-02,-2.136230468750000000e-04,1.269938659667968750e+01,-2.244021557271480560e-02,-3.556659066816791892e-06,1.630653738975524902e+00,-6.602876354008913040e-03,1.396758598275482655e-04,-3.598131705075502396e-03,7.041808962821960449e-02,-2.139997296035289764e-02,1.000000000000000000e+00,-1.675608946243301034e-04,0.000000000000000000e+00
1.600134611129760742e+00,-2.130363159179687500e+02,2.401332244873046875e+02,2.401332244873046875e+02,3.237372934818267822e-01,-9.722900390625000000e-02,-2.136230468750000000e-04,1.269938659667968750e+01,-2.244021557271480560e-02,-3.556659066816791892e-06,1.630653738975524902e+00,-6.602876354008913040e-03,1.396758598275482655e-04,-3.598131705075502396e-03,7.041808962821960449e-02,-2.139997296035289764e-02,1.000000000000000000e+00,-1.675608946243301034e-04,0.000000000000000000e+00
1.600134611129760742e+00,-2.130363159179687500e+02,2.401332244873046875e+02,2.401332244873046875e+02,3.237372934818267822e-01,-9.722900390625000000e-02,-2.136230468750000000e-04,1.269938659667968750e+01,-2.244021557271480560e-02,-3.556659066816791892e-06,1.630653738975524902e+00,-6.602876354008913040e-03,1.396758598275482655e-04,-3.598131705075502396e-03,7.041808962821960449e-02,-2.139997296035289764e-02,1.000000000000000000e+00,-1.675608946243301034e-04,0.000000000000000000e+00
1.600134611129760742e+00,-2.130363159179687500e+02,2.401332244873046875e+02,2.401332244873046875e+02,3.237372934818267822e-01,-9.722900390625000000e-02,-2.136230468750000000e-04,1.269938659667968750e+01,-2.244021557271480560e-02,-3.556659066816791892e-06,1.630653738975524902e+00,-6.602876354008913040e-03,1.396758598275482655e-04,-3.598131705075502396e-03,7.041808962821960449e-02,-2.139997296035289764e-02,1.000000000000000000e+00,-1.675608946243301034e-04,0.000000000000000000e+00
1.600134611129760742e+00,-2.121121673583984375e+02,2.401315612792968750e+02,2.401315612792968750e+02,3.167841434478759766e-01,-9.899901598691940308e-02,1.172334377770312130e-04,1.279809284210205078e+01,-2.300258167088031769e-02,-1.144243455541982257e-07,8.554968237876892090e-01,-4.874082747846841812e-03,2.983418744406662881e-05,-4.427291918545961380e-03,1.113781109452247620e-01,-2.616594545543193817e-02,1.000000000000000000e+00,-1.835828443290665746e-04,0.000000000000000000e+00
1.715513467788696289e+00,-2.121121673583984375e+02,2.401315612792968750e+02,2.401315612792968750e+02,3.167841434478759766e-01,-9.899901598691940308e-02,1.172334377770312130e-04,1.279809284210205078e+01,-2.300258167088031769e-02,-1.144243455541982257e-07,8.554968237876892090e-01,-4.874082747846841812e-03,2.983418744406662881e-05,-4.427291918545961380e-03,1.113781109452247620e-01,-2.616594545543193817e-02,1.000000000000000000e+00,-1.835828443290665746e-04,0.000000000000000000e+00
1.715513467788696289e+00,-2.121121673583984375e+02,2.401315612792968750e+02,2.401315612792968750e+02,3.167841434478759766e-01,-9.899901598691940308e-02,1.172334377770312130e-04,1.279809284210205078e+01,-2.300258167088031769e-02,-1.144243455541982257e-07,8.554968237876892090e-01,-4.874082747846841812e-03,2.983418744406662881e-05,-4.427291918545961380e-03,1.113781109452247620e-01,-2.616594545543193817e-02,1.000000000000000000e+00,-1.835828443290665746e-04,0.000000000000000000e+00
1.715513467788696289e+00,-2.121121673583984375e+02,2.401315612792968750e+02,2.401315612792968750e+02,3.167841434478759766e-01,-9.899901598691940308e-02,1.172334377770312130e-04,1.279809284210205078e+01,-2.300258167088031769e-02,-1.144243455541982257e-07,8.554968237876892090e-01,-4.874082747846841812e-03,2.983418744406662881e-05,-4.427291918545961380e-03,1.113781109452247620e-01,-2.616594545543193817e-02,1.000000000000000000e+00,-1.835828443290665746e-04,0.000000000000000000e+00
1.813115119934082031e+00,-2.108252868652343750e+02,2.401292114257812500e+02,2.401292114257812500e+02,3.037931323051452637e-01,-1.007690429687500000e-01,2.059281250694766641e-04,1.291840744018554688e+01,-2.334524132311344147e-02,3.814061528828460723e-06,1.232710719108581543e+00,-3.510797861963510513e-03,4.025020098197273910e-05,-4.952470771968364716e-04,1.370284557342529297e-01,-1.468374393880367279e-02,1.000000000000000000e+00,-1.112324825953692198e-04,0.000000000000000000e+00
1.813115119934082031e+00,-2.108252868652343750e+02,2.401292114257812500e+02,2.401292114257812500e+02,3.037931323051452637e-01,-1.007690429687500000e-01,2.059281250694766641e-04,1.291840744018554688e+01,-2.334524132311344147e-02,3.814061528828460723e-06,1.232710719108581543e+00,-3.510797861963510513e-03,4.025020098197273910e-05,-4.952470771968364716e-04,1.370284557342529297e-01,-1.468374393880367279e-02,1.000000000000000000e+00,-1.112324825953692198e-04,0.000000000000000000e+00
1.813115119934082031e+00,-2.108252868652343750e+02,2.401292114257812500e+02,2.401292114257812500e+02,3.037931323051452637e-01,-1.007690429687500000e-01,2.059281250694766641e-04,1.291840744018554688e+01,-2.334524132311344147e-02,3.814061528828460723e-06,1.232710719108581543e+00,-3.510797861963510513e-03,4.025020098197273910e-05,-4.952470771968364716e-04,1.370284557342529297e-01,-1.468374393880367279e-02,1.000000000000000000e+00,-1.112324825953692198e-04,0.000000000000000000e+00
1.813115119934082031e+00,-2.108252868652343750e+02,2.401292114257812500e+02,2.401292114257812500e+02,3.037931323051452637e-01,-1.007690429687500000e-01,2.059281250694766641e-04,1.291840744018554688e+01,-2.334524132311344147e-02,3.814061528828460723e-06,1.232710719108581543e+00,-3.510797861963510513e-03,4.025020098197273910e-05,-4.952470771968364716e-04,1.370284557342529297e-01,-1.468374393880367279e-02,1.000000000000000000e+00,-1.112324825953692198e-04,0.000000000000000000e+00
1.896134853363037109e+00,-2.095624237060546875e+02,2.401269073486328125e+02,2.401269073486328125e+02,2.735832035541534424e-01,-1.022949144244194031e-01,2.202232280978932977e-04,1.293480587005615234e+01,-2.351251989603042603e-02,1.417883049725787714e-05,1.975244879722595215e-01,-2.014925470575690269e-03,1.248470507562160492e-04,-1.338914153166115284e-04,4.571026563644409180e-01,-1.901626959443092346e-02,1.000000000000000000e+00,-8.561653521610423923e-05,0.000000000000000000e+00
1.896134853363037109e+00,-2.095624237060546875e+02,2.401269073486328125e+02,2.401269073486328125e+02,2.735832035541534424e-01,-1.022949144244194031e-01,2.202232280978932977e-04,1.293480587005615234e+01,-2.351251989603042603e-02,1.417883049725787714e-05,1.975244879722595215e-01,-2.014925470575690269e-03,1.248470507562160492e-04,-1.338914153166115284e-04,4.571026563644409180e-01,-1.901626959443092346e-02,1.000000000000000000e+00,-8.561653521610423923e-05,0.000000000000000000e+00
1.896134853363037109e+00,-2.095624237060546875e+02,2.401269073486328125e+02,2.401269073486328125e+02,2.735832035541534424e-01,-1.022949144244194031e-01,2.202232280978932977e-04,1.293480587005615234e+01,-2.351251989603042603e-02,1.417883049725787714e-05,1.975244879722595215e-01,-2.014925470575690269e-03,1.248470507562160492e-04,-1.338914153166115284e-04,4.571026563644409180e-01,-1.901626959443092346e-02,1.000000000000000000e+00,-8.561653521610423923e-05,0.000000000000000000e+00
1.896134853363037109e+00,-2.095624237060546875e+02,2.401269073486328125e+02,2.401269073486328125e+02,2.735832035541534424e-01,-1.022949144244194031e-01,2.202232280978932977e-04,1.293480587005615234e+01,-2.351251989603042603e-02,1.417883049725787714e-05,1.975244879722595215e-01,-2.014925470575690269e-03,1.248470507562160492e-04,-1.338914153166115284e-04,4.571026563644409180e-01,-1.901626959443092346e-02,1.000000000000000000e+00,-8.561653521610423923e-05,0.000000000000000000e+00
1.896134853363037109e+00,-2.095624237060546875e+02,2.401269073486328125e+02,2.401269073486328125e+02,2.735832035541534424e-01,-1.022949144244194031e-01,2.202232280978932977e-04,1.293480587005615234e+01,-2.351251989603042603e-02,1.417883049725787714e-05,1.975244879722595215e-01,-2.014925470575690269e-03,1.248470507562160492e-04,-1.338914153166115284e-04,4.571026563644409180e-01,-1.901626959443092346e-02,1.000000000000000000e+00,-8.561653521610423923e-05,0.000000000000000000e+00
1.896134853363037109e+00,-2.095624237060546875e+02,2.401269073486328125e+02,2.401269073486328125e+02,2.735832035541534424e-01,-1.022949144244194031e-01,2.202232280978932977e-04,1.293480587005615234e+01,-2.351251989603042603e-02,1.417883049725787714e-05,1.975244879722595215e-01,-2.014925470575690269e-03,1.248470507562160492e-04,-1.338914153166115284e-04,4.571026563644409180e-01,-1.901626959443092346e-02,1.000000000000000000e+00,-8.561653521610423923e-05,0.000000000000000000e+00
1.896134853363037109e+00,-2.095624237060546875e+02,2.401269073486328125e+02,2.401269073486328125e+02,2.735832035541534424e-01,-1.022949144244194031e-01,2.202232280978932977e-04,1.293480587005615234e+01,-2.351251989603042603e-02,1.417883049725787714e-05,1.975244879722595215e-01,-2.014925470575690269e-03,1.248470507562160492e-04,-1.338914153166115284e-04,4.571026563644409180e-01,-1.901626959443092346e-02,1.000000000000000000e+00,-8.561653521610423923e-05,0.000000000000000000e+00
2.195794820785522461e+00,-2.060716094970703125e+02,2.401206359863281250e+02,2.401206359863281250e+02,1.811229437589645386e-01,-1.039428636431694031e-01,5.633457840303890407e-05,1.286976051330566406e+01,-2.328777499496936798e-02,1.340670132776722312e-05,-3.960950970649719238e-01,1.525907078757882118e-03,-9.665738616604357958e-05,9.200265049003064632e-04,2.051429599523544312e-01,1.179081271402537823e-03,1.000000000000000000e+00,1.215796419273829088e-05,0.000000000000000000e+00
2.195794820785522461e+00,-2.060716094970703125e+02,2.401206359863281250e+02,2.401206359863281250e+02,1.811229437589645386e-01,-1.039428636431694031e-01,5.633457840303890407e-05,1.286976051330566406e+01,-2.328777499496936798e-02,1.340670132776722312e-05,-3.960950970649719238e-01,1.525907078757882118e-03,-9.665738616604357958e-05,9.200265049003064632e-04,2.051429599523544312e-01,1.179081271402537823e-03,1.000000000000000000e+00,1.215796419273829088e-05,0.000000000000000000e+00
2.195794820785522461e+00,-2.060716094970703125e+02,2.401206359863281250e+02,2.401206359863281250e+02,1.811229437589645386e-01,-1.039428636431694031e-01,5.633457840303890407e-05,1.286976051330566406e+01,-2.328777499496936798e-02,1.340670132776722312e-05,-3.960950970649719238e-01,1.525907078757882118e-03,-9.665738616604357958e-05,9.200265049003064632e-04,2.051429599523544312e-01,1.179081271402537823e-03,1.000000000000000000e+00,1.215796419273829088e-05,0.000000000000000000e+00
2.195794820785522461e+00,-2.060716094970703125e+02,2.401206359863281250e+02,2.401206359863281250e+02,1.811229437589645386e-01,-1.039428636431694031e-01,5.633457840303890407e-05,1.286976051330566406e+01,-2.328777499496936798e-02,1.340670132776722312e-05,-3.960950970649719238e-01,1.525907078757882118e-03,-9.665738616604357958e-05,9.200265049003064632e-04,2.051429599523544312e-01,1.179081271402537823e-03,1.000000000000000000e+00,1.215796419273829088e-05,0.000000000000000000e+00
2.195794820785522461e+00,-2.060716094970703125e+02,2.401206359863281250e+02,2.401206359863281250e+02,1.811229437589645386e-01,-1.039428636431694031e-01,5.633457840303890407e-05,1.286976051330566406e+01,-2.328777499496936798e-02,1.340670132776722312e-05,-3.960950970649719238e-01,1.525907078757882118e-03,-9.665738616604357958e-05,9.200265049003064632e-04,2.051429599523544312e-01,1.179081271402537823e-03,1.000000000000000000e+00,1.215796419273829088e-05,0.000000000000000000e+00
2.195794820785522461e+00,-2.060716094970703125e+02,2.401206359863281250e+02,2.401206359863281250e+02,1.811229437589645386e-01,-1.039428636431694031e-01,5.633457840303890407e-05,1.286976051330566406e+01,-2.328777499496936798e-02,1.340670132776722312e-05,-3.960950970649719238e-01,1.525907078757882118e-03,-9.665738616604357958e-05,9.200265049003064632e-04,2.051429599523544312e-01,1.179081271402537823e-03,1.000000000000000000e+00,1.215796419273829088e-05,0.000000000000000000e+00
2.195794820785522461e+00,-2.060716094970703125e+02,2.401206359863281250e+02,2.401206359863281250e+02,1.811229437589645386e-01,-1.039428636431694031e-01,5.633457840303890407e-05,1.286976051330566406e+01,-2.328777499496936798e-02,1.340670132776722312e-05,-3.960950970649719238e-01,1.525907078757882118e-03,-9.665738616604357958e-05,9.200265049003064632e-04,2.051429599523544312e-01,1.179081271402537823e-03,1.000000000000000000e+00,1.215796419273829088e-05,0.000000000000000000e+00
2.195794820785522461e+00,-2.060716094970703125e+02,2.401206359863281250e+02,2.401206359863281250e+02,1.811229437589645386e-01,-1.039428636431694031e-01,5.633457840303890407e-05,1.286976051330566406e+01,-2.328777499496936798e-02,1.340670132776722312e-05,-3.960950970649719238e-01,1.525907078757882118e-03,-9.665738616604357958e-05,9.200265049003064632e-04,2.051429599523544312e-01,1.179081271402537823e-03,1.000000000000000000e+00,1.215796419273829088e-05,0.000000000000000000e+00
2.195794820785522461e+00,-2.060716094970703125e+02,2.401206359863281250e+02,2.401206359863281250e+02,1.811229437589645386e-01,-1.039428636431694031e-01,5.633457840303890407e-05,1.286976051330566406e+01,-2.328777499496936798e-02,1.340670132776722312e-05,-3.960950970649719238e-01,1.525907078757882118e-03,-9.665738616604357958e-05,9.200265049003064632e-04,2.051429599523544312e-01,1.179081271402537823e-03,1.000000000000000000e+00,1.215796419273829088e-05,0.000000000000000000e+00
2.195794820785522461e+00,-2.060716094970703125e+02,2.401206359863281250e+02,2.401206359863281250e+02,1.811229437589645386e-01,-1.039428636431694031e-01,5.633457840303890407e-05,1.286976051330566406e+01,-2.328777499496936798e-02,1.340670132776722312e-05,-3.960950970649719238e-01,1.525907078757882118e-03,-9.665738616604357958e-05,9.200265049003064632e-04,2.051429599523544312e-01,1.179081271402537823e-03,1.000000000000000000e+00,1.215796419273829088e-05,0.000000000000000000e+00
2.374083757400512695e+00,-2.053891143798828125e+02,2.401193847656250000e+02,2.401193847656250000e+02,1.717450916767120361e-01,-1.038818284869194031e-01,4.474652814678847790e-05,1.285705757141113281e+01,-2.326840348541736603e-02,1.007899936666944996e-05,-7.124918699264526367e-02,1.086523334379307926e-04,-1.866465754574164748e-05,4.129844310227781534e-04,1.644089221954345703e-01,1.068324199877679348e-03,1.000000000000000000e+00,6.638999366259668022e-06,0.000000000000000000e+00
2.374083757400512695e+00,-2.053891143798828125e+02,2.401193847656250000e+02,2.401193847656250000e+02,1.717450916767120361e-01,-1.038818284869194031e-01,4.474652814678847790e-05,1.285705757141113281e+01,-2.326840348541736603e-02,1.007899936666944996e-05,-7.124918699264526367e-02,1.086523334379307926e-04,-1.866465754574164748e-05,4.129844310227781534e-04,1.644089221954345703e-01,1.068324199877679348e-03,1.000000000000000000e+00,6.638999366259668022e-06,0.000000000000000000e+00
2.374083757400512695e+00,-2.053891143798828125e+02,2.401193847656250000e+02,2.401193847656250000e+02,1.717450916767120361e-01,-1.038818284869194031e-01,4.474652814678847790e-05,1.285705757141113281e+01,-2.326840348541736603e-02,1.007899936666944996e-05,-7.124918699264526367e-02,1.086523334379307926e-04,-1.866465754574164748e-05,4.129844310227781534e-04,1.644089221954345703e-01,1.068324199877679348e-03,1.000000000000000000e+00,6.638999366259668022e-06,0.000000000000000000e+00
2.447860002517700195e+00,-2.041049194335937500e+02,2.401170501708984375e+02,2.401170501708984375e+02,1.581393629312515259e-01,-1.036987155675888062e-01,0.000000000000000000e+00,1.283316898345947266e+01,-2.317280508577823639e-02,8.562567927583586425e-06,-3.237978219985961914e-01,1.295788330025970936e-03,-2.055446748272515833e-05,7.275251555256545544e-04,1.108560934662818909e-01,2.338607329875230789e-03,1.000000000000000000e+00,1.309460822085384279e-05,0.000000000000000000e+00
2.447860002517700195e+00,-2.041049194335937500e+02,2.401170501708984375e+02,2.401170501708984375e+02,1.581393629312515259e-01,-1.036987155675888062e-01,0.000000000000000000e+00,1.283316898345947266e+01,-2.317280508577823639e-02,8.562567927583586425e-06,-3.237978219985961914e-01,1.295788330025970936e-03,-2.055446748272515833e-05,7.275251555256545544e-04,1.108560934662818909e-01,2.338607329875230789e-03,1.000000000000000000e+00,1.309460822085384279e-05,0.000000000000000000e+00
2.500878810882568359e+00,-2.031421966552734375e+02,2.401152801513671875e+02,2.401152801513671875e+02,2.285176217555999756e-01,-1.013183593750000000e-01,-1.525878469692543149e-04,1.325068283081054688e+01,-2.381220087409019470e-02,-1.232918930327286944e-05,7.874825000762939453e+00,-1.205979194492101669e-02,-3.940442693419754505e-04,1.522375852800905704e-03,-1.669928073883056641e+00,5.691772326827049255e-02,1.000000000000000000e+00,1.426285962224937975e-05,0.000000000000000000e+00
2.500878810882568359e+00,-2.031421966552734375e+02,2.401152801513671875e+02,2.401152801513671875e+02,2.285176217555999756e-01,-1.013183593750000000e-01,-1.525878469692543149e-04,1.325068283081054688e+01,-2.381220087409019470e-02,-1.232918930327286944e-05,7.874825000762939453e+00,-1.205979194492101669e-02,-3.940442693419754505e-04,1.522375852800905704e-03,-1.669928073883056641e+00,5.691772326827049255e-02,1.000000000000000000e+00,1.426285962224937975e-05,0.000000000000000000e+00
2.500878810882568359e+00,-2.024268951416015625e+02,2.401140136718750000e+02,2.401140136718750000e+02,3.214491605758666992e-01,-9.768675267696380615e-02,-5.187988281250000000e-04,1.360607242584228516e+01,-2.421244606375694275e-02,-5.354171662474982440e-05,5.991398334503173828e+00,-6.747604347765445709e-03,-6.947886431589722633e-04,5.852266214787960052e-03,-1.750615000724792480e+00,7.359329611063003540e-02,1.000000000000000000e+00,-1.967155549209564924e-05,0.000000000000000000e+00
2.560195446014404297e+00,-2.024268951416015625e+02,2.401140136718750000e+02,2.401140136718750000e+02,3.214491605758666992e-01,-9.768675267696380615e-02,-5.187988281250000000e-04,1.360607242584228516e+01,-2.421244606375694275e-02,-5.354171662474982440e-05,5.991398334503173828e+00,-6.747604347765445709e-03,-6.947886431589722633e-04,5.852266214787960052e-03,-1.750615000724792480e+00,7.359329611063003540e-02,1.000000000000000000e+00,-1.967155549209564924e-05,0.000000000000000000e+00
2.560195446014404297e+00,-2.024268951416015625e+02,2.401140136718750000e+02,2.401140136718750000e+02,3.214491605758666992e-01,-9.768675267696380615e-02,-5.187988281250000000e-04,1.360607242584228516e+01,-2.421244606375694275e-02,-5.354171662474982440e-05,5.991398334503173828e+00,-6.747604347765445709e-03,-6.947886431589722633e-04,5.852266214787960052e-03,-1.750615000724792480e+00,7.359329611063003540e-02,1.000000000000000000e+00,-1.967155549209564924e-05,0.000000000000000000e+00
2.618730545043945312e+00,-2.016050872802734375e+02,2.401125335693359375e+02,2.401125335693359375e+02,4.166210293769836426e-01,-9.356687963008880615e-02,-1.037597539834678173e-03,1.397542095184326172e+01,-2.457675710320472717e-02,-9.312202018918469548e-05,6.309864044189453125e+00,-6.223804783076047897e-03,-6.761807017028331757e-04,7.623896468430757523e-03,-1.452148795127868652e+00,6.717102974653244019e-02,1.000000000000000000e+00,-9.841876453720033169e-05,0.000000000000000000e+00
2.618730545043945312e+00,-2.016050872802734375e+02,2.401125335693359375e+02,2.401125335693359375e+02,4.166210293769836426e-01,-9.356687963008880615e-02,-1.037597539834678173e-03,1.397542095184326172e+01,-2.457675710320472717e-02,-9.312202018918469548e-05,6.309864044189453125e+00,-6.223804783076047897e-03,-6.761807017028331757e-04,7.623896468430757523e-03,-1.452148795127868652e+00,6.717102974653244019e-02,1.000000000000000000e+00,-9.841876453720033169e-05,0.000000000000000000e+00
2.677334070205688477e+00,-2.007740936279296875e+02,2.401110229492187500e+02,2.401110229492187500e+02,4.851005077362060547e-01,-9.048461914062500000e-02,-1.495361328125000000e-03,1.430419063568115234e+01,-2.491613663733005524e-02,-1.127650175476446748e-04,5.610066890716552734e+00,-5.791111383587121964e-03,-3.351845662109553814e-04,6.211547646671533585e-03,-9.872342944145202637e-01,4.567439109086990356e-02,5.000000000000000000e-01,-1.900774077512323856e-04,0.000000000000000000e+00
2.677334070205688477e+00,-2.007740936279296875e+02,2.401110229492187500e+02,2.401110229492187500e+02,4.851005077362060547e-01,-9.048461914062500000e-02,-1.495361328125000000e-03,1.430419063568115234e+01,-2.491613663733005524e-02,-1.127650175476446748e-04,5.610066890716552734e+00,-5.791111383587121964e-03,-3.351845662109553814e-04,6.211547646671533585e-03,-9.872342944145202637e-01,4.567439109086990356e-02,5.000000000000000000e-01,-1.900774077512323856e-04,0.000000000000000000e+00
2.677334070205688477e+00,-2.007740936279296875e+02,2.401110229492187500e+02,2.401110229492187500e+02,4.851005077362060547e-01,-9.048461914062500000e-02,-1.495361328125000000e-03,1.430419063568115234e+01,-2.491613663733005524e-02,-1.127650175476446748e-04,5.610066890716552734e+00,-5.791111383587121964e-03,-3.351845662109553814e-04,6.211547646671533585e-03,-9.872342944145202637e-01,4.567439109086990356e-02,5.000000000000000000e-01,-1.900774077512323856e-04,0.000000000000000000e+00
2.677334070205688477e+00,-2.007740936279296875e+02,2.401110229492187500e+02,2.401110229492187500e+02,4.851005077362060547e-01,-9.048461914062500000e-02,-1.495361328125000000e-03,1.430419063568115234e+01,-2.491613663733005524e-02,-1.127650175476446748e-04,5.610066890716552734e+00,-5.791111383587121964e-03,-3.351845662109553814e-04,6.211547646671533585e-03,-9.872342944145202637e-01,4.567439109086990356e-02,5.000000000000000000e-01,-1.900774077512323856e-04,0.000000000000000000e+00
2.755024909973144531e+00,-1.999257812500000000e+02,2.401095428466796875e+02,2.401095428466796875e+02,5.220108628273010254e-01,-8.914183080196380615e-02,-1.708984258584678173e-03,1.455952262878417969e+01,-2.530811727046966553e-02,-1.008076724247075617e-04,3.286513566970825195e+00,-5.045390687882900238e-03,1.539093354949727654e-04,2.103757811710238457e-03,-4.129335582256317139e-01,1.084769610315561295e-02,5.000000000000000000e-01,-2.856669598259031773e-04,0.000000000000000000e+00
2.755024909973144531e+00,-1.999257812500000000e+02,2.401095428466796875e+02,2.401095428466796875e+02,5.220108628273010254e-01,-8.914183080196380615e-02,-1.708984258584678173e-03,1.455952262878417969e+01,-2.530811727046966553e-02,-1.008076724247075617e-04,3.286513566970825195e+00,-5.045390687882900238e-03,1.539093354949727654e-04,2.103757811710238457e-03,-4.129335582256317139e-01,1.084769610315561295e-02,5.000000000000000000e-01,-2.856669598259031773e-04,0.000000000000000000e+00
2.755024909973144531e+00,-1.999257812500000000e+02,2.401095428466796875e+02,2.401095428466796875e+02,5.220108628273010254e-01,-8.914183080196380615e-02,-1.708984258584678173e-03,1.455952262878417969e+01,-2.530811727046966553e-02,-1.008076724247075617e-04,3.286513566970825195e+00,-5.045390687882900238e-03,1.539093354949727654e-04,2.103757811710238457e-03,-4.129335582256317139e-01,1.084769610315561295e-02,5.000000000000000000e-01,-2.856669598259031773e-04,0.000000000000000000e+00
2.830169916152954102e+00,-1.987833099365234375e+02,2.401075897216796875e+02,2.401075897216796875e+02,5.228577852249145508e-01,-8.996579796075820923e-02,-1.770019414834678173e-03,1.478681087493896484e+01,-2.561081573367118835e-02,-4.995523340767249465e-05,3.024662017822265625e+00,-4.028191324323415756e-03,6.767241284251213074e-04,-4.642237618099898100e-04,2.312042862176895142e-01,-2.338774129748344421e-02,5.000000000000000000e-01,-2.900383260566741228e-04,0.000000000000000000e+00
2.830169916152954102e+00,-1.987833099365234375e+02,2.401075897216796875e+02,2.401075897216796875e+02,5.228577852249145508e-01,-8.996579796075820923e-02,-1.770019414834678173e-03,1.478681087493896484e+01,-2.561081573367118835e-02,-4.995523340767249465e-05,3.024662017822265625e+00,-4.028191324323415756e-03,6.767241284251213074e-04,-4.642237618099898100e-04,2.312042862176895142e-01,-2.338774129748344421e-02,5.000000000000000000e-01,-2.900383260566741228e-04,0.000000000000000000e+00
2.830169916152954102e+00,-1.987833099365234375e+02,2.401075897216796875e+02,2.401075897216796875e+02,5.228577852249145508e-01,-8.996579796075820923e-02,-1.770019414834678173e-03,1.478681087493896484e+01,-2.561081573367118835e-02,-4.995523340767249465e-05,3.024662017822265625e+00,-4.028191324323415756e-03,6.767241284251213074e-04,-4.642237618099898100e-04,2.312042862176895142e-01,-2.338774129748344421e-02,5.000000000000000000e-01,-2.900383260566741228e-04,0.000000000000000000e+00
2.830169916152954102e+00,-1.987833099365234375e+02,2.401075897216796875e+02,2.401075897216796875e+02,5.228577852249145508e-01,-8.996579796075820923e-02,-1.770019414834678173e-03,1.478681087493896484e+01,-2.561081573367118835e-02,-4.995523340767249465e-05,3.024662017822265625e+00,-4.028191324323415756e-03,6.767241284251213074e-04,-4.642237618099898100e-04,2.312042862176895142e-01,-2.338774129748344421e-02,5.000000000000000000e-01,-2.900383260566741228e-04,0.000000000000000000e+00
2.830169916152954102e+00,-1.987833099365234375e+02,2.401075897216796875e+02,2.401075897216796875e+02,5.228577852249145508e-01,-8.996579796075820923e-02,-1.770019414834678173e-03,1.478681087493896484e+01,-2.561081573367118835e-02,-4.995523340767249465e-05,3.024662017822265625e+00,-4.028191324323415756e-03,6.767241284251213074e-04,-4.642237618099898100e-04,2.312042862176895142e-01,-2.338774129748344421e-02,5.000000000000000000e-01,-2.900383260566741228e-04,0.000000000000000000e+00
2.917726278305053711e+00,-1.976664581298828125e+02,2.401056518554687500e+02,2.401056518554687500e+02,4.868012070655822754e-01,-9.338377416133880615e-02,-1.251220703125000000e-03,1.490938663482666016e+01,-2.633977867662906647e-02,4.958361387252807617e-06,1.399963974952697754e+00,-8.325641974806785583e-03,6.271799211390316486e-04,-8.711332455277442932e-03,6.157117486000061035e-01,-5.817547813057899475e-02,5.000000000000000000e-01,-3.506085777189582586e-04,0.000000000000000000e+00
