# Time,X,Y,Z,Roll,Pitch,Yaw,Vx,Vy,Vz,Ax,Ay,Az,Wx,Wy,Wz,Throttle,Steer,Brake
0.000000000000000000e+00,3.892169189453125000e+02,-2.085458183288574219e+01,-2.085458183288574219e+01,3.385246396064758301e-01,1.797952117919921875e+02,2.664753992576152086e-06,-5.725223064422607422e+00,2.095632441341876984e-02,6.865484465379267931e-07,-4.153854846954345703e-01,-4.056142643094062805e-04,5.652960226143477485e-06,-2.120204502716660500e-03,-8.458992838859558105e-02,2.469178885221481323e-01,1.000000000000000000e+00,-6.968180241528898478e-05,0.000000000000000000e+00
1.045818328857421875e-01,3.892169189453125000e+02,-2.085458183288574219e+01,-2.085458183288574219e+01,3.385246396064758301e-01,1.797952117919921875e+02,2.664753992576152086e-06,-5.725223064422607422e+00,2.095632441341876984e-02,6.865484465379267931e-07,-4.153854846954345703e-01,-4.056142643094062805e-04,5.652960226143477485e-06,-2.120204502716660500e-03,-8.458992838859558105e-02,2.469178885221481323e-01,1.000000000000000000e+00,-6.968180241528898478e-05,0.000000000000000000e+00
1.045818328857421875e-01,3.892169189453125000e+02,-2.085458183288574219e+01,-2.085458183288574219e+01,3.385246396064758301e-01,1.797952117919921875e+02,2.664753992576152086e-06,-5.725223064422607422e+00,2.095632441341876984e-02,6.865484465379267931e-07,-4.153854846954345703e-01,-4.056142643094062805e-04,5.652960226143477485e-06,-2.120204502716660500e-03,-8.458992838859558105e-02,2.469178885221481323e-01,1.000000000000000000e+00,-6.968180241528898478e-05,0.000000000000000000e+00
1.045818328857421875e-01,3.892169189453125000e+02,-2.085458183288574219e+01,-2.085458183288574219e+01,3.385246396064758301e-01,1.797952117919921875e+02,2.664753992576152086e-06,-5.725223064422607422e+00,2.095632441341876984e-02,6.865484465379267931e-07,-4.153854846954345703e-01,-4.056142643094062805e-04,5.652960226143477485e-06,-2.120204502716660500e-03,-8.458992838859558105e-02,2.469178885221481323e-01,1.000000000000000000e+00,-6.968180241528898478e-05,0.000000000000000000e+00
1.045818328857421875e-01,3.892169189453125000e+02,-2.085458183288574219e+01,-2.085458183288574219e+01,3.385246396064758301e-01,1.797952117919921875e+02,2.664753992576152086e-06,-5.725223064422607422e+00,2.095632441341876984e-02,6.865484465379267931e-07,-4.153854846954345703e-01,-4.056142643094062805e-04,5.652960226143477485e-06,-2.120204502716660500e-03,-8.458992838859558105e-02,2.469178885221481323e-01,1.000000000000000000e+00,-6.968180241528898478e-05,0.000000000000000000e+00
1.045818328857421875e-01,3.892169189453125000e+02,-2.085458183288574219e+01,-2.085458183288574219e+01,3.385246396064758301e-01,1.797952117919921875e+02,2.664753992576152086e-06,-5.725223064422607422e+00,2.095632441341876984e-02,6.865484465379267931e-07,-4.153854846954345703e-01,-4.056142643094062805e-04,5.652960226143477485e-06,-2.120204502716660500e-03,-8.458992838859558105e-02,2.469178885221481323e-01,1.000000000000000000e+00,-6.968180241528898478e-05,0.000000000000000000e+00
1.045818328857421875e-01,3.886403808593750000e+02,-2.085246849060058594e+01,-2.085246849060058594e+01,3.377801477909088135e-01,1.797967529296875000e+02,-3.051762178074568510e-05,-5.682704925537109375e+00,2.088613063097000122e-02,-1.983311904041329399e-06,4.060603678226470947e-01,-6.703706458210945129e-04,-2.549792770878411829e-05,-3.896216163411736488e-03,-1.704074144363403320e-01,4.906960725784301758e-01,1.000000000000000000e+00,-6.612142169615253806e-05,0.000000000000000000e+00
2.092907428741455078e-01,3.886403808593750000e+02,-2.085246849060058594e+01,-2.085246849060058594e+01,3.377801477909088135e-01,1.797967529296875000e+02,-3.051762178074568510e-05,-5.682704925537109375e+00,2.088613063097000122e-02,-1.983311904041329399e-06,4.060603678226470947e-01,-6.703706458210945129e-04,-2.549792770878411829e-05,-3.896216163411736488e-03,-1.704074144363403320e-01,4.906960725784301758e-01,1.000000000000000000e+00,-6.612142169615253806e-05,0.000000000000000000e+00
2.092907428741455078e-01,3.886403808593750000e+02,-2.085246849060058594e+01,-2.085246849060058594e+01,3.377801477909088135e-01,1.797967529296875000e+02,-3.051762178074568510e-05,-5.682704925537109375e+00,2.088613063097000122e-02,-1.983311904041329399e-06,4.060603678226470947e-01,-6.703706458210945129e-04,-2.549792770878411829e-05,-3.896216163411736488e-03,-1.704074144363403320e-01,4.906960725784301758e-01,1.000000000000000000e+00,-6.612142169615253806e-05,0.000000000000000000e+00
2.092907428741455078e-01,3.886403808593750000e+02,-2.085246849060058594e+01,-2.085246849060058594e+01,3.377801477909088135e-01,1.797967529296875000e+02,-3.051762178074568510e-05,-5.682704925537109375e+00,2.088613063097000122e-02,-1.983311904041329399e-06,4.060603678226470947e-01,-6.703706458210945129e-04,-2.549792770878411829e-05,-3.896216163411736488e-03,-1.704074144363403320e-01,4.906960725784301758e-01,1.000000000000000000e+00,-6.612142169615253806e-05,0.000000000000000000e+00
2.092907428741455078e-01,3.886403808593750000e+02,-2.085246849060058594e+01,-2.085246849060058594e+01,3.377801477909088135e-01,1.797967529296875000e+02,-3.051762178074568510e-05,-5.682704925537109375e+00,2.088613063097000122e-02,-1.983311904041329399e-06,4.060603678226470947e-01,-6.703706458210945129e-04,-2.549792770878411829e-05,-3.896216163411736488e-03,-1.704074144363403320e-01,4.906960725784301758e-01,1.000000000000000000e+00,-6.612142169615253806e-05,0.000000000000000000e+00
2.092907428741455078e-01,3.880641174316406250e+02,-2.085035514831542969e+01,-2.085035514831542969e+01,3.369810283184051514e-01,1.797972412109375000e+02,-3.051761814276687801e-05,-5.679491519927978516e+00,2.091126702725887299e-02,5.339686026673007291e-07,4.306441918015480042e-02,3.368651086930185556e-04,3.373530489625409245e-05,-3.900846932083368301e-03,-1.715106964111328125e-01,5.025316476821899414e-01,1.000000000000000000e+00,-8.341471402673050761e-05,0.000000000000000000e+00
2.839093208312988281e-01,3.880641174316406250e+02,-2.085035514831542969e+01,-2.085035514831542969e+01,3.369810283184051514e-01,1.797972412109375000e+02,-3.051761814276687801e-05,-5.679491519927978516e+00,2.091126702725887299e-02,5.339686026673007291e-07,4.306441918015480042e-02,3.368651086930185556e-04,3.373530489625409245e-05,-3.900846932083368301e-03,-1.715106964111328125e-01,5.025316476821899414e-01,1.000000000000000000e+00,-8.341471402673050761e-05,0.000000000000000000e+00
2.839093208312988281e-01,3.880641174316406250e+02,-2.085035514831542969e+01,-2.085035514831542969e+01,3.369810283184051514e-01,1.797972412109375000e+02,-3.051761814276687801e-05,-5.679491519927978516e+00,2.091126702725887299e-02,5.339686026673007291e-07,4.306441918015480042e-02,3.368651086930185556e-04,3.373530489625409245e-05,-3.900846932083368301e-03,-1.715106964111328125e-01,5.025316476821899414e-01,1.000000000000000000e+00,-8.341471402673050761e-05,0.000000000000000000e+00
2.839093208312988281e-01,3.880641174316406250e+02,-2.085035514831542969e+01,-2.085035514831542969e+01,3.369810283184051514e-01,1.797972412109375000e+02,-3.051761814276687801e-05,-5.679491519927978516e+00,2.091126702725887299e-02,5.339686026673007291e-07,4.306441918015480042e-02,3.368651086930185556e-04,3.373530489625409245e-05,-3.900846932083368301e-03,-1.715106964111328125e-01,5.025316476821899414e-01,1.000000000000000000e+00,-8.341471402673050761e-05,0.000000000000000000e+00
2.839093208312988281e-01,3.880641174316406250e+02,-2.085035514831542969e+01,-2.085035514831542969e+01,3.369810283184051514e-01,1.797972412109375000e+02,-3.051761814276687801e-05,-5.679491519927978516e+00,2.091126702725887299e-02,5.339686026673007291e-07,4.306441918015480042e-02,3.368651086930185556e-04,3.373530489625409245e-05,-3.900846932083368301e-03,-1.715106964111328125e-01,5.025316476821899414e-01,1.000000000000000000e+00,-8.341471402673050761e-05,0.000000000000000000e+00
3.569011688232421875e-01,3.876329345703125000e+02,-2.084880065917968750e+01,-2.084880065917968750e+01,3.391598463058471680e-01,1.797920074462890625e+02,-3.051762541872449219e-05,-5.825566768646240234e+00,2.117069996893405914e-02,4.004834295301407110e-07,-2.001254320144653320e+00,3.554272931069135666e-03,-1.828768176892481279e-06,2.249089069664478302e-03,1.215917542576789856e-01,-3.261221945285797119e-01,1.000000000000000000e+00,-8.773803710937500000e-05,0.000000000000000000e+00
3.569011688232421875e-01,3.876329345703125000e+02,-2.084880065917968750e+01,-2.084880065917968750e+01,3.391598463058471680e-01,1.797920074462890625e+02,-3.051762541872449219e-05,-5.825566768646240234e+00,2.117069996893405914e-02,4.004834295301407110e-07,-2.001254320144653320e+00,3.554272931069135666e-03,-1.828768176892481279e-06,2.249089069664478302e-03,1.215917542576789856e-01,-3.261221945285797119e-01,1.000000000000000000e+00,-8.773803710937500000e-05,0.000000000000000000e+00
3.569011688232421875e-01,3.876329345703125000e+02,-2.084880065917968750e+01,-2.084880065917968750e+01,3.391598463058471680e-01,1.797920074462890625e+02,-3.051762541872449219e-05,-5.825566768646240234e+00,2.117069996893405914e-02,4.004834295301407110e-07,-2.001254320144653320e+00,3.554272931069135666e-03,-1.828768176892481279e-06,2.249089069664478302e-03,1.215917542576789856e-01,-3.261221945285797119e-01,1.000000000000000000e+00,-8.773803710937500000e-05,0.000000000000000000e+00
3.569011688232421875e-01,3.876329345703125000e+02,-2.084880065917968750e+01,-2.084880065917968750e+01,3.391598463058471680e-01,1.797920074462890625e+02,-3.051762541872449219e-05,-5.825566768646240234e+00,2.117069996893405914e-02,4.004834295301407110e-07,-2.001254320144653320e+00,3.554272931069135666e-03,-1.828768176892481279e-06,2.249089069664478302e-03,1.215917542576789856e-01,-3.261221945285797119e-01,1.000000000000000000e+00,-8.773803710937500000e-05,0.000000000000000000e+00
4.765405654907226562e-01,3.872126464843750000e+02,-2.084726524353027344e+01,-2.084726524353027344e+01,3.381626605987548828e-01,1.797961883544921875e+02,-9.155276347883045673e-05,-5.716393947601318359e+00,2.070429921150207520e-02,-3.718786842910049018e-07,9.125156402587890625e-01,-3.898387774825096130e-03,-6.455750735767651349e-06,-2.772202948108315468e-03,-9.723816812038421631e-02,2.840175628662109375e-01,1.000000000000000000e+00,-2.161661723221186548e-05,0.000000000000000000e+00
4.765405654907226562e-01,3.872126464843750000e+02,-2.084726524353027344e+01,-2.084726524353027344e+01,3.381626605987548828e-01,1.797961883544921875e+02,-9.155276347883045673e-05,-5.716393947601318359e+00,2.070429921150207520e-02,-3.718786842910049018e-07,9.125156402587890625e-01,-3.898387774825096130e-03,-6.455750735767651349e-06,-2.772202948108315468e-03,-9.723816812038421631e-02,2.840175628662109375e-01,1.000000000000000000e+00,-2.161661723221186548e-05,0.000000000000000000e+00
4.765405654907226562e-01,3.872126464843750000e+02,-2.084726524353027344e+01,-2.084726524353027344e+01,3.381626605987548828e-01,1.797961883544921875e+02,-9.155276347883045673e-05,-5.716393947601318359e+00,2.070429921150207520e-02,-3.718786842910049018e-07,9.125156402587890625e-01,-3.898387774825096130e-03,-6.455750735767651349e-06,-2.772202948108315468e-03,-9.723816812038421631e-02,2.840175628662109375e-01,1.000000000000000000e+00,-2.161661723221186548e-05,0.000000000000000000e+00
4.765405654907226562e-01,3.872126464843750000e+02,-2.084726524353027344e+01,-2.084726524353027344e+01,3.381626605987548828e-01,1.797961883544921875e+02,-9.155276347883045673e-05,-5.716393947601318359e+00,2.070429921150207520e-02,-3.718786842910049018e-07,9.125156402587890625e-01,-3.898387774825096130e-03,-6.455750735767651349e-06,-2.772202948108315468e-03,-9.723816812038421631e-02,2.840175628662109375e-01,1.000000000000000000e+00,-2.161661723221186548e-05,0.000000000000000000e+00
4.765405654907226562e-01,3.872126464843750000e+02,-2.084726524353027344e+01,-2.084726524353027344e+01,3.381626605987548828e-01,1.797961883544921875e+02,-9.155276347883045673e-05,-5.716393947601318359e+00,2.070429921150207520e-02,-3.718786842910049018e-07,9.125156402587890625e-01,-3.898387774825096130e-03,-6.455750735767651349e-06,-2.772202948108315468e-03,-9.723816812038421631e-02,2.840175628662109375e-01,1.000000000000000000e+00,-2.161661723221186548e-05,0.000000000000000000e+00
4.765405654907226562e-01,3.872126464843750000e+02,-2.084726524353027344e+01,-2.084726524353027344e+01,3.381626605987548828e-01,1.797961883544921875e+02,-9.155276347883045673e-05,-5.716393947601318359e+00,2.070429921150207520e-02,-3.718786842910049018e-07,9.125156402587890625e-01,-3.898387774825096130e-03,-6.455750735767651349e-06,-2.772202948108315468e-03,-9.723816812038421631e-02,2.840175628662109375e-01,1.000000000000000000e+00,-2.161661723221186548e-05,0.000000000000000000e+00
4.765405654907226562e-01,3.872126464843750000e+02,-2.084726524353027344e+01,-2.084726524353027344e+01,3.381626605987548828e-01,1.797961883544921875e+02,-9.155276347883045673e-05,-5.716393947601318359e+00,2.070429921150207520e-02,-3.718786842910049018e-07,9.125156402587890625e-01,-3.898387774825096130e-03,-6.455750735767651349e-06,-2.772202948108315468e-03,-9.723816812038421631e-02,2.840175628662109375e-01,1.000000000000000000e+00,-2.161661723221186548e-05,0.000000000000000000e+00
6.200885772705078125e-01,3.866362915039062500e+02,-2.084516334533691406e+01,-2.084516334533691406e+01,3.376367092132568359e-01,1.797972412109375000e+02,-9.155270527116954327e-05,-5.681128978729248047e+00,2.085812762379646301e-02,-6.483904826382058673e-07,2.456667274236679077e-01,1.071616541594266891e-03,-1.926267032104078680e-06,-3.578006755560636520e-03,-1.687282919883728027e-01,4.914231300354003906e-01,1.000000000000000000e+00,-7.985432603163644671e-05,0.000000000000000000e+00
6.200885772705078125e-01,3.866362915039062500e+02,-2.084516334533691406e+01,-2.084516334533691406e+01,3.376367092132568359e-01,1.797972412109375000e+02,-9.155270527116954327e-05,-5.681128978729248047e+00,2.085812762379646301e-02,-6.483904826382058673e-07,2.456667274236679077e-01,1.071616541594266891e-03,-1.926267032104078680e-06,-3.578006755560636520e-03,-1.687282919883728027e-01,4.914231300354003906e-01,1.000000000000000000e+00,-7.985432603163644671e-05,0.000000000000000000e+00
6.200885772705078125e-01,3.866362915039062500e+02,-2.084516334533691406e+01,-2.084516334533691406e+01,3.376367092132568359e-01,1.797972412109375000e+02,-9.155270527116954327e-05,-5.681128978729248047e+00,2.085812762379646301e-02,-6.483904826382058673e-07,2.456667274236679077e-01,1.071616541594266891e-03,-1.926267032104078680e-06,-3.578006755560636520e-03,-1.687282919883728027e-01,4.914231300354003906e-01,1.000000000000000000e+00,-7.985432603163644671e-05,0.000000000000000000e+00
6.200885772705078125e-01,3.866362915039062500e+02,-2.084516334533691406e+01,-2.084516334533691406e+01,3.376367092132568359e-01,1.797972412109375000e+02,-9.155270527116954327e-05,-5.681128978729248047e+00,2.085812762379646301e-02,-6.483904826382058673e-07,2.456667274236679077e-01,1.071616541594266891e-03,-1.926267032104078680e-06,-3.578006755560636520e-03,-1.687282919883728027e-01,4.914231300354003906e-01,1.000000000000000000e+00,-7.985432603163644671e-05,0.000000000000000000e+00
6.200885772705078125e-01,3.866362915039062500e+02,-2.084516334533691406e+01,-2.084516334533691406e+01,3.376367092132568359e-01,1.797972412109375000e+02,-9.155270527116954327e-05,-5.681128978729248047e+00,2.085812762379646301e-02,-6.483904826382058673e-07,2.456667274236679077e-01,1.071616541594266891e-03,-1.926267032104078680e-06,-3.578006755560636520e-03,-1.687282919883728027e-01,4.914231300354003906e-01,1.000000000000000000e+00,-7.985432603163644671e-05,0.000000000000000000e+00
6.200885772705078125e-01,3.866362915039062500e+02,-2.084516334533691406e+01,-2.084516334533691406e+01,3.376367092132568359e-01,1.797972412109375000e+02,-9.155270527116954327e-05,-5.681128978729248047e+00,2.085812762379646301e-02,-6.483904826382058673e-07,2.456667274236679077e-01,1.071616541594266891e-03,-1.926267032104078680e-06,-3.578006755560636520e-03,-1.687282919883728027e-01,4.914231300354003906e-01,1.000000000000000000e+00,-7.985432603163644671e-05,0.000000000000000000e+00
7.946169376373291016e-01,3.860601196289062500e+02,-2.084305191040039062e+01,-2.084305191040039062e+01,3.370083570480346680e-01,1.797976226806640625e+02,-6.103518535383045673e-05,-5.678157806396484375e+00,2.088847383856773376e-02,-1.754468257786356844e-06,1.702400855720043182e-02,1.738755527185276151e-04,-6.337524609989486635e-06,-3.611016320064663887e-03,-1.700866371393203735e-01,5.015449523925781250e-01,1.000000000000000000e+00,-8.977254037745296955e-05,0.000000000000000000e+00
7.946169376373291016e-01,3.860601196289062500e+02,-2.084305191040039062e+01,-2.084305191040039062e+01,3.370083570480346680e-01,1.797976226806640625e+02,-6.103518535383045673e-05,-5.678157806396484375e+00,2.088847383856773376e-02,-1.754468257786356844e-06,1.702400855720043182e-02,1.738755527185276151e-04,-6.337524609989486635e-06,-3.611016320064663887e-03,-1.700866371393203735e-01,5.015449523925781250e-01,1.000000000000000000e+00,-8.977254037745296955e-05,0.000000000000000000e+00
7.946169376373291016e-01,3.860601196289062500e+02,-2.084305191040039062e+01,-2.084305191040039062e+01,3.370083570480346680e-01,1.797976226806640625e+02,-6.103518535383045673e-05,-5.678157806396484375e+00,2.088847383856773376e-02,-1.754468257786356844e-06,1.702400855720043182e-02,1.738755527185276151e-04,-6.337524609989486635e-06,-3.611016320064663887e-03,-1.700866371393203735e-01,5.015449523925781250e-01,1.000000000000000000e+00,-8.977254037745296955e-05,0.000000000000000000e+00
8.783230781555175781e-01,3.854842224121093750e+02,-2.084094429016113281e+01,-2.084094429016113281e+01,3.363799750804901123e-01,1.797984161376953125e+02,-6.103517807787284255e-05,-5.675651073455810547e+00,2.083235420286655426e-02,-1.563765181344933808e-06,2.994682267308235168e-02,-6.704363040626049042e-04,2.278244892295333557e-06,-3.813947550952434540e-03,-1.692586988210678101e-01,5.054673552513122559e-01,1.000000000000000000e+00,-9.231567673850804567e-05,0.000000000000000000e+00
8.783230781555175781e-01,3.854842224121093750e+02,-2.084094429016113281e+01,-2.084094429016113281e+01,3.363799750804901123e-01,1.797984161376953125e+02,-6.103517807787284255e-05,-5.675651073455810547e+00,2.083235420286655426e-02,-1.563765181344933808e-06,2.994682267308235168e-02,-6.704363040626049042e-04,2.278244892295333557e-06,-3.813947550952434540e-03,-1.692586988210678101e-01,5.054673552513122559e-01,1.000000000000000000e+00,-9.231567673850804567e-05,0.000000000000000000e+00
8.783230781555175781e-01,3.854842224121093750e+02,-2.084094429016113281e+01,-2.084094429016113281e+01,3.363799750804901123e-01,1.797984161376953125e+02,-6.103517807787284255e-05,-5.675651073455810547e+00,2.083235420286655426e-02,-1.563765181344933808e-06,2.994682267308235168e-02,-6.704363040626049042e-04,2.278244892295333557e-06,-3.813947550952434540e-03,-1.692586988210678101e-01,5.054673552513122559e-01,1.000000000000000000e+00,-9.231567673850804567e-05,0.000000000000000000e+00
9.483780860900878906e-01,3.850015258789062500e+02,-2.083919334411621094e+01,-2.083919334411621094e+01,3.376025855541229248e-01,1.797976531982421875e+02,-9.155275620287284255e-05,-5.723348140716552734e+00,2.079818770289421082e-02,5.721247475776181091e-07,-6.808516383171081543e-01,-4.877095925621688366e-04,3.048875441891141236e-05,-1.969638280570507050e-03,-7.281953841447830200e-02,2.283836305141448975e-01,1.000000000000000000e+00,-1.012166321743279696e-04,0.000000000000000000e+00
9.483780860900878906e-01,3.850015258789062500e+02,-2.083919334411621094e+01,-2.083919334411621094e+01,3.376025855541229248e-01,1.797976531982421875e+02,-9.155275620287284255e-05,-5.723348140716552734e+00,2.079818770289421082e-02,5.721247475776181091e-07,-6.808516383171081543e-01,-4.877095925621688366e-04,3.048875441891141236e-05,-1.969638280570507050e-03,-7.281953841447830200e-02,2.283836305141448975e-01,1.000000000000000000e+00,-1.012166321743279696e-04,0.000000000000000000e+00
9.483780860900878906e-01,3.850015258789062500e+02,-2.083919334411621094e+01,-2.083919334411621094e+01,3.376025855541229248e-01,1.797976531982421875e+02,-9.155275620287284255e-05,-5.723348140716552734e+00,2.079818770289421082e-02,5.721247475776181091e-07,-6.808516383171081543e-01,-4.877095925621688366e-04,3.048875441891141236e-05,-1.969638280570507050e-03,-7.281953841447830200e-02,2.283836305141448975e-01,1.000000000000000000e+00,-1.012166321743279696e-04,0.000000000000000000e+00
9.483780860900878906e-01,3.850015258789062500e+02,-2.083919334411621094e+01,-2.083919334411621094e+01,3.376025855541229248e-01,1.797976531982421875e+02,-9.155275620287284255e-05,-5.723348140716552734e+00,2.079818770289421082e-02,5.721247475776181091e-07,-6.808516383171081543e-01,-4.877095925621688366e-04,3.048875441891141236e-05,-1.969638280570507050e-03,-7.281953841447830200e-02,2.283836305141448975e-01,1.000000000000000000e+00,-1.012166321743279696e-04,0.000000000000000000e+00
9.483780860900878906e-01,3.845967407226562500e+02,-2.083773803710937500e+01,-2.083773803710937500e+01,3.398223817348480225e-01,1.797939758300781250e+02,-6.103520718170329928e-05,-5.814521312713623047e+00,2.105456031858921051e-02,5.244473868515342474e-07,-1.157034516334533691e+00,3.253500442951917648e-03,-6.050502179277827963e-07,1.787905115634202957e-03,1.028111129999160767e-01,-2.328389734029769897e-01,1.000000000000000000e+00,-1.065572068910114467e-04,0.000000000000000000e+00
1.027177095413208008e+00,3.845967407226562500e+02,-2.083773803710937500e+01,-2.083773803710937500e+01,3.398223817348480225e-01,1.797939758300781250e+02,-6.103520718170329928e-05,-5.814521312713623047e+00,2.105456031858921051e-02,5.244473868515342474e-07,-1.157034516334533691e+00,3.253500442951917648e-03,-6.050502179277827963e-07,1.787905115634202957e-03,1.028111129999160767e-01,-2.328389734029769897e-01,1.000000000000000000e+00,-1.065572068910114467e-04,0.000000000000000000e+00
1.027177095413208008e+00,3.845967407226562500e+02,-2.083773803710937500e+01,-2.083773803710937500e+01,3.398223817348480225e-01,1.797939758300781250e+02,-6.103520718170329928e-05,-5.814521312713623047e+00,2.105456031858921051e-02,5.244473868515342474e-07,-1.157034516334533691e+00,3.253500442951917648e-03,-6.050502179277827963e-07,1.787905115634202957e-03,1.028111129999160767e-01,-2.328389734029769897e-01,1.000000000000000000e+00,-1.065572068910114467e-04,0.000000000000000000e+00
1.095043420791625977e+00,3.841431579589843750e+02,-2.083608818054199219e+01,-2.083608818054199219e+01,3.387090563774108887e-01,1.797983551025390625e+02,-1.220702906721271574e-04,-5.697834968566894531e+00,2.062586322426795959e-02,5.530439466383541003e-07,1.719355583190917969e+00,-6.316786631941795349e-03,4.213659678953263210e-07,-3.156893188133835793e-03,-1.321738362312316895e-01,3.770831227302551270e-01,1.000000000000000000e+00,-5.340576171875000000e-05,0.000000000000000000e+00
1.095043420791625977e+00,3.841431579589843750e+02,-2.083608818054199219e+01,-2.083608818054199219e+01,3.387090563774108887e-01,1.797983551025390625e+02,-1.220702906721271574e-04,-5.697834968566894531e+00,2.062586322426795959e-02,5.530439466383541003e-07,1.719355583190917969e+00,-6.316786631941795349e-03,4.213659678953263210e-07,-3.156893188133835793e-03,-1.321738362312316895e-01,3.770831227302551270e-01,1.000000000000000000e+00,-5.340576171875000000e-05,0.000000000000000000e+00
1.095043420791625977e+00,3.841431579589843750e+02,-2.083608818054199219e+01,-2.083608818054199219e+01,3.387090563774108887e-01,1.797983551025390625e+02,-1.220702906721271574e-04,-5.697834968566894531e+00,2.062586322426795959e-02,5.530439466383541003e-07,1.719355583190917969e+00,-6.316786631941795349e-03,4.213659678953263210e-07,-3.156893188133835793e-03,-1.321738362312316895e-01,3.770831227302551270e-01,1.000000000000000000e+00,-5.340576171875000000e-05,0.000000000000000000e+00
1.095043420791625977e+00,3.841431579589843750e+02,-2.083608818054199219e+01,-2.083608818054199219e+01,3.387090563774108887e-01,1.797983551025390625e+02,-1.220702906721271574e-04,-5.697834968566894531e+00,2.062586322426795959e-02,5.530439466383541003e-07,1.719355583190917969e+00,-6.316786631941795349e-03,4.213659678953263210e-07,-3.156893188133835793e-03,-1.321738362312316895e-01,3.770831227302551270e-01,1.000000000000000000e+00,-5.340576171875000000e-05,0.000000000000000000e+00
1.168572425842285156e+00,3.837507324218750000e+02,-2.083468055725097656e+01,-2.083468055725097656e+01,3.408947288990020752e-01,1.797939147949218750e+02,-9.155274165095761418e-05,-5.812285423278808594e+00,2.108238451182842255e-02,3.718824928000685759e-07,-1.556534767150878906e+00,6.208723876625299454e-03,-2.463809323671739548e-06,2.013403922319412231e-03,9.098801016807556152e-02,-2.176557779312133789e-01,1.000000000000000000e+00,-1.185099317808635533e-04,0.000000000000000000e+00
1.168572425842285156e+00,3.837507324218750000e+02,-2.083468055725097656e+01,-2.083468055725097656e+01,3.408947288990020752e-01,1.797939147949218750e+02,-9.155274165095761418e-05,-5.812285423278808594e+00,2.108238451182842255e-02,3.718824928000685759e-07,-1.556534767150878906e+00,6.208723876625299454e-03,-2.463809323671739548e-06,2.013403922319412231e-03,9.098801016807556152e-02,-2.176557779312133789e-01,1.000000000000000000e+00,-1.185099317808635533e-04,0.000000000000000000e+00
1.168572425842285156e+00,3.837507324218750000e+02,-2.083468055725097656e+01,-2.083468055725097656e+01,3.408947288990020752e-01,1.797939147949218750e+02,-9.155274165095761418e-05,-5.812285423278808594e+00,2.108238451182842255e-02,3.718824928000685759e-07,-1.556534767150878906e+00,6.208723876625299454e-03,-2.463809323671739548e-06,2.013403922319412231e-03,9.098801016807556152e-02,-2.176557779312133789e-01,1.000000000000000000e+00,-1.185099317808635533e-04,0.000000000000000000e+00
1.168572425842285156e+00,3.837507324218750000e+02,-2.083468055725097656e+01,-2.083468055725097656e+01,3.408947288990020752e-01,1.797939147949218750e+02,-9.155274165095761418e-05,-5.812285423278808594e+00,2.108238451182842255e-02,3.718824928000685759e-07,-1.556534767150878906e+00,6.208723876625299454e-03,-2.463809323671739548e-06,2.013403922319412231e-03,9.098801016807556152e-02,-2.176557779312133789e-01,1.000000000000000000e+00,-1.185099317808635533e-04,0.000000000000000000e+00
1.168572425842285156e+00,3.833269348144531250e+02,-2.083313751220703125e+01,-2.083313751220703125e+01,3.402595221996307373e-01,1.797964630126953125e+02,-9.155267616733908653e-05,-5.718990325927734375e+00,2.077267877757549286e-02,-9.249280310541507788e-07,1.243131637573242188e+00,-4.126743879169225693e-03,-1.727964445308316499e-05,-1.933386782184243202e-03,-9.928587824106216431e-02,2.645671367645263672e-01,1.000000000000000000e+00,-6.205240788403898478e-05,0.000000000000000000e+00
1.243620872497558594e+00,3.833269348144531250e+02,-2.083313751220703125e+01,-2.083313751220703125e+01,3.402595221996307373e-01,1.797964630126953125e+02,-9.155267616733908653e-05,-5.718990325927734375e+00,2.077267877757549286e-02,-9.249280310541507788e-07,1.243131637573242188e+00,-4.126743879169225693e-03,-1.727964445308316499e-05,-1.933386782184243202e-03,-9.928587824106216431e-02,2.645671367645263672e-01,1.000000000000000000e+00,-6.205240788403898478e-05,0.000000000000000000e+00
1.243620872497558594e+00,3.833269348144531250e+02,-2.083313751220703125e+01,-2.083313751220703125e+01,3.402595221996307373e-01,1.797964630126953125e+02,-9.155267616733908653e-05,-5.718990325927734375e+00,2.077267877757549286e-02,-9.249280310541507788e-07,1.243131637573242188e+00,-4.126743879169225693e-03,-1.727964445308316499e-05,-1.933386782184243202e-03,-9.928587824106216431e-02,2.645671367645263672e-01,1.000000000000000000e+00,-6.205240788403898478e-05,0.000000000000000000e+00
1.243620872497558594e+00,3.833269348144531250e+02,-2.083313751220703125e+01,-2.083313751220703125e+01,3.402595221996307373e-01,1.797964630126953125e+02,-9.155267616733908653e-05,-5.718990325927734375e+00,2.077267877757549286e-02,-9.249280310541507788e-07,1.243131637573242188e+00,-4.126743879169225693e-03,-1.727964445308316499e-05,-1.933386782184243202e-03,-9.928587824106216431e-02,2.645671367645263672e-01,1.000000000000000000e+00,-6.205240788403898478e-05,0.000000000000000000e+00
1.312042951583862305e+00,3.828927612304687500e+02,-2.083157348632812500e+01,-2.083157348632812500e+01,3.423495590686798096e-01,1.797907104492187500e+02,-3.051758176297880709e-05,-5.832597732543945312e+00,2.123402245342731476e-02,1.172843326457950752e-06,-1.660391092300415039e+00,6.742614321410655975e-03,3.065927739953622222e-05,3.124674083665013313e-03,1.206695735454559326e-01,-3.374607264995574951e-01,1.000000000000000000e+00,-9.129841782851144671e-05,0.000000000000000000e+00
1.312042951583862305e+00,3.828927612304687500e+02,-2.083157348632812500e+01,-2.083157348632812500e+01,3.423495590686798096e-01,1.797907104492187500e+02,-3.051758176297880709e-05,-5.832597732543945312e+00,2.123402245342731476e-02,1.172843326457950752e-06,-1.660391092300415039e+00,6.742614321410655975e-03,3.065927739953622222e-05,3.124674083665013313e-03,1.206695735454559326e-01,-3.374607264995574951e-01,1.000000000000000000e+00,-9.129841782851144671e-05,0.000000000000000000e+00
1.383129358291625977e+00,3.824981994628906250e+02,-2.083013343811035156e+01,-2.083013343811035156e+01,3.414001464843750000e-01,1.797929992675781250e+02,-3.051757812500000000e-05,-5.736150264739990234e+00,2.089496329426765442e-02,-1.945229314515017904e-06,1.356763839721679688e+00,-4.769676364958286285e-03,-4.386313230497762561e-05,-1.371304620988667011e-03,-7.613734155893325806e-02,1.924068182706832886e-01,1.000000000000000000e+00,-4.323323537391843274e-06,0.000000000000000000e+00
1.383129358291625977e+00,3.824981994628906250e+02,-2.083013343811035156e+01,-2.083013343811035156e+01,3.414001464843750000e-01,1.797929992675781250e+02,-3.051757812500000000e-05,-5.736150264739990234e+00,2.089496329426765442e-02,-1.945229314515017904e-06,1.356763839721679688e+00,-4.769676364958286285e-03,-4.386313230497762561e-05,-1.371304620988667011e-03,-7.613734155893325806e-02,1.924068182706832886e-01,1.000000000000000000e+00,-4.323323537391843274e-06,0.000000000000000000e+00
1.383129358291625977e+00,3.824981994628906250e+02,-2.083013343811035156e+01,-2.083013343811035156e+01,3.414001464843750000e-01,1.797929992675781250e+02,-3.051757812500000000e-05,-5.736150264739990234e+00,2.089496329426765442e-02,-1.945229314515017904e-06,1.356763839721679688e+00,-4.769676364958286285e-03,-4.386313230497762561e-05,-1.371304620988667011e-03,-7.613734155893325806e-02,1.924068182706832886e-01,1.000000000000000000e+00,-4.323323537391843274e-06,0.000000000000000000e+00
1.450951814651489258e+00,3.820869140625000000e+02,-2.082864379882812500e+01,-2.082864379882812500e+01,3.427798449993133545e-01,1.797890167236328125e+02,2.626041714393068105e-05,-5.824594974517822266e+00,2.127294242382049561e-02,-7.151541012717643753e-07,-1.304062366485595703e+00,5.573067348450422287e-03,1.813669587136246264e-05,2.331551397219300270e-03,9.398476034402847290e-02,-2.459431141614913940e-01,1.000000000000000000e+00,-3.077189103350974619e-05,0.000000000000000000e+00
1.450951814651489258e+00,3.820869140625000000e+02,-2.082864379882812500e+01,-2.082864379882812500e+01,3.427798449993133545e-01,1.797890167236328125e+02,2.626041714393068105e-05,-5.824594974517822266e+00,2.127294242382049561e-02,-7.151541012717643753e-07,-1.304062366485595703e+00,5.573067348450422287e-03,1.813669587136246264e-05,2.331551397219300270e-03,9.398476034402847290e-02,-2.459431141614913940e-01,1.000000000000000000e+00,-3.077189103350974619e-05,0.000000000000000000e+00
1.450951814651489258e+00,3.820869140625000000e+02,-2.082864379882812500e+01,-2.082864379882812500e+01,3.427798449993133545e-01,1.797890167236328125e+02,2.626041714393068105e-05,-5.824594974517822266e+00,2.127294242382049561e-02,-7.151541012717643753e-07,-1.304062366485595703e+00,5.573067348450422287e-03,1.813669587136246264e-05,2.331551397219300270e-03,9.398476034402847290e-02,-2.459431141614913940e-01,1.000000000000000000e+00,-3.077189103350974619e-05,0.000000000000000000e+00
1.527701377868652344e+00,3.816955871582031250e+02,-2.082720375061035156e+01,-2.082720375061035156e+01,3.416528701782226562e-01,1.797912445068359375e+02,2.134102032869122922e-05,-5.740180015563964844e+00,2.096867561340332031e-02,9.535448874942176190e-09,1.099875450134277344e+00,-3.964411094784736633e-03,9.442263035452924669e-06,-1.369446166791021824e-03,-7.694621384143829346e-02,1.796489655971527100e-01,1.000000000000000000e+00,2.899169885495211929e-05,0.000000000000000000e+00
1.527701377868652344e+00,3.816955871582031250e+02,-2.082720375061035156e+01,-2.082720375061035156e+01,3.416528701782226562e-01,1.797912445068359375e+02,2.134102032869122922e-05,-5.740180015563964844e+00,2.096867561340332031e-02,9.535448874942176190e-09,1.099875450134277344e+00,-3.964411094784736633e-03,9.442263035452924669e-06,-1.369446166791021824e-03,-7.694621384143829346e-02,1.796489655971527100e-01,1.000000000000000000e+00,2.899169885495211929e-05,0.000000000000000000e+00
1.527701377868652344e+00,3.816955871582031250e+02,-2.082720375061035156e+01,-2.082720375061035156e+01,3.416528701782226562e-01,1.797912445068359375e+02,2.134102032869122922e-05,-5.740180015563964844e+00,2.096867561340332031e-02,9.535448874942176190e-09,1.099875450134277344e+00,-3.964411094784736633e-03,9.442263035452924669e-06,-1.369446166791021824e-03,-7.694621384143829346e-02,1.796489655971527100e-01,1.000000000000000000e+00,2.899169885495211929e-05,0.000000000000000000e+00
1.600134611129760742e+00,3.812513732910156250e+02,-2.082559776306152344e+01,-2.082559776306152344e+01,3.428754806518554688e-01,1.797868041992187500e+02,6.683070387225598097e-05,-5.840361118316650391e+00,2.133231610059738159e-02,5.816520456392026972e-07,-1.383082032203674316e+00,5.020354408770799637e-03,7.898537660366855562e-06,2.823449904099106789e-03,1.185413524508476257e-01,-3.388913571834564209e-01,1.000000000000000000e+00,5.086263172415783629e-06,0.000000000000000000e+00
1.600134611129760742e+00,3.812513732910156250e+02,-2.082559776306152344e+01,-2.082559776306152344e+01,3.428754806518554688e-01,1.797868041992187500e+02,6.683070387225598097e-05,-5.840361118316650391e+00,2.133231610059738159e-02,5.816520456392026972e-07,-1.383082032203674316e+00,5.020354408770799637e-03,7.898537660366855562e-06,2.823449904099106789e-03,1.185413524508476257e-01,-3.388913571834564209e-01,1.000000000000000000e+00,5.086263172415783629e-06,0.000000000000000000e+00
1.600134611129760742e+00,3.812513732910156250e+02,-2.082559776306152344e+01,-2.082559776306152344e+01,3.428754806518554688e-01,1.797868041992187500e+02,6.683070387225598097e-05,-5.840361118316650391e+00,2.133231610059738159e-02,5.816520456392026972e-07,-1.383082032203674316e+00,5.020354408770799637e-03,7.898537660366855562e-06,2.823449904099106789e-03,1.185413524508476257e-01,-3.388913571834564209e-01,1.000000000000000000e+00,5.086263172415783629e-06,0.000000000000000000e+00
1.600134611129760742e+00,3.812513732910156250e+02,-2.082559776306152344e+01,-2.082559776306152344e+01,3.428754806518554688e-01,1.797868041992187500e+02,6.683070387225598097e-05,-5.840361118316650391e+00,2.133231610059738159e-02,5.816520456392026972e-07,-1.383082032203674316e+00,5.020354408770799637e-03,7.898537660366855562e-06,2.823449904099106789e-03,1.185413524508476257e-01,-3.388913571834564209e-01,1.000000000000000000e+00,5.086263172415783629e-06,0.000000000000000000e+00
1.600134611129760742e+00,3.812513732910156250e+02,-2.082559776306152344e+01,-2.082559776306152344e+01,3.428754806518554688e-01,1.797868041992187500e+02,6.683070387225598097e-05,-5.840361118316650391e+00,2.133231610059738159e-02,5.816520456392026972e-07,-1.383082032203674316e+00,5.020354408770799637e-03,7.898537660366855562e-06,2.823449904099106789e-03,1.185413524508476257e-01,-3.388913571834564209e-01,1.000000000000000000e+00,5.086263172415783629e-06,0.000000000000000000e+00
1.600134611129760742e+00,3.808336181640625000e+02,-2.082405662536621094e+01,-2.082405662536621094e+01,3.408879041671752930e-01,1.797911224365234375e+02,2.785428296192549169e-05,-5.727153301239013672e+00,2.090143598616123199e-02,-2.765254976111464202e-07,9.811833500862121582e-01,-3.734480589628219604e-03,-7.437909516738727689e-06,-2.438149880617856979e-03,-1.076556369662284851e-01,2.794490158557891846e-01,1.000000000000000000e+00,7.375081622740253806e-05,0.000000000000000000e+00
1.715513467788696289e+00,3.808336181640625000e+02,-2.082405662536621094e+01,-2.082405662536621094e+01,3.408879041671752930e-01,1.797911224365234375e+02,2.785428296192549169e-05,-5.727153301239013672e+00,2.090143598616123199e-02,-2.765254976111464202e-07,9.811833500862121582e-01,-3.734480589628219604e-03,-7.437909516738727689e-06,-2.438149880617856979e-03,-1.076556369662284851e-01,2.794490158557891846e-01,1.000000000000000000e+00,7.375081622740253806e-05,0.000000000000000000e+00
1.715513467788696289e+00,3.808336181640625000e+02,-2.082405662536621094e+01,-2.082405662536621094e+01,3.408879041671752930e-01,1.797911224365234375e+02,2.785428296192549169e-05,-5.727153301239013672e+00,2.090143598616123199e-02,-2.765254976111464202e-07,9.811833500862121582e-01,-3.734480589628219604e-03,-7.437909516738727689e-06,-2.438149880617856979e-03,-1.076556369662284851e-01,2.794490158557891846e-01,1.000000000000000000e+00,7.375081622740253806e-05,0.000000000000000000e+00
1.715513467788696289e+00,3.802565002441406250e+02,-2.082193565368652344e+01,-2.082193565368652344e+01,3.389344513416290283e-01,1.797931671142578125e+02,2.579542160674463958e-05,-5.688625335693359375e+00,2.100155875086784363e-02,2.288436888875367003e-07,3.947470784187316895e-01,1.025830628350377083e-03,5.177875664230668917e-06,-3.741684369742870331e-03,-1.820263862609863281e-01,5.013443231582641602e-01,1.000000000000000000e+00,1.322428397543262690e-05,0.000000000000000000e+00
1.813115119934082031e+00,3.802565002441406250e+02,-2.082193565368652344e+01,-2.082193565368652344e+01,3.389344513416290283e-01,1.797931671142578125e+02,2.579542160674463958e-05,-5.688625335693359375e+00,2.100155875086784363e-02,2.288436888875367003e-07,3.947470784187316895e-01,1.025830628350377083e-03,5.177875664230668917e-06,-3.741684369742870331e-03,-1.820263862609863281e-01,5.013443231582641602e-01,1.000000000000000000e+00,1.322428397543262690e-05,0.000000000000000000e+00
1.813115119934082031e+00,3.802565002441406250e+02,-2.082193565368652344e+01,-2.082193565368652344e+01,3.389344513416290283e-01,1.797931671142578125e+02,2.579542160674463958e-05,-5.688625335693359375e+00,2.100155875086784363e-02,2.288436888875367003e-07,3.947470784187316895e-01,1.025830628350377083e-03,5.177875664230668917e-06,-3.741684369742870331e-03,-1.820263862609863281e-01,5.013443231582641602e-01,1.000000000000000000e+00,1.322428397543262690e-05,0.000000000000000000e+00
1.813115119934082031e+00,3.802565002441406250e+02,-2.082193565368652344e+01,-2.082193565368652344e+01,3.389344513416290283e-01,1.797931671142578125e+02,2.579542160674463958e-05,-5.688625335693359375e+00,2.100155875086784363e-02,2.288436888875367003e-07,3.947470784187316895e-01,1.025830628350377083e-03,5.177875664230668917e-06,-3.741684369742870331e-03,-1.820263862609863281e-01,5.013443231582641602e-01,1.000000000000000000e+00,1.322428397543262690e-05,0.000000000000000000e+00
1.813115119934082031e+00,3.796933898925781250e+02,-2.081986618041992188e+01,-2.081986618041992188e+01,3.374591469764709473e-01,1.797943725585937500e+02,2.109426532115321606e-05,-5.692138671875000000e+00,2.097150497138500214e-02,-2.097742139994807076e-07,-4.231929033994674683e-02,-3.620076749939471483e-04,-5.283297014102572575e-06,-3.703090362250804901e-03,-1.662926673889160156e-01,4.707767963409423828e-01,1.000000000000000000e+00,-9.155273801297880709e-06,0.000000000000000000e+00
1.896134853363037109e+00,3.796933898925781250e+02,-2.081986618041992188e+01,-2.081986618041992188e+01,3.374591469764709473e-01,1.797943725585937500e+02,2.109426532115321606e-05,-5.692138671875000000e+00,2.097150497138500214e-02,-2.097742139994807076e-07,-4.231929033994674683e-02,-3.620076749939471483e-04,-5.283297014102572575e-06,-3.703090362250804901e-03,-1.662926673889160156e-01,4.707767963409423828e-01,1.000000000000000000e+00,-9.155273801297880709e-06,0.000000000000000000e+00
1.896134853363037109e+00,3.796933898925781250e+02,-2.081986618041992188e+01,-2.081986618041992188e+01,3.374591469764709473e-01,1.797943725585937500e+02,2.109426532115321606e-05,-5.692138671875000000e+00,2.097150497138500214e-02,-2.097742139994807076e-07,-4.231929033994674683e-02,-3.620076749939471483e-04,-5.283297014102572575e-06,-3.703090362250804901e-03,-1.662926673889160156e-01,4.707767963409423828e-01,1.000000000000000000e+00,-9.155273801297880709e-06,0.000000000000000000e+00
1.896134853363037109e+00,3.796933898925781250e+02,-2.081986618041992188e+01,-2.081986618041992188e+01,3.374591469764709473e-01,1.797943725585937500e+02,2.109426532115321606e-05,-5.692138671875000000e+00,2.097150497138500214e-02,-2.097742139994807076e-07,-4.231929033994674683e-02,-3.620076749939471483e-04,-5.283297014102572575e-06,-3.703090362250804901e-03,-1.662926673889160156e-01,4.707767963409423828e-01,1.000000000000000000e+00,-9.155273801297880709e-06,0.000000000000000000e+00
1.896134853363037109e+00,3.796933898925781250e+02,-2.081986618041992188e+01,-2.081986618041992188e+01,3.374591469764709473e-01,1.797943725585937500e+02,2.109426532115321606e-05,-5.692138671875000000e+00,2.097150497138500214e-02,-2.097742139994807076e-07,-4.231929033994674683e-02,-3.620076749939471483e-04,-5.283297014102572575e-06,-3.703090362250804901e-03,-1.662926673889160156e-01,4.707767963409423828e-01,1.000000000000000000e+00,-9.155273801297880709e-06,0.000000000000000000e+00
1.896134853363037109e+00,3.796933898925781250e+02,-2.081986618041992188e+01,-2.081986618041992188e+01,3.374591469764709473e-01,1.797943725585937500e+02,2.109426532115321606e-05,-5.692138671875000000e+00,2.097150497138500214e-02,-2.097742139994807076e-07,-4.231929033994674683e-02,-3.620076749939471483e-04,-5.283297014102572575e-06,-3.703090362250804901e-03,-1.662926673889160156e-01,4.707767963409423828e-01,1.000000000000000000e+00,-9.155273801297880709e-06,0.000000000000000000e+00
1.896134853363037109e+00,3.796933898925781250e+02,-2.081986618041992188e+01,-2.081986618041992188e+01,3.374591469764709473e-01,1.797943725585937500e+02,2.109426532115321606e-05,-5.692138671875000000e+00,2.097150497138500214e-02,-2.097742139994807076e-07,-4.231929033994674683e-02,-3.620076749939471483e-04,-5.283297014102572575e-06,-3.703090362250804901e-03,-1.662926673889160156e-01,4.707767963409423828e-01,1.000000000000000000e+00,-9.155273801297880709e-06,0.000000000000000000e+00
1.896134853363037109e+00,3.796933898925781250e+02,-2.081986618041992188e+01,-2.081986618041992188e+01,3.374591469764709473e-01,1.797943725585937500e+02,2.109426532115321606e-05,-5.692138671875000000e+00,2.097150497138500214e-02,-2.097742139994807076e-07,-4.231929033994674683e-02,-3.620076749939471483e-04,-5.283297014102572575e-06,-3.703090362250804901e-03,-1.662926673889160156e-01,4.707767963409423828e-01,1.000000000000000000e+00,-9.155273801297880709e-06,0.000000000000000000e+00
2.195794820785522461e+00,3.781317138671875000e+02,-2.081422805786132812e+01,-2.081422805786132812e+01,3.378416299819946289e-01,1.797930603027343750e+02,-1.525878469692543149e-04,-5.823115825653076172e+00,2.076570875942707062e-02,1.449373144168930594e-06,3.799310624599456787e-01,-1.667842152528464794e-04,1.832692214520648122e-05,1.513477065600454807e-03,1.141102835536003113e-01,-2.734434604644775391e-01,1.000000000000000000e+00,1.017252634483156726e-05,0.000000000000000000e+00
2.195794820785522461e+00,3.781317138671875000e+02,-2.081422805786132812e+01,-2.081422805786132812e+01,3.378416299819946289e-01,1.797930603027343750e+02,-1.525878469692543149e-04,-5.823115825653076172e+00,2.076570875942707062e-02,1.449373144168930594e-06,3.799310624599456787e-01,-1.667842152528464794e-04,1.832692214520648122e-05,1.513477065600454807e-03,1.141102835536003113e-01,-2.734434604644775391e-01,1.000000000000000000e+00,1.017252634483156726e-05,0.000000000000000000e+00
2.195794820785522461e+00,3.781317138671875000e+02,-2.081422805786132812e+01,-2.081422805786132812e+01,3.378416299819946289e-01,1.797930603027343750e+02,-1.525878469692543149e-04,-5.823115825653076172e+00,2.076570875942707062e-02,1.449373144168930594e-06,3.799310624599456787e-01,-1.667842152528464794e-04,1.832692214520648122e-05,1.513477065600454807e-03,1.141102835536003113e-01,-2.734434604644775391e-01,1.000000000000000000e+00,1.017252634483156726e-05,0.000000000000000000e+00
2.195794820785522461e+00,3.781317138671875000e+02,-2.081422805786132812e+01,-2.081422805786132812e+01,3.378416299819946289e-01,1.797930603027343750e+02,-1.525878469692543149e-04,-5.823115825653076172e+00,2.076570875942707062e-02,1.449373144168930594e-06,3.799310624599456787e-01,-1.667842152528464794e-04,1.832692214520648122e-05,1.513477065600454807e-03,1.141102835536003113e-01,-2.734434604644775391e-01,1.000000000000000000e+00,1.017252634483156726e-05,0.000000000000000000e+00
2.195794820785522461e+00,3.781317138671875000e+02,-2.081422805786132812e+01,-2.081422805786132812e+01,3.378416299819946289e-01,1.797930603027343750e+02,-1.525878469692543149e-04,-5.823115825653076172e+00,2.076570875942707062e-02,1.449373144168930594e-06,3.799310624599456787e-01,-1.667842152528464794e-04,1.832692214520648122e-05,1.513477065600454807e-03,1.141102835536003113e-01,-2.734434604644775391e-01,1.000000000000000000e+00,1.017252634483156726e-05,0.000000000000000000e+00
2.195794820785522461e+00,3.781317138671875000e+02,-2.081422805786132812e+01,-2.081422805786132812e+01,3.378416299819946289e-01,1.797930603027343750e+02,-1.525878469692543149e-04,-5.823115825653076172e+00,2.076570875942707062e-02,1.449373144168930594e-06,3.799310624599456787e-01,-1.667842152528464794e-04,1.832692214520648122e-05,1.513477065600454807e-03,1.141102835536003113e-01,-2.734434604644775391e-01,1.000000000000000000e+00,1.017252634483156726e-05,0.000000000000000000e+00
2.195794820785522461e+00,3.781317138671875000e+02,-2.081422805786132812e+01,-2.081422805786132812e+01,3.378416299819946289e-01,1.797930603027343750e+02,-1.525878469692543149e-04,-5.823115825653076172e+00,2.076570875942707062e-02,1.449373144168930594e-06,3.799310624599456787e-01,-1.667842152528464794e-04,1.832692214520648122e-05,1.513477065600454807e-03,1.141102835536003113e-01,-2.734434604644775391e-01,1.000000000000000000e+00,1.017252634483156726e-05,0.000000000000000000e+00
2.195794820785522461e+00,3.781317138671875000e+02,-2.081422805786132812e+01,-2.081422805786132812e+01,3.378416299819946289e-01,1.797930603027343750e+02,-1.525878469692543149e-04,-5.823115825653076172e+00,2.076570875942707062e-02,1.449373144168930594e-06,3.799310624599456787e-01,-1.667842152528464794e-04,1.832692214520648122e-05,1.513477065600454807e-03,1.141102835536003113e-01,-2.734434604644775391e-01,1.000000000000000000e+00,1.017252634483156726e-05,0.000000000000000000e+00
2.195794820785522461e+00,3.781317138671875000e+02,-2.081422805786132812e+01,-2.081422805786132812e+01,3.378416299819946289e-01,1.797930603027343750e+02,-1.525878469692543149e-04,-5.823115825653076172e+00,2.076570875942707062e-02,1.449373144168930594e-06,3.799310624599456787e-01,-1.667842152528464794e-04,1.832692214520648122e-05,1.513477065600454807e-03,1.141102835536003113e-01,-2.734434604644775391e-01,1.000000000000000000e+00,1.017252634483156726e-05,0.000000000000000000e+00
2.195794820785522461e+00,3.781317138671875000e+02,-2.081422805786132812e+01,-2.081422805786132812e+01,3.378416299819946289e-01,1.797930603027343750e+02,-1.525878469692543149e-04,-5.823115825653076172e+00,2.076570875942707062e-02,1.449373144168930594e-06,3.799310624599456787e-01,-1.667842152528464794e-04,1.832692214520648122e-05,1.513477065600454807e-03,1.141102835536003113e-01,-2.734434604644775391e-01,1.000000000000000000e+00,1.017252634483156726e-05,0.000000000000000000e+00
2.374083757400512695e+00,3.778254699707031250e+02,-2.081312370300292969e+01,-2.081312370300292969e+01,3.382650911808013916e-01,1.797942199707031250e+02,-1.831054978538304567e-04,-5.808629512786865234e+00,2.086147665977478027e-02,6.484124241978861392e-07,8.125188946723937988e-02,5.371499573811888695e-04,-4.492486823437502608e-06,1.352963503450155258e-03,8.302525430917739868e-02,-1.700866371393203735e-01,1.000000000000000000e+00,-4.831949991057626903e-05,0.000000000000000000e+00
2.374083757400512695e+00,3.778254699707031250e+02,-2.081312370300292969e+01,-2.081312370300292969e+01,3.382650911808013916e-01,1.797942199707031250e+02,-1.831054978538304567e-04,-5.808629512786865234e+00,2.086147665977478027e-02,6.484124241978861392e-07,8.125188946723937988e-02,5.371499573811888695e-04,-4.492486823437502608e-06,1.352963503450155258e-03,8.302525430917739868e-02,-1.700866371393203735e-01,1.000000000000000000e+00,-4.831949991057626903e-05,0.000000000000000000e+00
2.374083757400512695e+00,3.778254699707031250e+02,-2.081312370300292969e+01,-2.081312370300292969e+01,3.382650911808013916e-01,1.797942199707031250e+02,-1.831054978538304567e-04,-5.808629512786865234e+00,2.086147665977478027e-02,6.484124241978861392e-07,8.125188946723937988e-02,5.371499573811888695e-04,-4.492486823437502608e-06,1.352963503450155258e-03,8.302525430917739868e-02,-1.700866371393203735e-01,1.000000000000000000e+00,-4.831949991057626903e-05,0.000000000000000000e+00
2.447860002517700195e+00,3.772482604980468750e+02,-2.081105422973632812e+01,-2.081105422973632812e+01,3.393784165382385254e-01,1.797924194335937500e+02,-1.525878178654238582e-04,-5.847863197326660156e+00,2.093484625220298767e-02,-2.288436888875367003e-07,-5.317929387092590332e-01,9.944880148395895958e-04,-1.189076738228322938e-05,3.820061916485428810e-03,1.630529314279556274e-01,-4.808649420738220215e-01,1.000000000000000000e+00,-7.553100294899195433e-05,0.000000000000000000e+00
2.447860002517700195e+00,3.772482604980468750e+02,-2.081105422973632812e+01,-2.081105422973632812e+01,3.393784165382385254e-01,1.797924194335937500e+02,-1.525878178654238582e-04,-5.847863197326660156e+00,2.093484625220298767e-02,-2.288436888875367003e-07,-5.317929387092590332e-01,9.944880148395895958e-04,-1.189076738228322938e-05,3.820061916485428810e-03,1.630529314279556274e-01,-4.808649420738220215e-01,1.000000000000000000e+00,-7.553100294899195433e-05,0.000000000000000000e+00
2.500878810882568359e+00,3.768234252929687500e+02,-2.080950546264648438e+01,-2.080950546264648438e+01,3.380943536758422852e-01,1.797977600097656250e+02,-1.525879051769152284e-04,-5.716655731201171875e+00,2.063049748539924622e-02,-1.020280933516914956e-06,2.474734306335449219e+00,-5.740392487496137619e-03,-1.492748015152756125e-05,-2.045834669843316078e-03,-1.012961789965629578e-01,3.070665597915649414e-01,1.000000000000000000e+00,-4.882812572759576142e-05,0.000000000000000000e+00
2.500878810882568359e+00,3.768234252929687500e+02,-2.080950546264648438e+01,-2.080950546264648438e+01,3.380943536758422852e-01,1.797977600097656250e+02,-1.525879051769152284e-04,-5.716655731201171875e+00,2.063049748539924622e-02,-1.020280933516914956e-06,2.474734306335449219e+00,-5.740392487496137619e-03,-1.492748015152756125e-05,-2.045834669843316078e-03,-1.012961789965629578e-01,3.070665597915649414e-01,1.000000000000000000e+00,-4.882812572759576142e-05,0.000000000000000000e+00
2.500878810882568359e+00,3.765171813964843750e+02,-2.080840110778808594e+01,-2.080840110778808594e+01,3.389344513416290283e-01,1.797967376708984375e+02,-1.220703416038304567e-04,-5.739947795867919922e+00,2.089267037808895111e-02,-1.907095708020278835e-07,-3.926734030246734619e-01,4.419887904077768326e-03,1.398547556163975969e-05,-4.415151779539883137e-04,-5.720100179314613342e-02,1.685684770345687866e-01,1.000000000000000000e+00,-1.314799010287970304e-04,0.000000000000000000e+00
2.560195446014404297e+00,3.765171813964843750e+02,-2.080840110778808594e+01,-2.080840110778808594e+01,3.389344513416290283e-01,1.797967376708984375e+02,-1.220703416038304567e-04,-5.739947795867919922e+00,2.089267037808895111e-02,-1.907095708020278835e-07,-3.926734030246734619e-01,4.419887904077768326e-03,1.398547556163975969e-05,-4.415151779539883137e-04,-5.720100179314613342e-02,1.685684770345687866e-01,1.000000000000000000e+00,-1.314799010287970304e-04,0.000000000000000000e+00
2.560195446014404297e+00,3.765171813964843750e+02,-2.080840110778808594e+01,-2.080840110778808594e+01,3.389344513416290283e-01,1.797967376708984375e+02,-1.220703416038304567e-04,-5.739947795867919922e+00,2.089267037808895111e-02,-1.907095708020278835e-07,-3.926734030246734619e-01,4.419887904077768326e-03,1.398547556163975969e-05,-4.415151779539883137e-04,-5.720100179314613342e-02,1.685684770345687866e-01,1.000000000000000000e+00,-1.314799010287970304e-04,0.000000000000000000e+00
2.618730545043945312e+00,3.761747131347656250e+02,-2.080715370178222656e+01,-2.080715370178222656e+01,3.392486572265625000e-01,1.797966156005859375e+02,-6.103519990574568510e-05,-5.720110893249511719e+00,2.094680815935134888e-02,-3.623424902343685972e-07,3.388890326023101807e-01,9.248772403225302696e-04,-2.932136794697726145e-06,-1.080398564226925373e-03,-1.009862720966339111e-01,2.605891525745391846e-01,1.000000000000000000e+00,-1.230875641340389848e-04,0.000000000000000000e+00
2.618730545043945312e+00,3.761747131347656250e+02,-2.080715370178222656e+01,-2.080715370178222656e+01,3.392486572265625000e-01,1.797966156005859375e+02,-6.103519990574568510e-05,-5.720110893249511719e+00,2.094680815935134888e-02,-3.623424902343685972e-07,3.388890326023101807e-01,9.248772403225302696e-04,-2.932136794697726145e-06,-1.080398564226925373e-03,-1.009862720966339111e-01,2.605891525745391846e-01,1.000000000000000000e+00,-1.230875641340389848e-04,0.000000000000000000e+00
2.677334070205688477e+00,3.758366394042968750e+02,-2.080591964721679688e+01,-2.080591964721679688e+01,3.396311402320861816e-01,1.797956848144531250e+02,5.211112444336585270e-11,-5.721887111663818359e+00,2.102791517972946167e-02,-4.100199646472901804e-07,-3.030907176434993744e-02,1.383995637297630310e-03,-8.135598363878671080e-07,-1.176104182377457619e-03,-1.005211174488067627e-01,2.660644650459289551e-01,1.000000000000000000e+00,-1.207987443194724619e-04,0.000000000000000000e+00
2.677334070205688477e+00,3.758366394042968750e+02,-2.080591964721679688e+01,-2.080591964721679688e+01,3.396311402320861816e-01,1.797956848144531250e+02,5.211112444336585270e-11,-5.721887111663818359e+00,2.102791517972946167e-02,-4.100199646472901804e-07,-3.030907176434993744e-02,1.383995637297630310e-03,-8.135598363878671080e-07,-1.176104182377457619e-03,-1.005211174488067627e-01,2.660644650459289551e-01,1.000000000000000000e+00,-1.207987443194724619e-04,0.000000000000000000e+00
2.677334070205688477e+00,3.758366394042968750e+02,-2.080591964721679688e+01,-2.080591964721679688e+01,3.396311402320861816e-01,1.797956848144531250e+02,5.211112444336585270e-11,-5.721887111663818359e+00,2.102791517972946167e-02,-4.100199646472901804e-07,-3.030907176434993744e-02,1.383995637297630310e-03,-8.135598363878671080e-07,-1.176104182377457619e-03,-1.005211174488067627e-01,2.660644650459289551e-01,1.000000000000000000e+00,-1.207987443194724619e-04,0.000000000000000000e+00
2.677334070205688477e+00,3.758366394042968750e+02,-2.080591964721679688e+01,-2.080591964721679688e+01,3.396311402320861816e-01,1.797956848144531250e+02,5.211112444336585270e-11,-5.721887111663818359e+00,2.102791517972946167e-02,-4.100199646472901804e-07,-3.030907176434993744e-02,1.383995637297630310e-03,-8.135598363878671080e-07,-1.176104182377457619e-03,-1.005211174488067627e-01,2.660644650459289551e-01,1.000000000000000000e+00,-1.207987443194724619e-04,0.000000000000000000e+00
2.755024909973144531e+00,3.754981079101562500e+02,-2.080467987060546875e+01,-2.080467987060546875e+01,3.399248421192169189e-01,1.797946319580078125e+02,4.607337177731096745e-05,-5.722235202789306641e+00,2.108288556337356567e-02,-1.430301921345744631e-07,-4.480465780943632126e-03,7.075529429130256176e-04,3.436567112657940015e-06,-1.337215187959372997e-03,-1.028578430414199829e-01,2.681385874748229980e-01,1.000000000000000000e+00,-1.042683943524025381e-04,0.000000000000000000e+00
2.755024909973144531e+00,3.754981079101562500e+02,-2.080467987060546875e+01,-2.080467987060546875e+01,3.399248421192169189e-01,1.797946319580078125e+02,4.607337177731096745e-05,-5.722235202789306641e+00,2.108288556337356567e-02,-1.430301921345744631e-07,-4.480465780943632126e-03,7.075529429130256176e-04,3.436567112657940015e-06,-1.337215187959372997e-03,-1.028578430414199829e-01,2.681385874748229980e-01,1.000000000000000000e+00,-1.042683943524025381e-04,0.000000000000000000e+00
2.755024909973144531e+00,3.754981079101562500e+02,-2.080467987060546875e+01,-2.080467987060546875e+01,3.399248421192169189e-01,1.797946319580078125e+02,4.607337177731096745e-05,-5.722235202789306641e+00,2.108288556337356567e-02,-1.430301921345744631e-07,-4.480465780943632126e-03,7.075529429130256176e-04,3.436567112657940015e-06,-1.337215187959372997e-03,-1.028578430414199829e-01,2.681385874748229980e-01,1.000000000000000000e+00,-1.042683943524025381e-04,0.000000000000000000e+00
2.830169916152954102e+00,3.750484924316406250e+02,-2.080305099487304688e+01,-2.080305099487304688e+01,3.417758047580718994e-01,1.797878570556640625e+02,1.372206897940486670e-04,-5.840574264526367188e+00,2.146208658814430237e-02,1.716347014735220000e-06,-1.574809312820434570e+00,5.046256817877292633e-03,2.474385473760776222e-05,3.546224441379308701e-03,1.292090266942977905e-01,-3.914264440536499023e-01,1.000000000000000000e+00,-8.341471402673050761e-05,0.000000000000000000e+00
2.830169916152954102e+00,3.750484924316406250e+02,-2.080305099487304688e+01,-2.080305099487304688e+01,3.417758047580718994e-01,1.797878570556640625e+02,1.372206897940486670e-04,-5.840574264526367188e+00,2.146208658814430237e-02,1.716347014735220000e-06,-1.574809312820434570e+00,5.046256817877292633e-03,2.474385473760776222e-05,3.546224441379308701e-03,1.292090266942977905e-01,-3.914264440536499023e-01,1.000000000000000000e+00,-8.341471402673050761e-05,0.000000000000000000e+00
2.830169916152954102e+00,3.750484924316406250e+02,-2.080305099487304688e+01,-2.080305099487304688e+01,3.417758047580718994e-01,1.797878570556640625e+02,1.372206897940486670e-04,-5.840574264526367188e+00,2.146208658814430237e-02,1.716347014735220000e-06,-1.574809312820434570e+00,5.046256817877292633e-03,2.474385473760776222e-05,3.546224441379308701e-03,1.292090266942977905e-01,-3.914264440536499023e-01,1.000000000000000000e+00,-8.341471402673050761e-05,0.000000000000000000e+00
2.830169916152954102e+00,3.750484924316406250e+02,-2.080305099487304688e+01,-2.080305099487304688e+01,3.417758047580718994e-01,1.797878570556640625e+02,1.372206897940486670e-04,-5.840574264526367188e+00,2.146208658814430237e-02,1.716347014735220000e-06,-1.574809312820434570e+00,5.046256817877292633e-03,2.474385473760776222e-05,3.546224441379308701e-03,1.292090266942977905e-01,-3.914264440536499023e-01,1.000000000000000000e+00,-8.341471402673050761e-05,0.000000000000000000e+00
2.830169916152954102e+00,3.750484924316406250e+02,-2.080305099487304688e+01,-2.080305099487304688e+01,3.417758047580718994e-01,1.797878570556640625e+02,1.372206897940486670e-04,-5.840574264526367188e+00,2.146208658814430237e-02,1.716347014735220000e-06,-1.574809312820434570e+00,5.046256817877292633e-03,2.474385473760776222e-05,3.546224441379308701e-03,1.292090266942977905e-01,-3.914264440536499023e-01,1.000000000000000000e+00,-8.341471402673050761e-05,0.000000000000000000e+00
2.917726278305053711e+00,3.746155090332031250e+02,-2.080144882202148438e+01,-2.080144882202148438e+01,3.397882282733917236e-01,1.797920227050781250e+02,1.005819212878122926e-04,-5.715959548950195312e+00,2.092746272683143616e-02,-4.290889421554311411e-07,1.423251390457153320e+00,-6.106053479015827179e-03,-2.450348256388679147e-05,-2.777086570858955383e-03,-1.197232604026794434e-01,3.196060359477996826e-01,1.000000000000000000e+00,3.814697265625000000e-05,0.000000000000000000e+00
