# Time,X,Y,Z,Roll,Pitch,Yaw,Vx,Vy,Vz,Ax,Ay,Az,Wx,Wy,Wz,Throttle,Steer,Brake
0.000000000000000000e+00,-5.922839164733886719e+00,6.376691818237304688e+01,6.376691818237304688e+01,1.827417016029357910e-01,8.979182434082031250e+01,9.158615954220294952e-03,4.238613694906234741e-02,6.321779251098632812e+00,-7.199223091447493061e-06,3.002404049038887024e-02,8.511152863502502441e-02,6.500539166154339910e-05,-1.703832894563674927e-01,8.883674629032611847e-03,-6.976424455642700195e-01,1.000000000000000000e+00,-4.180145449936389923e-03,0.000000000000000000e+00
1.045818328857421875e-01,-5.922839164733886719e+00,6.376691818237304688e+01,6.376691818237304688e+01,1.827417016029357910e-01,8.979182434082031250e+01,9.158615954220294952e-03,4.238613694906234741e-02,6.321779251098632812e+00,-7.199223091447493061e-06,3.002404049038887024e-02,8.511152863502502441e-02,6.500539166154339910e-05,-1.703832894563674927e-01,8.883674629032611847e-03,-6.976424455642700195e-01,1.000000000000000000e+00,-4.180145449936389923e-03,0.000000000000000000e+00
1.045818328857421875e-01,-5.922839164733886719e+00,6.376691818237304688e+01,6.376691818237304688e+01,1.827417016029357910e-01,8.979182434082031250e+01,9.158615954220294952e-03,4.238613694906234741e-02,6.321779251098632812e+00,-7.199223091447493061e-06,3.002404049038887024e-02,8.511152863502502441e-02,6.500539166154339910e-05,-1.703832894563674927e-01,8.883674629032611847e-03,-6.976424455642700195e-01,1.000000000000000000e+00,-4.180145449936389923e-03,0.000000000000000000e+00
1.045818328857421875e-01,-5.922839164733886719e+00,6.376691818237304688e+01,6.376691818237304688e+01,1.827417016029357910e-01,8.979182434082031250e+01,9.158615954220294952e-03,4.238613694906234741e-02,6.321779251098632812e+00,-7.199223091447493061e-06,3.002404049038887024e-02,8.511152863502502441e-02,6.500539166154339910e-05,-1.703832894563674927e-01,8.883674629032611847e-03,-6.976424455642700195e-01,1.000000000000000000e+00,-4.180145449936389923e-03,0.000000000000000000e+00
1.045818328857421875e-01,-5.922839164733886719e+00,6.376691818237304688e+01,6.376691818237304688e+01,1.827417016029357910e-01,8.979182434082031250e+01,9.158615954220294952e-03,4.238613694906234741e-02,6.321779251098632812e+00,-7.199223091447493061e-06,3.002404049038887024e-02,8.511152863502502441e-02,6.500539166154339910e-05,-1.703832894563674927e-01,8.883674629032611847e-03,-6.976424455642700195e-01,1.000000000000000000e+00,-4.180145449936389923e-03,0.000000000000000000e+00
1.045818328857421875e-01,-5.922839164733886719e+00,6.376691818237304688e+01,6.376691818237304688e+01,1.827417016029357910e-01,8.979182434082031250e+01,9.158615954220294952e-03,4.238613694906234741e-02,6.321779251098632812e+00,-7.199223091447493061e-06,3.002404049038887024e-02,8.511152863502502441e-02,6.500539166154339910e-05,-1.703832894563674927e-01,8.883674629032611847e-03,-6.976424455642700195e-01,1.000000000000000000e+00,-4.180145449936389923e-03,0.000000000000000000e+00
1.045818328857421875e-01,-5.919200420379638672e+00,6.439933776855468750e+01,6.439933776855468750e+01,1.507422626018524170e-01,8.972927856445312500e+01,7.561371661722660065e-03,4.503413662314414978e-02,6.289377212524414062e+00,4.615014404407702386e-06,2.528915181756019592e-02,-3.094487190246582031e-01,1.128293442889116704e-04,-5.191974639892578125e-01,2.572749508544802666e-03,-6.066787838935852051e-01,1.000000000000000000e+00,-3.398023312911391258e-03,0.000000000000000000e+00
2.092907428741455078e-01,-5.919200420379638672e+00,6.439933776855468750e+01,6.439933776855468750e+01,1.507422626018524170e-01,8.972927856445312500e+01,7.561371661722660065e-03,4.503413662314414978e-02,6.289377212524414062e+00,4.615014404407702386e-06,2.528915181756019592e-02,-3.094487190246582031e-01,1.128293442889116704e-04,-5.191974639892578125e-01,2.572749508544802666e-03,-6.066787838935852051e-01,1.000000000000000000e+00,-3.398023312911391258e-03,0.000000000000000000e+00
2.092907428741455078e-01,-5.919200420379638672e+00,6.439933776855468750e+01,6.439933776855468750e+01,1.507422626018524170e-01,8.972927856445312500e+01,7.561371661722660065e-03,4.503413662314414978e-02,6.289377212524414062e+00,4.615014404407702386e-06,2.528915181756019592e-02,-3.094487190246582031e-01,1.128293442889116704e-04,-5.191974639892578125e-01,2.572749508544802666e-03,-6.066787838935852051e-01,1.000000000000000000e+00,-3.398023312911391258e-03,0.000000000000000000e+00
2.092907428741455078e-01,-5.919200420379638672e+00,6.439933776855468750e+01,6.439933776855468750e+01,1.507422626018524170e-01,8.972927856445312500e+01,7.561371661722660065e-03,4.503413662314414978e-02,6.289377212524414062e+00,4.615014404407702386e-06,2.528915181756019592e-02,-3.094487190246582031e-01,1.128293442889116704e-04,-5.191974639892578125e-01,2.572749508544802666e-03,-6.066787838935852051e-01,1.000000000000000000e+00,-3.398023312911391258e-03,0.000000000000000000e+00
2.092907428741455078e-01,-5.919200420379638672e+00,6.439933776855468750e+01,6.439933776855468750e+01,1.507422626018524170e-01,8.972927856445312500e+01,7.561371661722660065e-03,4.503413662314414978e-02,6.289377212524414062e+00,4.615014404407702386e-06,2.528915181756019592e-02,-3.094487190246582031e-01,1.128293442889116704e-04,-5.191974639892578125e-01,2.572749508544802666e-03,-6.066787838935852051e-01,1.000000000000000000e+00,-3.398023312911391258e-03,0.000000000000000000e+00
2.092907428741455078e-01,-5.915118217468261719e+00,6.503069305419921875e+01,6.503069305419921875e+01,1.063596978783607483e-01,8.967575836181640625e+01,7.155799306929111481e-03,4.833209887146949768e-02,6.279738426208496094e+00,9.382591088069602847e-06,4.419760406017303467e-02,-1.291740834712982178e-01,6.389262125594541430e-05,-5.614477396011352539e-01,-6.060508312657475471e-04,-5.187935233116149902e-01,1.000000000000000000e+00,-2.882712287828326225e-03,0.000000000000000000e+00
2.839093208312988281e-01,-5.915118217468261719e+00,6.503069305419921875e+01,6.503069305419921875e+01,1.063596978783607483e-01,8.967575836181640625e+01,7.155799306929111481e-03,4.833209887146949768e-02,6.279738426208496094e+00,9.382591088069602847e-06,4.419760406017303467e-02,-1.291740834712982178e-01,6.389262125594541430e-05,-5.614477396011352539e-01,-6.060508312657475471e-04,-5.187935233116149902e-01,1.000000000000000000e+00,-2.882712287828326225e-03,0.000000000000000000e+00
2.839093208312988281e-01,-5.915118217468261719e+00,6.503069305419921875e+01,6.503069305419921875e+01,1.063596978783607483e-01,8.967575836181640625e+01,7.155799306929111481e-03,4.833209887146949768e-02,6.279738426208496094e+00,9.382591088069602847e-06,4.419760406017303467e-02,-1.291740834712982178e-01,6.389262125594541430e-05,-5.614477396011352539e-01,-6.060508312657475471e-04,-5.187935233116149902e-01,1.000000000000000000e+00,-2.882712287828326225e-03,0.000000000000000000e+00
2.839093208312988281e-01,-5.915118217468261719e+00,6.503069305419921875e+01,6.503069305419921875e+01,1.063596978783607483e-01,8.967575836181640625e+01,7.155799306929111481e-03,4.833209887146949768e-02,6.279738426208496094e+00,9.382591088069602847e-06,4.419760406017303467e-02,-1.291740834712982178e-01,6.389262125594541430e-05,-5.614477396011352539e-01,-6.060508312657475471e-04,-5.187935233116149902e-01,1.000000000000000000e+00,-2.882712287828326225e-03,0.000000000000000000e+00
2.839093208312988281e-01,-5.915118217468261719e+00,6.503069305419921875e+01,6.503069305419921875e+01,1.063596978783607483e-01,8.967575836181640625e+01,7.155799306929111481e-03,4.833209887146949768e-02,6.279738426208496094e+00,9.382591088069602847e-06,4.419760406017303467e-02,-1.291740834712982178e-01,6.389262125594541430e-05,-5.614477396011352539e-01,-6.060508312657475471e-04,-5.187935233116149902e-01,1.000000000000000000e+00,-2.882712287828326225e-03,0.000000000000000000e+00
3.569011688232421875e-01,-5.911869525909423828e+00,6.550184631347656250e+01,6.550184631347656250e+01,7.690109312534332275e-02,8.964276885986328125e+01,6.108218804001808167e-03,4.933652654290199280e-02,6.331146240234375000e+00,8.429222361883148551e-06,1.376082003116607666e-02,7.042952775955200195e-01,-1.306130434386432171e-05,-3.233617842197418213e-01,4.599926061928272247e-03,-4.048493504524230957e-01,1.000000000000000000e+00,-2.137756440788507462e-03,0.000000000000000000e+00
3.569011688232421875e-01,-5.911869525909423828e+00,6.550184631347656250e+01,6.550184631347656250e+01,7.690109312534332275e-02,8.964276885986328125e+01,6.108218804001808167e-03,4.933652654290199280e-02,6.331146240234375000e+00,8.429222361883148551e-06,1.376082003116607666e-02,7.042952775955200195e-01,-1.306130434386432171e-05,-3.233617842197418213e-01,4.599926061928272247e-03,-4.048493504524230957e-01,1.000000000000000000e+00,-2.137756440788507462e-03,0.000000000000000000e+00
3.569011688232421875e-01,-5.911869525909423828e+00,6.550184631347656250e+01,6.550184631347656250e+01,7.690109312534332275e-02,8.964276885986328125e+01,6.108218804001808167e-03,4.933652654290199280e-02,6.331146240234375000e+00,8.429222361883148551e-06,1.376082003116607666e-02,7.042952775955200195e-01,-1.306130434386432171e-05,-3.233617842197418213e-01,4.599926061928272247e-03,-4.048493504524230957e-01,1.000000000000000000e+00,-2.137756440788507462e-03,0.000000000000000000e+00
3.569011688232421875e-01,-5.911869525909423828e+00,6.550184631347656250e+01,6.550184631347656250e+01,7.690109312534332275e-02,8.964276885986328125e+01,6.108218804001808167e-03,4.933652654290199280e-02,6.331146240234375000e+00,8.429222361883148551e-06,1.376082003116607666e-02,7.042952775955200195e-01,-1.306130434386432171e-05,-3.233617842197418213e-01,4.599926061928272247e-03,-4.048493504524230957e-01,1.000000000000000000e+00,-2.137756440788507462e-03,0.000000000000000000e+00
4.765405654907226562e-01,-5.908575534820556641e+00,6.596172332763671875e+01,6.596172332763671875e+01,5.008577555418014526e-02,8.961664581298828125e+01,5.211340729147195816e-03,4.961199313402175903e-02,6.287016391754150391e+00,4.634180186258163303e-06,2.302473876625299454e-03,-3.688571751117706299e-01,-3.172067226842045784e-05,-3.878256082534790039e-01,7.057843729853630066e-03,-3.354957103729248047e-01,1.000000000000000000e+00,-1.654488733038306236e-03,0.000000000000000000e+00
4.765405654907226562e-01,-5.908575534820556641e+00,6.596172332763671875e+01,6.596172332763671875e+01,5.008577555418014526e-02,8.961664581298828125e+01,5.211340729147195816e-03,4.961199313402175903e-02,6.287016391754150391e+00,4.634180186258163303e-06,2.302473876625299454e-03,-3.688571751117706299e-01,-3.172067226842045784e-05,-3.878256082534790039e-01,7.057843729853630066e-03,-3.354957103729248047e-01,1.000000000000000000e+00,-1.654488733038306236e-03,0.000000000000000000e+00
4.765405654907226562e-01,-5.908575534820556641e+00,6.596172332763671875e+01,6.596172332763671875e+01,5.008577555418014526e-02,8.961664581298828125e+01,5.211340729147195816e-03,4.961199313402175903e-02,6.287016391754150391e+00,4.634180186258163303e-06,2.302473876625299454e-03,-3.688571751117706299e-01,-3.172067226842045784e-05,-3.878256082534790039e-01,7.057843729853630066e-03,-3.354957103729248047e-01,1.000000000000000000e+00,-1.654488733038306236e-03,0.000000000000000000e+00
4.765405654907226562e-01,-5.908575534820556641e+00,6.596172332763671875e+01,6.596172332763671875e+01,5.008577555418014526e-02,8.961664581298828125e+01,5.211340729147195816e-03,4.961199313402175903e-02,6.287016391754150391e+00,4.634180186258163303e-06,2.302473876625299454e-03,-3.688571751117706299e-01,-3.172067226842045784e-05,-3.878256082534790039e-01,7.057843729853630066e-03,-3.354957103729248047e-01,1.000000000000000000e+00,-1.654488733038306236e-03,0.000000000000000000e+00
4.765405654907226562e-01,-5.908575534820556641e+00,6.596172332763671875e+01,6.596172332763671875e+01,5.008577555418014526e-02,8.961664581298828125e+01,5.211340729147195816e-03,4.961199313402175903e-02,6.287016391754150391e+00,4.634180186258163303e-06,2.302473876625299454e-03,-3.688571751117706299e-01,-3.172067226842045784e-05,-3.878256082534790039e-01,7.057843729853630066e-03,-3.354957103729248047e-01,1.000000000000000000e+00,-1.654488733038306236e-03,0.000000000000000000e+00
4.765405654907226562e-01,-5.908575534820556641e+00,6.596172332763671875e+01,6.596172332763671875e+01,5.008577555418014526e-02,8.961664581298828125e+01,5.211340729147195816e-03,4.961199313402175903e-02,6.287016391754150391e+00,4.634180186258163303e-06,2.302473876625299454e-03,-3.688571751117706299e-01,-3.172067226842045784e-05,-3.878256082534790039e-01,7.057843729853630066e-03,-3.354957103729248047e-01,1.000000000000000000e+00,-1.654488733038306236e-03,0.000000000000000000e+00
4.765405654907226562e-01,-5.908575534820556641e+00,6.596172332763671875e+01,6.596172332763671875e+01,5.008577555418014526e-02,8.961664581298828125e+01,5.211340729147195816e-03,4.961199313402175903e-02,6.287016391754150391e+00,4.634180186258163303e-06,2.302473876625299454e-03,-3.688571751117706299e-01,-3.172067226842045784e-05,-3.878256082534790039e-01,7.057843729853630066e-03,-3.354957103729248047e-01,1.000000000000000000e+00,-1.654488733038306236e-03,0.000000000000000000e+00
6.200885772705078125e-01,-5.903846740722656250e+00,6.659478759765625000e+01,6.659478759765625000e+01,3.231362253427505493e-02,8.959062194824218750e+01,4.429506603628396988e-03,5.181251466274261475e-02,6.442066669464111328e+00,1.315851250183186494e-06,1.532951649278402328e-02,1.080128431320190430e+00,-2.311651041964069009e-05,2.033462971448898315e-01,-1.168363378383219242e-03,-1.968501359224319458e-01,1.000000000000000000e+00,-1.268223393708467484e-03,0.000000000000000000e+00
6.200885772705078125e-01,-5.903846740722656250e+00,6.659478759765625000e+01,6.659478759765625000e+01,3.231362253427505493e-02,8.959062194824218750e+01,4.429506603628396988e-03,5.181251466274261475e-02,6.442066669464111328e+00,1.315851250183186494e-06,1.532951649278402328e-02,1.080128431320190430e+00,-2.311651041964069009e-05,2.033462971448898315e-01,-1.168363378383219242e-03,-1.968501359224319458e-01,1.000000000000000000e+00,-1.268223393708467484e-03,0.000000000000000000e+00
6.200885772705078125e-01,-5.903846740722656250e+00,6.659478759765625000e+01,6.659478759765625000e+01,3.231362253427505493e-02,8.959062194824218750e+01,4.429506603628396988e-03,5.181251466274261475e-02,6.442066669464111328e+00,1.315851250183186494e-06,1.532951649278402328e-02,1.080128431320190430e+00,-2.311651041964069009e-05,2.033462971448898315e-01,-1.168363378383219242e-03,-1.968501359224319458e-01,1.000000000000000000e+00,-1.268223393708467484e-03,0.000000000000000000e+00
6.200885772705078125e-01,-5.903846740722656250e+00,6.659478759765625000e+01,6.659478759765625000e+01,3.231362253427505493e-02,8.959062194824218750e+01,4.429506603628396988e-03,5.181251466274261475e-02,6.442066669464111328e+00,1.315851250183186494e-06,1.532951649278402328e-02,1.080128431320190430e+00,-2.311651041964069009e-05,2.033462971448898315e-01,-1.168363378383219242e-03,-1.968501359224319458e-01,1.000000000000000000e+00,-1.268223393708467484e-03,0.000000000000000000e+00
6.200885772705078125e-01,-5.903846740722656250e+00,6.659478759765625000e+01,6.659478759765625000e+01,3.231362253427505493e-02,8.959062194824218750e+01,4.429506603628396988e-03,5.181251466274261475e-02,6.442066669464111328e+00,1.315851250183186494e-06,1.532951649278402328e-02,1.080128431320190430e+00,-2.311651041964069009e-05,2.033462971448898315e-01,-1.168363378383219242e-03,-1.968501359224319458e-01,1.000000000000000000e+00,-1.268223393708467484e-03,0.000000000000000000e+00
6.200885772705078125e-01,-5.903846740722656250e+00,6.659478759765625000e+01,6.659478759765625000e+01,3.231362253427505493e-02,8.959062194824218750e+01,4.429506603628396988e-03,5.181251466274261475e-02,6.442066669464111328e+00,1.315851250183186494e-06,1.532951649278402328e-02,1.080128431320190430e+00,-2.311651041964069009e-05,2.033462971448898315e-01,-1.168363378383219242e-03,-1.968501359224319458e-01,1.000000000000000000e+00,-1.268223393708467484e-03,0.000000000000000000e+00
7.946169376373291016e-01,-5.898537635803222656e+00,6.726565551757812500e+01,6.726565551757812500e+01,1.060318499803543091e-01,8.958021545410156250e+01,2.827349351719021797e-03,5.623888969421386719e-02,6.880359172821044922e+00,-5.034561127104097977e-06,2.536192350089550018e-02,2.511296749114990234e+00,-3.638613270595669746e-05,9.807322025299072266e-01,1.268285233527421951e-02,-6.072693690657615662e-02,1.000000000000000000e+00,-1.066916272975504398e-03,0.000000000000000000e+00
7.946169376373291016e-01,-5.898537635803222656e+00,6.726565551757812500e+01,6.726565551757812500e+01,1.060318499803543091e-01,8.958021545410156250e+01,2.827349351719021797e-03,5.623888969421386719e-02,6.880359172821044922e+00,-5.034561127104097977e-06,2.536192350089550018e-02,2.511296749114990234e+00,-3.638613270595669746e-05,9.807322025299072266e-01,1.268285233527421951e-02,-6.072693690657615662e-02,1.000000000000000000e+00,-1.066916272975504398e-03,0.000000000000000000e+00
7.946169376373291016e-01,-5.898537635803222656e+00,6.726565551757812500e+01,6.726565551757812500e+01,1.060318499803543091e-01,8.958021545410156250e+01,2.827349351719021797e-03,5.623888969421386719e-02,6.880359172821044922e+00,-5.034561127104097977e-06,2.536192350089550018e-02,2.511296749114990234e+00,-3.638613270595669746e-05,9.807322025299072266e-01,1.268285233527421951e-02,-6.072693690657615662e-02,1.000000000000000000e+00,-1.066916272975504398e-03,0.000000000000000000e+00
7.946169376373291016e-01,-5.898537635803222656e+00,6.726565551757812500e+01,6.726565551757812500e+01,1.060318499803543091e-01,8.958021545410156250e+01,2.827349351719021797e-03,5.623888969421386719e-02,6.880359172821044922e+00,-5.034561127104097977e-06,2.536192350089550018e-02,2.511296749114990234e+00,-3.638613270595669746e-05,9.807322025299072266e-01,1.268285233527421951e-02,-6.072693690657615662e-02,1.000000000000000000e+00,-1.066916272975504398e-03,0.000000000000000000e+00
8.783230781555175781e-01,-5.892772197723388672e+00,6.797740173339843750e+01,6.797740173339843750e+01,2.114626467227935791e-01,8.957719421386718750e+01,1.430480770068243146e-04,5.951811745762825012e-02,7.265404701232910156e+00,-2.147316627088002861e-05,3.917547687888145447e-02,4.599967479705810547e+00,-1.963847025763243437e-04,1.041700482368469238e+00,1.844442263245582581e-02,-1.836063340306282043e-02,1.000000000000000000e+00,-9.535653516650199890e-04,0.000000000000000000e+00
8.783230781555175781e-01,-5.892772197723388672e+00,6.797740173339843750e+01,6.797740173339843750e+01,2.114626467227935791e-01,8.957719421386718750e+01,1.430480770068243146e-04,5.951811745762825012e-02,7.265404701232910156e+00,-2.147316627088002861e-05,3.917547687888145447e-02,4.599967479705810547e+00,-1.963847025763243437e-04,1.041700482368469238e+00,1.844442263245582581e-02,-1.836063340306282043e-02,1.000000000000000000e+00,-9.535653516650199890e-04,0.000000000000000000e+00
9.483780860900878906e-01,-5.887683391571044922e+00,6.860058593750000000e+01,6.860058593750000000e+01,2.886779308319091797e-01,8.957566833496093750e+01,-1.739505794830620289e-03,6.220975145697593689e-02,7.557100772857666016e+00,-3.534777351887896657e-05,3.842172026634216309e-02,4.163814544677734375e+00,-1.980530360015109181e-04,8.371951580047607422e-01,1.536740642040967941e-02,-1.955011300742626190e-02,1.000000000000000000e+00,-9.817940881475806236e-04,0.000000000000000000e+00
9.483780860900878906e-01,-5.887683391571044922e+00,6.860058593750000000e+01,6.860058593750000000e+01,2.886779308319091797e-01,8.957566833496093750e+01,-1.739505794830620289e-03,6.220975145697593689e-02,7.557100772857666016e+00,-3.534777351887896657e-05,3.842172026634216309e-02,4.163814544677734375e+00,-1.980530360015109181e-04,8.371951580047607422e-01,1.536740642040967941e-02,-1.955011300742626190e-02,1.000000000000000000e+00,-9.817940881475806236e-04,0.000000000000000000e+00
9.483780860900878906e-01,-5.887683391571044922e+00,6.860058593750000000e+01,6.860058593750000000e+01,2.886779308319091797e-01,8.957566833496093750e+01,-1.739505794830620289e-03,6.220975145697593689e-02,7.557100772857666016e+00,-3.534777351887896657e-05,3.842172026634216309e-02,4.163814544677734375e+00,-1.980530360015109181e-04,8.371951580047607422e-01,1.536740642040967941e-02,-1.955011300742626190e-02,1.000000000000000000e+00,-9.817940881475806236e-04,0.000000000000000000e+00
9.483780860900878906e-01,-5.887683391571044922e+00,6.860058593750000000e+01,6.860058593750000000e+01,2.886779308319091797e-01,8.957566833496093750e+01,-1.739505794830620289e-03,6.220975145697593689e-02,7.557100772857666016e+00,-3.534777351887896657e-05,3.842172026634216309e-02,4.163814544677734375e+00,-1.980530360015109181e-04,8.371951580047607422e-01,1.536740642040967941e-02,-1.955011300742626190e-02,1.000000000000000000e+00,-9.817940881475806236e-04,0.000000000000000000e+00
9.483780860900878906e-01,-5.883252620697021484e+00,6.914008331298828125e+01,6.914008331298828125e+01,3.387158811092376709e-01,8.957378387451171875e+01,-2.929668407887220383e-03,6.453005224466323853e-02,7.785634517669677734e+00,-3.632036532508209348e-05,2.944581024348735809e-02,2.900210857391357422e+00,-1.234269075212068856e-05,6.297379732131958008e-01,1.107029989361763000e-02,-3.161371499300003052e-02,1.000000000000000000e+00,-1.038360642269253731e-03,0.000000000000000000e+00
1.027177095413208008e+00,-5.883252620697021484e+00,6.914008331298828125e+01,6.914008331298828125e+01,3.387158811092376709e-01,8.957378387451171875e+01,-2.929668407887220383e-03,6.453005224466323853e-02,7.785634517669677734e+00,-3.632036532508209348e-05,2.944581024348735809e-02,2.900210857391357422e+00,-1.234269075212068856e-05,6.297379732131958008e-01,1.107029989361763000e-02,-3.161371499300003052e-02,1.000000000000000000e+00,-1.038360642269253731e-03,0.000000000000000000e+00
1.027177095413208008e+00,-5.883252620697021484e+00,6.914008331298828125e+01,6.914008331298828125e+01,3.387158811092376709e-01,8.957378387451171875e+01,-2.929668407887220383e-03,6.453005224466323853e-02,7.785634517669677734e+00,-3.632036532508209348e-05,2.944581024348735809e-02,2.900210857391357422e+00,-1.234269075212068856e-05,6.297379732131958008e-01,1.107029989361763000e-02,-3.161371499300003052e-02,1.000000000000000000e+00,-1.038360642269253731e-03,0.000000000000000000e+00
1.095043420791625977e+00,-5.878087043762207031e+00,6.976553344726562500e+01,6.976553344726562500e+01,3.777367472648620605e-01,8.957055664062500000e+01,-3.906232770532369614e-03,6.706170737743377686e-02,8.030037879943847656e+00,-3.266773273935541511e-05,3.730355203151702881e-02,3.601246356964111328e+00,5.382098606787621975e-05,4.028765261173248291e-01,7.639577146619558334e-03,-4.654724150896072388e-02,1.000000000000000000e+00,-1.067679258994758129e-03,0.000000000000000000e+00
1.095043420791625977e+00,-5.878087043762207031e+00,6.976553344726562500e+01,6.976553344726562500e+01,3.777367472648620605e-01,8.957055664062500000e+01,-3.906232770532369614e-03,6.706170737743377686e-02,8.030037879943847656e+00,-3.266773273935541511e-05,3.730355203151702881e-02,3.601246356964111328e+00,5.382098606787621975e-05,4.028765261173248291e-01,7.639577146619558334e-03,-4.654724150896072388e-02,1.000000000000000000e+00,-1.067679258994758129e-03,0.000000000000000000e+00
1.095043420791625977e+00,-5.878087043762207031e+00,6.976553344726562500e+01,6.976553344726562500e+01,3.777367472648620605e-01,8.957055664062500000e+01,-3.906232770532369614e-03,6.706170737743377686e-02,8.030037879943847656e+00,-3.266773273935541511e-05,3.730355203151702881e-02,3.601246356964111328e+00,5.382098606787621975e-05,4.028765261173248291e-01,7.639577146619558334e-03,-4.654724150896072388e-02,1.000000000000000000e+00,-1.067679258994758129e-03,0.000000000000000000e+00
1.095043420791625977e+00,-5.878087043762207031e+00,6.976553344726562500e+01,6.976553344726562500e+01,3.777367472648620605e-01,8.957055664062500000e+01,-3.906232770532369614e-03,6.706170737743377686e-02,8.030037879943847656e+00,-3.266773273935541511e-05,3.730355203151702881e-02,3.601246356964111328e+00,5.382098606787621975e-05,4.028765261173248291e-01,7.639577146619558334e-03,-4.654724150896072388e-02,1.000000000000000000e+00,-1.067679258994758129e-03,0.000000000000000000e+00
1.168572425842285156e+00,-5.873485565185546875e+00,7.031893157958984375e+01,7.031893157958984375e+01,3.974691629409790039e-01,8.956683349609375000e+01,-4.394505172967910767e-03,6.932494789361953735e-02,8.232220649719238281e+00,-2.480170223861932755e-05,3.078024089336395264e-02,2.749700784683227539e+00,1.069786012521944940e-04,2.254617065191268921e-01,4.168794024735689163e-03,-5.967025086283683777e-02,1.000000000000000000e+00,-1.101030618883669376e-03,0.000000000000000000e+00
1.168572425842285156e+00,-5.873485565185546875e+00,7.031893157958984375e+01,7.031893157958984375e+01,3.974691629409790039e-01,8.956683349609375000e+01,-4.394505172967910767e-03,6.932494789361953735e-02,8.232220649719238281e+00,-2.480170223861932755e-05,3.078024089336395264e-02,2.749700784683227539e+00,1.069786012521944940e-04,2.254617065191268921e-01,4.168794024735689163e-03,-5.967025086283683777e-02,1.000000000000000000e+00,-1.101030618883669376e-03,0.000000000000000000e+00
1.168572425842285156e+00,-5.873485565185546875e+00,7.031893157958984375e+01,7.031893157958984375e+01,3.974691629409790039e-01,8.956683349609375000e+01,-4.394505172967910767e-03,6.932494789361953735e-02,8.232220649719238281e+00,-2.480170223861932755e-05,3.078024089336395264e-02,2.749700784683227539e+00,1.069786012521944940e-04,2.254617065191268921e-01,4.168794024735689163e-03,-5.967025086283683777e-02,1.000000000000000000e+00,-1.101030618883669376e-03,0.000000000000000000e+00
1.168572425842285156e+00,-5.873485565185546875e+00,7.031893157958984375e+01,7.031893157958984375e+01,3.974691629409790039e-01,8.956683349609375000e+01,-4.394505172967910767e-03,6.932494789361953735e-02,8.232220649719238281e+00,-2.480170223861932755e-05,3.078024089336395264e-02,2.749700784683227539e+00,1.069786012521944940e-04,2.254617065191268921e-01,4.168794024735689163e-03,-5.967025086283683777e-02,1.000000000000000000e+00,-1.101030618883669376e-03,0.000000000000000000e+00
1.168572425842285156e+00,-5.868360042572021484e+00,7.093373870849609375e+01,7.093373870849609375e+01,4.075163900852203369e-01,8.956242370605468750e+01,-4.913337994366884232e-03,7.124598324298858643e-02,8.444692611694335938e+00,-1.552353387523908168e-05,2.559727057814598083e-02,2.831130743026733398e+00,1.236290554516017437e-04,8.189182728528976440e-02,4.236816428601741791e-03,-6.072301790118217468e-02,1.000000000000000000e+00,-1.009695813991129398e-03,0.000000000000000000e+00
1.243620872497558594e+00,-5.868360042572021484e+00,7.093373870849609375e+01,7.093373870849609375e+01,4.075163900852203369e-01,8.956242370605468750e+01,-4.913337994366884232e-03,7.124598324298858643e-02,8.444692611694335938e+00,-1.552353387523908168e-05,2.559727057814598083e-02,2.831130743026733398e+00,1.236290554516017437e-04,8.189182728528976440e-02,4.236816428601741791e-03,-6.072301790118217468e-02,1.000000000000000000e+00,-1.009695813991129398e-03,0.000000000000000000e+00
1.243620872497558594e+00,-5.868360042572021484e+00,7.093373870849609375e+01,7.093373870849609375e+01,4.075163900852203369e-01,8.956242370605468750e+01,-4.913337994366884232e-03,7.124598324298858643e-02,8.444692611694335938e+00,-1.552353387523908168e-05,2.559727057814598083e-02,2.831130743026733398e+00,1.236290554516017437e-04,8.189182728528976440e-02,4.236816428601741791e-03,-6.072301790118217468e-02,1.000000000000000000e+00,-1.009695813991129398e-03,0.000000000000000000e+00
1.243620872497558594e+00,-5.868360042572021484e+00,7.093373870849609375e+01,7.093373870849609375e+01,4.075163900852203369e-01,8.956242370605468750e+01,-4.913337994366884232e-03,7.124598324298858643e-02,8.444692611694335938e+00,-1.552353387523908168e-05,2.559727057814598083e-02,2.831130743026733398e+00,1.236290554516017437e-04,8.189182728528976440e-02,4.236816428601741791e-03,-6.072301790118217468e-02,1.000000000000000000e+00,-1.009695813991129398e-03,0.000000000000000000e+00
1.312042951583862305e+00,-5.862972736358642578e+00,7.157664489746093750e+01,7.157664489746093750e+01,4.074685871601104736e-01,8.955767059326171875e+01,-5.126946605741977692e-03,7.332151383161544800e-02,8.640984535217285156e+00,-4.481596533878473565e-06,3.033422306180000305e-02,2.868839025497436523e+00,1.613797358004376292e-04,-6.770142167806625366e-02,9.828630136325955391e-04,-6.746816635131835938e-02,5.000000000000000000e-01,-9.933471446856856346e-04,0.000000000000000000e+00
1.312042951583862305e+00,-5.862972736358642578e+00,7.157664489746093750e+01,7.157664489746093750e+01,4.074685871601104736e-01,8.955767059326171875e+01,-5.126946605741977692e-03,7.332151383161544800e-02,8.640984535217285156e+00,-4.481596533878473565e-06,3.033422306180000305e-02,2.868839025497436523e+00,1.613797358004376292e-04,-6.770142167806625366e-02,9.828630136325955391e-04,-6.746816635131835938e-02,5.000000000000000000e-01,-9.933471446856856346e-04,0.000000000000000000e+00
1.312042951583862305e+00,-5.857945442199707031e+00,7.217328643798828125e+01,7.217328643798828125e+01,3.946414887905120850e-01,8.955220031738281250e+01,-4.943853244185447693e-03,7.500305771827697754e-02,8.769251823425292969e+00,6.083609150664415210e-06,2.365492843091487885e-02,1.804385542869567871e+00,1.486248220317065716e-04,-2.710273563861846924e-01,-2.202765783295035362e-03,-8.929400146007537842e-02,5.000000000000000000e-01,-9.914942784234881401e-04,0.000000000000000000e+00
1.383129358291625977e+00,-5.857945442199707031e+00,7.217328643798828125e+01,7.217328643798828125e+01,3.946414887905120850e-01,8.955220031738281250e+01,-4.943853244185447693e-03,7.500305771827697754e-02,8.769251823425292969e+00,6.083609150664415210e-06,2.365492843091487885e-02,1.804385542869567871e+00,1.486248220317065716e-04,-2.710273563861846924e-01,-2.202765783295035362e-03,-8.929400146007537842e-02,5.000000000000000000e-01,-9.914942784234881401e-04,0.000000000000000000e+00
1.383129358291625977e+00,-5.857945442199707031e+00,7.217328643798828125e+01,7.217328643798828125e+01,3.946414887905120850e-01,8.955220031738281250e+01,-4.943853244185447693e-03,7.500305771827697754e-02,8.769251823425292969e+00,6.083609150664415210e-06,2.365492843091487885e-02,1.804385542869567871e+00,1.486248220317065716e-04,-2.710273563861846924e-01,-2.202765783295035362e-03,-8.929400146007537842e-02,5.000000000000000000e-01,-9.914942784234881401e-04,0.000000000000000000e+00
1.450951814651489258e+00,-5.852621555328369141e+00,7.280054473876953125e+01,7.280054473876953125e+01,3.664464652538299561e-01,8.954462432861328125e+01,-4.394555930048227310e-03,7.668688893318176270e-02,8.861083984375000000e+00,1.874657027656212449e-05,2.482704631984233856e-02,1.354008197784423828e+00,1.867075043264776468e-04,-4.743253290653228760e-01,-6.068483926355838776e-03,-1.174026578664779663e-01,5.000000000000000000e-01,-9.974888525903224945e-04,0.000000000000000000e+00
1.450951814651489258e+00,-5.852621555328369141e+00,7.280054473876953125e+01,7.280054473876953125e+01,3.664464652538299561e-01,8.954462432861328125e+01,-4.394555930048227310e-03,7.668688893318176270e-02,8.861083984375000000e+00,1.874657027656212449e-05,2.482704631984233856e-02,1.354008197784423828e+00,1.867075043264776468e-04,-4.743253290653228760e-01,-6.068483926355838776e-03,-1.174026578664779663e-01,5.000000000000000000e-01,-9.974888525903224945e-04,0.000000000000000000e+00
1.450951814651489258e+00,-5.852621555328369141e+00,7.280054473876953125e+01,7.280054473876953125e+01,3.664464652538299561e-01,8.954462432861328125e+01,-4.394555930048227310e-03,7.668688893318176270e-02,8.861083984375000000e+00,1.874657027656212449e-05,2.482704631984233856e-02,1.354008197784423828e+00,1.867075043264776468e-04,-4.743253290653228760e-01,-6.068483926355838776e-03,-1.174026578664779663e-01,5.000000000000000000e-01,-9.974888525903224945e-04,0.000000000000000000e+00
1.527701377868652344e+00,-5.847501277923583984e+00,7.340375518798828125e+01,7.340375518798828125e+01,3.284364640712738037e-01,8.953674316406250000e+01,-4.211427643895149231e-03,7.703762501478195190e-02,8.920521736145019531e+00,2.869216586987022310e-05,4.569877404719591141e-03,7.744376659393310547e-01,1.295850524911656976e-04,-6.109914779663085938e-01,-1.827688887715339661e-03,-1.169468685984611511e-01,5.000000000000000000e-01,-7.471357239410281181e-04,0.000000000000000000e+00
1.527701377868652344e+00,-5.847501277923583984e+00,7.340375518798828125e+01,7.340375518798828125e+01,3.284364640712738037e-01,8.953674316406250000e+01,-4.211427643895149231e-03,7.703762501478195190e-02,8.920521736145019531e+00,2.869216586987022310e-05,4.569877404719591141e-03,7.744376659393310547e-01,1.295850524911656976e-04,-6.109914779663085938e-01,-1.827688887715339661e-03,-1.169468685984611511e-01,5.000000000000000000e-01,-7.471357239410281181e-04,0.000000000000000000e+00
1.527701377868652344e+00,-5.847501277923583984e+00,7.340375518798828125e+01,7.340375518798828125e+01,3.284364640712738037e-01,8.953674316406250000e+01,-4.211427643895149231e-03,7.703762501478195190e-02,8.920521736145019531e+00,2.869216586987022310e-05,4.569877404719591141e-03,7.744376659393310547e-01,1.295850524911656976e-04,-6.109914779663085938e-01,-1.827688887715339661e-03,-1.169468685984611511e-01,5.000000000000000000e-01,-7.471357239410281181e-04,0.000000000000000000e+00
1.600134611129760742e+00,-5.841653347015380859e+00,7.409017181396484375e+01,7.409017181396484375e+01,2.769231796264648438e-01,8.952798461914062500e+01,-3.509530564770102501e-03,7.781432569026947021e-02,8.965373039245605469e+00,3.192411531927064061e-05,1.072298828512430191e-02,6.192089319229125977e-01,4.461970456759445369e-05,-6.940488219261169434e-01,-7.182277739048004150e-03,-1.139888763427734375e-01,5.000000000000000000e-01,-6.534031708724796772e-04,0.000000000000000000e+00
1.600134611129760742e+00,-5.841653347015380859e+00,7.409017181396484375e+01,7.409017181396484375e+01,2.769231796264648438e-01,8.952798461914062500e+01,-3.509530564770102501e-03,7.781432569026947021e-02,8.965373039245605469e+00,3.192411531927064061e-05,1.072298828512430191e-02,6.192089319229125977e-01,4.461970456759445369e-05,-6.940488219261169434e-01,-7.182277739048004150e-03,-1.139888763427734375e-01,5.000000000000000000e-01,-6.534031708724796772e-04,0.000000000000000000e+00
1.600134611129760742e+00,-5.841653347015380859e+00,7.409017181396484375e+01,7.409017181396484375e+01,2.769231796264648438e-01,8.952798461914062500e+01,-3.509530564770102501e-03,7.781432569026947021e-02,8.965373039245605469e+00,3.192411531927064061e-05,1.072298828512430191e-02,6.192089319229125977e-01,4.461970456759445369e-05,-6.940488219261169434e-01,-7.182277739048004150e-03,-1.139888763427734375e-01,5.000000000000000000e-01,-6.534031708724796772e-04,0.000000000000000000e+00
1.600134611129760742e+00,-5.841653347015380859e+00,7.409017181396484375e+01,7.409017181396484375e+01,2.769231796264648438e-01,8.952798461914062500e+01,-3.509530564770102501e-03,7.781432569026947021e-02,8.965373039245605469e+00,3.192411531927064061e-05,1.072298828512430191e-02,6.192089319229125977e-01,4.461970456759445369e-05,-6.940488219261169434e-01,-7.182277739048004150e-03,-1.139888763427734375e-01,5.000000000000000000e-01,-6.534031708724796772e-04,0.000000000000000000e+00
1.600134611129760742e+00,-5.841653347015380859e+00,7.409017181396484375e+01,7.409017181396484375e+01,2.769231796264648438e-01,8.952798461914062500e+01,-3.509530564770102501e-03,7.781432569026947021e-02,8.965373039245605469e+00,3.192411531927064061e-05,1.072298828512430191e-02,6.192089319229125977e-01,4.461970456759445369e-05,-6.940488219261169434e-01,-7.182277739048004150e-03,-1.139888763427734375e-01,5.000000000000000000e-01,-6.534031708724796772e-04,0.000000000000000000e+00
1.600134611129760742e+00,-5.836071491241455078e+00,7.474040985107421875e+01,7.474040985107421875e+01,2.266256660223007202e-01,8.952007293701171875e+01,-2.655002987012267113e-03,7.857546955347061157e-02,8.993118286132812500e+00,3.171461503370665014e-05,6.596909370273351669e-03,2.404707968235015869e-01,-1.815759674173023086e-06,-6.900463700294494629e-01,-7.921481505036354065e-03,-1.074748709797859192e-01,5.000000000000000000e-01,-5.593436071649193764e-04,0.000000000000000000e+00
1.715513467788696289e+00,-5.836071491241455078e+00,7.474040985107421875e+01,7.474040985107421875e+01,2.266256660223007202e-01,8.952007293701171875e+01,-2.655002987012267113e-03,7.857546955347061157e-02,8.993118286132812500e+00,3.171461503370665014e-05,6.596909370273351669e-03,2.404707968235015869e-01,-1.815759674173023086e-06,-6.900463700294494629e-01,-7.921481505036354065e-03,-1.074748709797859192e-01,5.000000000000000000e-01,-5.593436071649193764e-04,0.000000000000000000e+00
1.715513467788696289e+00,-5.836071491241455078e+00,7.474040985107421875e+01,7.474040985107421875e+01,2.266256660223007202e-01,8.952007293701171875e+01,-2.655002987012267113e-03,7.857546955347061157e-02,8.993118286132812500e+00,3.171461503370665014e-05,6.596909370273351669e-03,2.404707968235015869e-01,-1.815759674173023086e-06,-6.900463700294494629e-01,-7.921481505036354065e-03,-1.074748709797859192e-01,5.000000000000000000e-01,-5.593436071649193764e-04,0.000000000000000000e+00
1.715513467788696289e+00,-5.836071491241455078e+00,7.474040985107421875e+01,7.474040985107421875e+01,2.266256660223007202e-01,8.952007293701171875e+01,-2.655002987012267113e-03,7.857546955347061157e-02,8.993118286132812500e+00,3.171461503370665014e-05,6.596909370273351669e-03,2.404707968235015869e-01,-1.815759674173023086e-06,-6.900463700294494629e-01,-7.921481505036354065e-03,-1.074748709797859192e-01,5.000000000000000000e-01,-5.593436071649193764e-04,0.000000000000000000e+00
1.813115119934082031e+00,-5.828318119049072266e+00,7.564071655273437500e+01,7.564071655273437500e+01,1.607962995767593384e-01,8.951137542724609375e+01,-1.922618946991860867e-03,7.872785627841949463e-02,9.017206192016601562e+00,2.479139948263764381e-05,1.561313052661716938e-03,2.467981427907943726e-01,-7.093338354025036097e-05,-6.169615387916564941e-01,-5.994819104671478271e-03,-7.716100662946701050e-02,5.000000000000000000e-01,-3.282819525338709354e-04,0.000000000000000000e+00
1.813115119934082031e+00,-5.828318119049072266e+00,7.564071655273437500e+01,7.564071655273437500e+01,1.607962995767593384e-01,8.951137542724609375e+01,-1.922618946991860867e-03,7.872785627841949463e-02,9.017206192016601562e+00,2.479139948263764381e-05,1.561313052661716938e-03,2.467981427907943726e-01,-7.093338354025036097e-05,-6.169615387916564941e-01,-5.994819104671478271e-03,-7.716100662946701050e-02,5.000000000000000000e-01,-3.282819525338709354e-04,0.000000000000000000e+00
1.813115119934082031e+00,-5.828318119049072266e+00,7.564071655273437500e+01,7.564071655273437500e+01,1.607962995767593384e-01,8.951137542724609375e+01,-1.922618946991860867e-03,7.872785627841949463e-02,9.017206192016601562e+00,2.479139948263764381e-05,1.561313052661716938e-03,2.467981427907943726e-01,-7.093338354025036097e-05,-6.169615387916564941e-01,-5.994819104671478271e-03,-7.716100662946701050e-02,5.000000000000000000e-01,-3.282819525338709354e-04,0.000000000000000000e+00
1.813115119934082031e+00,-5.828318119049072266e+00,7.564071655273437500e+01,7.564071655273437500e+01,1.607962995767593384e-01,8.951137542724609375e+01,-1.922618946991860867e-03,7.872785627841949463e-02,9.017206192016601562e+00,2.479139948263764381e-05,1.561313052661716938e-03,2.467981427907943726e-01,-7.093338354025036097e-05,-6.169615387916564941e-01,-5.994819104671478271e-03,-7.716100662946701050e-02,5.000000000000000000e-01,-3.282819525338709354e-04,0.000000000000000000e+00
1.896134853363037109e+00,-5.820693969726562500e+00,7.652123260498046875e+01,7.652123260498046875e+01,1.078145280480384827e-01,8.950556945800781250e+01,-1.190189155749976635e-03,7.894275337457656860e-02,9.031330108642578125e+00,1.515142048447160050e-05,2.588506322354078293e-03,1.701272279024124146e-01,-1.161167165264487267e-04,-4.884405732154846191e-01,-4.656468983739614487e-03,-5.038461461663246155e-02,5.000000000000000000e-01,-1.952035090653225780e-04,0.000000000000000000e+00
1.896134853363037109e+00,-5.820693969726562500e+00,7.652123260498046875e+01,7.652123260498046875e+01,1.078145280480384827e-01,8.950556945800781250e+01,-1.190189155749976635e-03,7.894275337457656860e-02,9.031330108642578125e+00,1.515142048447160050e-05,2.588506322354078293e-03,1.701272279024124146e-01,-1.161167165264487267e-04,-4.884405732154846191e-01,-4.656468983739614487e-03,-5.038461461663246155e-02,5.000000000000000000e-01,-1.952035090653225780e-04,0.000000000000000000e+00
1.896134853363037109e+00,-5.820693969726562500e+00,7.652123260498046875e+01,7.652123260498046875e+01,1.078145280480384827e-01,8.950556945800781250e+01,-1.190189155749976635e-03,7.894275337457656860e-02,9.031330108642578125e+00,1.515142048447160050e-05,2.588506322354078293e-03,1.701272279024124146e-01,-1.161167165264487267e-04,-4.884405732154846191e-01,-4.656468983739614487e-03,-5.038461461663246155e-02,5.000000000000000000e-01,-1.952035090653225780e-04,0.000000000000000000e+00
1.896134853363037109e+00,-5.820693969726562500e+00,7.652123260498046875e+01,7.652123260498046875e+01,1.078145280480384827e-01,8.950556945800781250e+01,-1.190189155749976635e-03,7.894275337457656860e-02,9.031330108642578125e+00,1.515142048447160050e-05,2.588506322354078293e-03,1.701272279024124146e-01,-1.161167165264487267e-04,-4.884405732154846191e-01,-4.656468983739614487e-03,-5.038461461663246155e-02,5.000000000000000000e-01,-1.952035090653225780e-04,0.000000000000000000e+00
1.896134853363037109e+00,-5.820693969726562500e+00,7.652123260498046875e+01,7.652123260498046875e+01,1.078145280480384827e-01,8.950556945800781250e+01,-1.190189155749976635e-03,7.894275337457656860e-02,9.031330108642578125e+00,1.515142048447160050e-05,2.588506322354078293e-03,1.701272279024124146e-01,-1.161167165264487267e-04,-4.884405732154846191e-01,-4.656468983739614487e-03,-5.038461461663246155e-02,5.000000000000000000e-01,-1.952035090653225780e-04,0.000000000000000000e+00
1.896134853363037109e+00,-5.820693969726562500e+00,7.652123260498046875e+01,7.652123260498046875e+01,1.078145280480384827e-01,8.950556945800781250e+01,-1.190189155749976635e-03,7.894275337457656860e-02,9.031330108642578125e+00,1.515142048447160050e-05,2.588506322354078293e-03,1.701272279024124146e-01,-1.161167165264487267e-04,-4.884405732154846191e-01,-4.656468983739614487e-03,-5.038461461663246155e-02,5.000000000000000000e-01,-1.952035090653225780e-04,0.000000000000000000e+00
1.896134853363037109e+00,-5.820693969726562500e+00,7.652123260498046875e+01,7.652123260498046875e+01,1.078145280480384827e-01,8.950556945800781250e+01,-1.190189155749976635e-03,7.894275337457656860e-02,9.031330108642578125e+00,1.515142048447160050e-05,2.588506322354078293e-03,1.701272279024124146e-01,-1.161167165264487267e-04,-4.884405732154846191e-01,-4.656468983739614487e-03,-5.038461461663246155e-02,5.000000000000000000e-01,-1.952035090653225780e-04,0.000000000000000000e+00
2.195794820785522461e+00,-5.799458980560302734e+00,7.896817016601562500e+01,7.896817016601562500e+01,2.565418928861618042e-02,8.950190734863281250e+01,-4.577636136673390865e-04,7.848969101905822754e-02,9.050399780273437500e+00,1.497049879617406987e-06,-2.116530900821089745e-03,8.338087797164916992e-02,-5.551751382881775498e-05,-1.615591198205947876e-01,-3.435805556364357471e-04,6.259514950215816498e-03,5.000000000000000000e-01,3.280639793956652284e-05,0.000000000000000000e+00
2.195794820785522461e+00,-5.799458980560302734e+00,7.896817016601562500e+01,7.896817016601562500e+01,2.565418928861618042e-02,8.950190734863281250e+01,-4.577636136673390865e-04,7.848969101905822754e-02,9.050399780273437500e+00,1.497049879617406987e-06,-2.116530900821089745e-03,8.338087797164916992e-02,-5.551751382881775498e-05,-1.615591198205947876e-01,-3.435805556364357471e-04,6.259514950215816498e-03,5.000000000000000000e-01,3.280639793956652284e-05,0.000000000000000000e+00
2.195794820785522461e+00,-5.799458980560302734e+00,7.896817016601562500e+01,7.896817016601562500e+01,2.565418928861618042e-02,8.950190734863281250e+01,-4.577636136673390865e-04,7.848969101905822754e-02,9.050399780273437500e+00,1.497049879617406987e-06,-2.116530900821089745e-03,8.338087797164916992e-02,-5.551751382881775498e-05,-1.615591198205947876e-01,-3.435805556364357471e-04,6.259514950215816498e-03,5.000000000000000000e-01,3.280639793956652284e-05,0.000000000000000000e+00
2.195794820785522461e+00,-5.799458980560302734e+00,7.896817016601562500e+01,7.896817016601562500e+01,2.565418928861618042e-02,8.950190734863281250e+01,-4.577636136673390865e-04,7.848969101905822754e-02,9.050399780273437500e+00,1.497049879617406987e-06,-2.116530900821089745e-03,8.338087797164916992e-02,-5.551751382881775498e-05,-1.615591198205947876e-01,-3.435805556364357471e-04,6.259514950215816498e-03,5.000000000000000000e-01,3.280639793956652284e-05,0.000000000000000000e+00
2.195794820785522461e+00,-5.799458980560302734e+00,7.896817016601562500e+01,7.896817016601562500e+01,2.565418928861618042e-02,8.950190734863281250e+01,-4.577636136673390865e-04,7.848969101905822754e-02,9.050399780273437500e+00,1.497049879617406987e-06,-2.116530900821089745e-03,8.338087797164916992e-02,-5.551751382881775498e-05,-1.615591198205947876e-01,-3.435805556364357471e-04,6.259514950215816498e-03,5.000000000000000000e-01,3.280639793956652284e-05,0.000000000000000000e+00
2.195794820785522461e+00,-5.799458980560302734e+00,7.896817016601562500e+01,7.896817016601562500e+01,2.565418928861618042e-02,8.950190734863281250e+01,-4.577636136673390865e-04,7.848969101905822754e-02,9.050399780273437500e+00,1.497049879617406987e-06,-2.116530900821089745e-03,8.338087797164916992e-02,-5.551751382881775498e-05,-1.615591198205947876e-01,-3.435805556364357471e-04,6.259514950215816498e-03,5.000000000000000000e-01,3.280639793956652284e-05,0.000000000000000000e+00
2.195794820785522461e+00,-5.799458980560302734e+00,7.896817016601562500e+01,7.896817016601562500e+01,2.565418928861618042e-02,8.950190734863281250e+01,-4.577636136673390865e-04,7.848969101905822754e-02,9.050399780273437500e+00,1.497049879617406987e-06,-2.116530900821089745e-03,8.338087797164916992e-02,-5.551751382881775498e-05,-1.615591198205947876e-01,-3.435805556364357471e-04,6.259514950215816498e-03,5.000000000000000000e-01,3.280639793956652284e-05,0.000000000000000000e+00
2.195794820785522461e+00,-5.799458980560302734e+00,7.896817016601562500e+01,7.896817016601562500e+01,2.565418928861618042e-02,8.950190734863281250e+01,-4.577636136673390865e-04,7.848969101905822754e-02,9.050399780273437500e+00,1.497049879617406987e-06,-2.116530900821089745e-03,8.338087797164916992e-02,-5.551751382881775498e-05,-1.615591198205947876e-01,-3.435805556364357471e-04,6.259514950215816498e-03,5.000000000000000000e-01,3.280639793956652284e-05,0.000000000000000000e+00
2.195794820785522461e+00,-5.799458980560302734e+00,7.896817016601562500e+01,7.896817016601562500e+01,2.565418928861618042e-02,8.950190734863281250e+01,-4.577636136673390865e-04,7.848969101905822754e-02,9.050399780273437500e+00,1.497049879617406987e-06,-2.116530900821089745e-03,8.338087797164916992e-02,-5.551751382881775498e-05,-1.615591198205947876e-01,-3.435805556364357471e-04,6.259514950215816498e-03,5.000000000000000000e-01,3.280639793956652284e-05,0.000000000000000000e+00
2.195794820785522461e+00,-5.799458980560302734e+00,7.896817016601562500e+01,7.896817016601562500e+01,2.565418928861618042e-02,8.950190734863281250e+01,-4.577636136673390865e-04,7.848969101905822754e-02,9.050399780273437500e+00,1.497049879617406987e-06,-2.116530900821089745e-03,8.338087797164916992e-02,-5.551751382881775498e-05,-1.615591198205947876e-01,-3.435805556364357471e-04,6.259514950215816498e-03,5.000000000000000000e-01,3.280639793956652284e-05,0.000000000000000000e+00
2.374083757400512695e+00,-5.795290946960449219e+00,7.944849395751953125e+01,7.944849395751953125e+01,1.856445334851741791e-02,8.950238037109375000e+01,-3.967279335483908653e-04,7.839839160442352295e-02,9.052677154541015625e+00,-1.001225200525368564e-06,-5.120867863297462463e-04,1.277350261807441711e-02,-1.401250756316585466e-05,-1.189546734094619751e-01,2.947648463305085897e-04,1.049533393234014511e-02,5.000000000000000000e-01,4.479544440982863307e-05,0.000000000000000000e+00
2.374083757400512695e+00,-5.795290946960449219e+00,7.944849395751953125e+01,7.944849395751953125e+01,1.856445334851741791e-02,8.950238037109375000e+01,-3.967279335483908653e-04,7.839839160442352295e-02,9.052677154541015625e+00,-1.001225200525368564e-06,-5.120867863297462463e-04,1.277350261807441711e-02,-1.401250756316585466e-05,-1.189546734094619751e-01,2.947648463305085897e-04,1.049533393234014511e-02,5.000000000000000000e-01,4.479544440982863307e-05,0.000000000000000000e+00
2.374083757400512695e+00,-5.795290946960449219e+00,7.944849395751953125e+01,7.944849395751953125e+01,1.856445334851741791e-02,8.950238037109375000e+01,-3.967279335483908653e-04,7.839839160442352295e-02,9.052677154541015625e+00,-1.001225200525368564e-06,-5.120867863297462463e-04,1.277350261807441711e-02,-1.401250756316585466e-05,-1.189546734094619751e-01,2.947648463305085897e-04,1.049533393234014511e-02,5.000000000000000000e-01,4.479544440982863307e-05,0.000000000000000000e+00
2.447860002517700195e+00,-5.787444114685058594e+00,8.035393524169921875e+01,8.035393524169921875e+01,1.003354694694280624e-02,8.950368499755859375e+01,-3.356935339979827404e-04,7.827056199312210083e-02,9.056468009948730469e+00,4.004764377896208316e-07,-1.732666278257966042e-03,5.138314515352249146e-02,1.899936250993050635e-05,-6.229584291577339172e-02,4.561054520308971405e-04,1.400406658649444580e-02,5.000000000000000000e-01,4.076276673004031181e-05,0.000000000000000000e+00
2.447860002517700195e+00,-5.787444114685058594e+00,8.035393524169921875e+01,8.035393524169921875e+01,1.003354694694280624e-02,8.950368499755859375e+01,-3.356935339979827404e-04,7.827056199312210083e-02,9.056468009948730469e+00,4.004764377896208316e-07,-1.732666278257966042e-03,5.138314515352249146e-02,1.899936250993050635e-05,-6.229584291577339172e-02,4.561054520308971405e-04,1.400406658649444580e-02,5.000000000000000000e-01,4.076276673004031181e-05,0.000000000000000000e+00
2.500878810882568359e+00,-5.781659603118896484e+00,8.102217864990234375e+01,8.102217864990234375e+01,6.857509724795818329e-03,8.950466918945312500e+01,-3.051756939385086298e-04,7.824257016181945801e-02,9.058983802795410156e+00,5.244434646556328516e-07,-5.279603647068142891e-04,4.745094850659370422e-02,2.338170816074125469e-06,-3.229877725243568420e-02,8.848966535879299045e-05,1.310179661959409714e-02,5.000000000000000000e-01,2.234322710137348622e-05,0.000000000000000000e+00
2.500878810882568359e+00,-5.781659603118896484e+00,8.102217864990234375e+01,8.102217864990234375e+01,6.857509724795818329e-03,8.950466918945312500e+01,-3.051756939385086298e-04,7.824257016181945801e-02,9.058983802795410156e+00,5.244434646556328516e-07,-5.279603647068142891e-04,4.745094850659370422e-02,2.338170816074125469e-06,-3.229877725243568420e-02,8.848966535879299045e-05,1.310179661959409714e-02,5.000000000000000000e-01,2.234322710137348622e-05,0.000000000000000000e+00
2.500878810882568359e+00,-5.781659603118896484e+00,8.102217864990234375e+01,8.102217864990234375e+01,6.857509724795818329e-03,8.950466918945312500e+01,-3.051756939385086298e-04,7.824257016181945801e-02,9.058983802795410156e+00,5.244434646556328516e-07,-5.279603647068142891e-04,4.745094850659370422e-02,2.338170816074125469e-06,-3.229877725243568420e-02,8.848966535879299045e-05,1.310179661959409714e-02,5.000000000000000000e-01,2.234322710137348622e-05,0.000000000000000000e+00
2.560195446014404297e+00,-5.777504920959472656e+00,8.150252532958984375e+01,8.150252532958984375e+01,5.669056903570890427e-03,8.950527954101562500e+01,-2.746578829828649759e-04,7.824166864156723022e-02,9.060701370239257812e+00,-3.242062689423619304e-07,-1.519843863206915557e-05,2.895591408014297485e-02,-1.430711199645884335e-05,-1.734283939003944397e-02,3.351139457663521171e-05,1.141852419823408127e-02,5.000000000000000000e-01,6.975446467549772933e-06,0.000000000000000000e+00
2.560195446014404297e+00,-5.777504920959472656e+00,8.150252532958984375e+01,8.150252532958984375e+01,5.669056903570890427e-03,8.950527954101562500e+01,-2.746578829828649759e-04,7.824166864156723022e-02,9.060701370239257812e+00,-3.242062689423619304e-07,-1.519843863206915557e-05,2.895591408014297485e-02,-1.430711199645884335e-05,-1.734283939003944397e-02,3.351139457663521171e-05,1.141852419823408127e-02,5.000000000000000000e-01,6.975446467549772933e-06,0.000000000000000000e+00
2.560195446014404297e+00,-5.772856712341308594e+00,8.204003906250000000e+01,8.204003906250000000e+01,5.081660579890012741e-03,8.950589752197265625e+01,-2.746580867096781731e-04,7.823910564184188843e-02,9.062555313110351562e+00,1.125168751059391070e-06,-4.378569065011106431e-05,3.167232871055603027e-02,2.476078589097596705e-05,-5.937104113399982452e-03,5.595030961558222771e-05,9.252399206161499023e-03,5.000000000000000000e-01,-3.705705921674962156e-06,0.000000000000000000e+00
2.618730545043945312e+00,-5.772856712341308594e+00,8.204003906250000000e+01,8.204003906250000000e+01,5.081660579890012741e-03,8.950589752197265625e+01,-2.746580867096781731e-04,7.823910564184188843e-02,9.062555313110351562e+00,1.125168751059391070e-06,-4.378569065011106431e-05,3.167232871055603027e-02,2.476078589097596705e-05,-5.937104113399982452e-03,5.595030961558222771e-05,9.252399206161499023e-03,5.000000000000000000e-01,-3.705705921674962156e-06,0.000000000000000000e+00
2.618730545043945312e+00,-5.768271923065185547e+00,8.257058715820312500e+01,8.257058715820312500e+01,5.020188633352518082e-03,8.950634002685546875e+01,-2.441408869344741106e-04,7.825275510549545288e-02,9.064335823059082031e+00,1.907069524520466075e-08,2.329119888599961996e-04,3.038230165839195251e-02,-1.887425787572283298e-05,1.552485860884189606e-03,-3.120284964097663760e-05,6.878840271383523941e-03,5.000000000000000000e-01,-1.569475534779485315e-05,0.000000000000000000e+00
2.677334070205688477e+00,-5.768271923065185547e+00,8.257058715820312500e+01,8.257058715820312500e+01,5.020188633352518082e-03,8.950634002685546875e+01,-2.441408869344741106e-04,7.825275510549545288e-02,9.064335823059082031e+00,1.907069524520466075e-08,2.329119888599961996e-04,3.038230165839195251e-02,-1.887425787572283298e-05,1.552485860884189606e-03,-3.120284964097663760e-05,6.878840271383523941e-03,5.000000000000000000e-01,-1.569475534779485315e-05,0.000000000000000000e+00
2.677334070205688477e+00,-5.768271923065185547e+00,8.257058715820312500e+01,8.257058715820312500e+01,5.020188633352518082e-03,8.950634002685546875e+01,-2.441408869344741106e-04,7.825275510549545288e-02,9.064335823059082031e+00,1.907069524520466075e-08,2.329119888599961996e-04,3.038230165839195251e-02,-1.887425787572283298e-05,1.552485860884189606e-03,-3.120284964097663760e-05,6.878840271383523941e-03,5.000000000000000000e-01,-1.569475534779485315e-05,0.000000000000000000e+00
2.677334070205688477e+00,-5.768271923065185547e+00,8.257058715820312500e+01,8.257058715820312500e+01,5.020188633352518082e-03,8.950634002685546875e+01,-2.441408869344741106e-04,7.825275510549545288e-02,9.064335823059082031e+00,1.907069524520466075e-08,2.329119888599961996e-04,3.038230165839195251e-02,-1.887425787572283298e-05,1.552485860884189606e-03,-3.120284964097663760e-05,6.878840271383523941e-03,5.000000000000000000e-01,-1.569475534779485315e-05,0.000000000000000000e+00
2.755024909973144531e+00,-5.763681411743164062e+00,8.310184478759765625e+01,8.310184478759765625e+01,5.286565981805324554e-03,8.950668334960937500e+01,-2.441406832076609135e-04,7.825525104999542236e-02,9.066076278686523438e+00,1.144241466022322129e-07,3.212662704754620790e-05,2.240232750773429871e-02,1.227344796461693477e-06,6.043684668838977814e-03,3.847869811579585075e-05,4.930811002850532532e-03,5.000000000000000000e-01,-2.136230432370211929e-05,0.000000000000000000e+00
2.755024909973144531e+00,-5.763681411743164062e+00,8.310184478759765625e+01,8.310184478759765625e+01,5.286565981805324554e-03,8.950668334960937500e+01,-2.441406832076609135e-04,7.825525104999542236e-02,9.066076278686523438e+00,1.144241466022322129e-07,3.212662704754620790e-05,2.240232750773429871e-02,1.227344796461693477e-06,6.043684668838977814e-03,3.847869811579585075e-05,4.930811002850532532e-03,5.000000000000000000e-01,-2.136230432370211929e-05,0.000000000000000000e+00
2.755024909973144531e+00,-5.763681411743164062e+00,8.310184478759765625e+01,8.310184478759765625e+01,5.286565981805324554e-03,8.950668334960937500e+01,-2.441406832076609135e-04,7.825525104999542236e-02,9.066076278686523438e+00,1.144241466022322129e-07,3.212662704754620790e-05,2.240232750773429871e-02,1.227344796461693477e-06,6.043684668838977814e-03,3.847869811579585075e-05,4.930811002850532532e-03,5.000000000000000000e-01,-2.136230432370211929e-05,0.000000000000000000e+00
2.830169916152954102e+00,-5.757596969604492188e+00,8.380632019042968750e+01,8.380632019042968750e+01,5.901283118873834610e-03,8.950693511962890625e+01,-2.441404794808477163e-04,7.827138900756835938e-02,9.068332672119140625e+00,1.907052293859123893e-08,2.147575432900339365e-04,3.002719022333621979e-02,-1.268928258468804415e-06,8.735352195799350739e-03,-4.384684871183708310e-05,2.706056926399469376e-03,5.000000000000000000e-01,-2.833775033650454134e-05,0.000000000000000000e+00
2.830169916152954102e+00,-5.757596969604492188e+00,8.380632019042968750e+01,8.380632019042968750e+01,5.901283118873834610e-03,8.950693511962890625e+01,-2.441404794808477163e-04,7.827138900756835938e-02,9.068332672119140625e+00,1.907052293859123893e-08,2.147575432900339365e-04,3.002719022333621979e-02,-1.268928258468804415e-06,8.735352195799350739e-03,-4.384684871183708310e-05,2.706056926399469376e-03,5.000000000000000000e-01,-2.833775033650454134e-05,0.000000000000000000e+00
2.830169916152954102e+00,-5.757596969604492188e+00,8.380632019042968750e+01,8.380632019042968750e+01,5.901283118873834610e-03,8.950693511962890625e+01,-2.441404794808477163e-04,7.827138900756835938e-02,9.068332672119140625e+00,1.907052293859123893e-08,2.147575432900339365e-04,3.002719022333621979e-02,-1.268928258468804415e-06,8.735352195799350739e-03,-4.384684871183708310e-05,2.706056926399469376e-03,5.000000000000000000e-01,-2.833775033650454134e-05,0.000000000000000000e+00
2.830169916152954102e+00,-5.757596969604492188e+00,8.380632019042968750e+01,8.380632019042968750e+01,5.901283118873834610e-03,8.950693511962890625e+01,-2.441404794808477163e-04,7.827138900756835938e-02,9.068332672119140625e+00,1.907052293859123893e-08,2.147575432900339365e-04,3.002719022333621979e-02,-1.268928258468804415e-06,8.735352195799350739e-03,-4.384684871183708310e-05,2.706056926399469376e-03,5.000000000000000000e-01,-2.833775033650454134e-05,0.000000000000000000e+00
2.830169916152954102e+00,-5.757596969604492188e+00,8.380632019042968750e+01,8.380632019042968750e+01,5.901283118873834610e-03,8.950693511962890625e+01,-2.441404794808477163e-04,7.827138900756835938e-02,9.068332672119140625e+00,1.907052293859123893e-08,2.147575432900339365e-04,3.002719022333621979e-02,-1.268928258468804415e-06,8.735352195799350739e-03,-4.384684871183708310e-05,2.706056926399469376e-03,5.000000000000000000e-01,-2.833775033650454134e-05,0.000000000000000000e+00
2.917726278305053711e+00,-5.751711368560791016e+00,8.448786163330078125e+01,8.448786163330078125e+01,6.584302056580781937e-03,8.950703430175781250e+01,-2.441404794808477163e-04,7.830803841352462769e-02,9.070472717285156250e+00,-4.100183161881432170e-07,4.185807192698121071e-04,2.444191463291645050e-02,-4.900715339317684993e-06,8.982531726360321045e-03,-1.170046307379379869e-04,7.975439657457172871e-04,5.000000000000000000e-01,-3.574916263460181653e-05,0.000000000000000000e+00
