# Time,X,Y,Z,Roll,Pitch,Yaw,Vx,Vy,Vz,Ax,Ay,Az,Wx,Wy,Wz,Throttle,Steer,Brake
0.000000000000000000e+00,6.585620727539062500e+02,2.169899225234985352e+00,2.169899225234985352e+00,6.828139722347259521e-02,-1.205383529663085938e+02,5.129476785659790039e-01,-7.703918933868408203e+00,-1.267072391510009766e+01,-2.007200600928626955e-05,-3.358779907226562500e+00,2.366936683654785156e+00,3.915646175300935283e-06,5.239405035972595215e-01,1.984417140483856201e-01,-1.985730171203613281e+01,5.000000000000000000e-01,-7.117647677659988403e-02,0.000000000000000000e+00
1.045818328857421875e-01,6.585620727539062500e+02,2.169899225234985352e+00,2.169899225234985352e+00,6.828139722347259521e-02,-1.205383529663085938e+02,5.129476785659790039e-01,-7.703918933868408203e+00,-1.267072391510009766e+01,-2.007200600928626955e-05,-3.358779907226562500e+00,2.366936683654785156e+00,3.915646175300935283e-06,5.239405035972595215e-01,1.984417140483856201e-01,-1.985730171203613281e+01,5.000000000000000000e-01,-7.117647677659988403e-02,0.000000000000000000e+00
1.045818328857421875e-01,6.585620727539062500e+02,2.169899225234985352e+00,2.169899225234985352e+00,6.828139722347259521e-02,-1.205383529663085938e+02,5.129476785659790039e-01,-7.703918933868408203e+00,-1.267072391510009766e+01,-2.007200600928626955e-05,-3.358779907226562500e+00,2.366936683654785156e+00,3.915646175300935283e-06,5.239405035972595215e-01,1.984417140483856201e-01,-1.985730171203613281e+01,5.000000000000000000e-01,-7.117647677659988403e-02,0.000000000000000000e+00
1.045818328857421875e-01,6.585620727539062500e+02,2.169899225234985352e+00,2.169899225234985352e+00,6.828139722347259521e-02,-1.205383529663085938e+02,5.129476785659790039e-01,-7.703918933868408203e+00,-1.267072391510009766e+01,-2.007200600928626955e-05,-3.358779907226562500e+00,2.366936683654785156e+00,3.915646175300935283e-06,5.239405035972595215e-01,1.984417140483856201e-01,-1.985730171203613281e+01,5.000000000000000000e-01,-7.117647677659988403e-02,0.000000000000000000e+00
1.045818328857421875e-01,6.585620727539062500e+02,2.169899225234985352e+00,2.169899225234985352e+00,6.828139722347259521e-02,-1.205383529663085938e+02,5.129476785659790039e-01,-7.703918933868408203e+00,-1.267072391510009766e+01,-2.007200600928626955e-05,-3.358779907226562500e+00,2.366936683654785156e+00,3.915646175300935283e-06,5.239405035972595215e-01,1.984417140483856201e-01,-1.985730171203613281e+01,5.000000000000000000e-01,-7.117647677659988403e-02,0.000000000000000000e+00
1.045818328857421875e-01,6.585620727539062500e+02,2.169899225234985352e+00,2.169899225234985352e+00,6.828139722347259521e-02,-1.205383529663085938e+02,5.129476785659790039e-01,-7.703918933868408203e+00,-1.267072391510009766e+01,-2.007200600928626955e-05,-3.358779907226562500e+00,2.366936683654785156e+00,3.915646175300935283e-06,5.239405035972595215e-01,1.984417140483856201e-01,-1.985730171203613281e+01,5.000000000000000000e-01,-7.117647677659988403e-02,0.000000000000000000e+00
1.045818328857421875e-01,6.577899169921875000e+02,9.085551500320434570e-01,9.085551500320434570e-01,3.613169863820075989e-02,-1.224333572387695312e+02,5.256351232528686523e-01,-8.039365768432617188e+00,-1.238809394836425781e+01,-2.669843070179922506e-06,-3.203613042831420898e+00,2.699196815490722656e+00,1.661956193856894970e-04,3.137023150920867920e-01,-5.277558416128158569e-02,-1.844426536560058594e+01,5.000000000000000000e-01,-5.992791429162025452e-02,0.000000000000000000e+00
2.092907428741455078e-01,6.577899169921875000e+02,9.085551500320434570e-01,9.085551500320434570e-01,3.613169863820075989e-02,-1.224333572387695312e+02,5.256351232528686523e-01,-8.039365768432617188e+00,-1.238809394836425781e+01,-2.669843070179922506e-06,-3.203613042831420898e+00,2.699196815490722656e+00,1.661956193856894970e-04,3.137023150920867920e-01,-5.277558416128158569e-02,-1.844426536560058594e+01,5.000000000000000000e-01,-5.992791429162025452e-02,0.000000000000000000e+00
2.092907428741455078e-01,6.577899169921875000e+02,9.085551500320434570e-01,9.085551500320434570e-01,3.613169863820075989e-02,-1.224333572387695312e+02,5.256351232528686523e-01,-8.039365768432617188e+00,-1.238809394836425781e+01,-2.669843070179922506e-06,-3.203613042831420898e+00,2.699196815490722656e+00,1.661956193856894970e-04,3.137023150920867920e-01,-5.277558416128158569e-02,-1.844426536560058594e+01,5.000000000000000000e-01,-5.992791429162025452e-02,0.000000000000000000e+00
2.092907428741455078e-01,6.577899169921875000e+02,9.085551500320434570e-01,9.085551500320434570e-01,3.613169863820075989e-02,-1.224333572387695312e+02,5.256351232528686523e-01,-8.039365768432617188e+00,-1.238809394836425781e+01,-2.669843070179922506e-06,-3.203613042831420898e+00,2.699196815490722656e+00,1.661956193856894970e-04,3.137023150920867920e-01,-5.277558416128158569e-02,-1.844426536560058594e+01,5.000000000000000000e-01,-5.992791429162025452e-02,0.000000000000000000e+00
2.092907428741455078e-01,6.577899169921875000e+02,9.085551500320434570e-01,9.085551500320434570e-01,3.613169863820075989e-02,-1.224333572387695312e+02,5.256351232528686523e-01,-8.039365768432617188e+00,-1.238809394836425781e+01,-2.669843070179922506e-06,-3.203613042831420898e+00,2.699196815490722656e+00,1.661956193856894970e-04,3.137023150920867920e-01,-5.277558416128158569e-02,-1.844426536560058594e+01,5.000000000000000000e-01,-5.992791429162025452e-02,0.000000000000000000e+00
2.092907428741455078e-01,6.569827270507812500e+02,-3.219628930091857910e-01,-3.219628930091857910e-01,1.048433966934680939e-02,-1.242292480468750000e+02,5.379610061645507812e-01,-8.373098373413085938e+00,-1.206608581542968750e+01,1.525624497844546568e-06,-4.472513675689697266e+00,4.315388202667236328e+00,5.622551179840229452e-05,2.555367648601531982e-01,-3.488018363714218140e-02,-1.768251609802246094e+01,5.000000000000000000e-01,-5.956093966960906982e-02,0.000000000000000000e+00
2.839093208312988281e-01,6.569827270507812500e+02,-3.219628930091857910e-01,-3.219628930091857910e-01,1.048433966934680939e-02,-1.242292480468750000e+02,5.379610061645507812e-01,-8.373098373413085938e+00,-1.206608581542968750e+01,1.525624497844546568e-06,-4.472513675689697266e+00,4.315388202667236328e+00,5.622551179840229452e-05,2.555367648601531982e-01,-3.488018363714218140e-02,-1.768251609802246094e+01,5.000000000000000000e-01,-5.956093966960906982e-02,0.000000000000000000e+00
2.839093208312988281e-01,6.569827270507812500e+02,-3.219628930091857910e-01,-3.219628930091857910e-01,1.048433966934680939e-02,-1.242292480468750000e+02,5.379610061645507812e-01,-8.373098373413085938e+00,-1.206608581542968750e+01,1.525624497844546568e-06,-4.472513675689697266e+00,4.315388202667236328e+00,5.622551179840229452e-05,2.555367648601531982e-01,-3.488018363714218140e-02,-1.768251609802246094e+01,5.000000000000000000e-01,-5.956093966960906982e-02,0.000000000000000000e+00
2.839093208312988281e-01,6.569827270507812500e+02,-3.219628930091857910e-01,-3.219628930091857910e-01,1.048433966934680939e-02,-1.242292480468750000e+02,5.379610061645507812e-01,-8.373098373413085938e+00,-1.206608581542968750e+01,1.525624497844546568e-06,-4.472513675689697266e+00,4.315388202667236328e+00,5.622551179840229452e-05,2.555367648601531982e-01,-3.488018363714218140e-02,-1.768251609802246094e+01,5.000000000000000000e-01,-5.956093966960906982e-02,0.000000000000000000e+00
2.839093208312988281e-01,6.569827270507812500e+02,-3.219628930091857910e-01,-3.219628930091857910e-01,1.048433966934680939e-02,-1.242292480468750000e+02,5.379610061645507812e-01,-8.373098373413085938e+00,-1.206608581542968750e+01,1.525624497844546568e-06,-4.472513675689697266e+00,4.315388202667236328e+00,5.622551179840229452e-05,2.555367648601531982e-01,-3.488018363714218140e-02,-1.768251609802246094e+01,5.000000000000000000e-01,-5.956093966960906982e-02,0.000000000000000000e+00
3.569011688232421875e-01,6.563610229492187500e+02,-1.220761775970458984e+00,-1.220761775970458984e+00,-3.968339879065752029e-03,-1.254495468139648438e+02,5.203268527984619141e-01,-8.556718826293945312e+00,-1.186625480651855469e+01,1.952833372342865914e-05,-2.515629529953002930e+00,2.737716913223266602e+00,2.466400037519633770e-04,-2.778340596705675125e-03,-2.823853492736816406e-01,-1.563062763214111328e+01,5.000000000000000000e-01,-4.585015401244163513e-02,0.000000000000000000e+00
3.569011688232421875e-01,6.563610229492187500e+02,-1.220761775970458984e+00,-1.220761775970458984e+00,-3.968339879065752029e-03,-1.254495468139648438e+02,5.203268527984619141e-01,-8.556718826293945312e+00,-1.186625480651855469e+01,1.952833372342865914e-05,-2.515629529953002930e+00,2.737716913223266602e+00,2.466400037519633770e-04,-2.778340596705675125e-03,-2.823853492736816406e-01,-1.563062763214111328e+01,5.000000000000000000e-01,-4.585015401244163513e-02,0.000000000000000000e+00
3.569011688232421875e-01,6.563610229492187500e+02,-1.220761775970458984e+00,-1.220761775970458984e+00,-3.968339879065752029e-03,-1.254495468139648438e+02,5.203268527984619141e-01,-8.556718826293945312e+00,-1.186625480651855469e+01,1.952833372342865914e-05,-2.515629529953002930e+00,2.737716913223266602e+00,2.466400037519633770e-04,-2.778340596705675125e-03,-2.823853492736816406e-01,-1.563062763214111328e+01,5.000000000000000000e-01,-4.585015401244163513e-02,0.000000000000000000e+00
3.569011688232421875e-01,6.563610229492187500e+02,-1.220761775970458984e+00,-1.220761775970458984e+00,-3.968339879065752029e-03,-1.254495468139648438e+02,5.203268527984619141e-01,-8.556718826293945312e+00,-1.186625480651855469e+01,1.952833372342865914e-05,-2.515629529953002930e+00,2.737716913223266602e+00,2.466400037519633770e-04,-2.778340596705675125e-03,-2.823853492736816406e-01,-1.563062763214111328e+01,5.000000000000000000e-01,-4.585015401244163513e-02,0.000000000000000000e+00
4.765405654907226562e-01,6.557359008789062500e+02,-2.084601640701293945e+00,-2.084601640701293945e+00,-1.144739612936973572e-02,-1.265815963745117188e+02,5.206924080848693848e-01,-8.793685913085937500e+00,-1.165441036224365234e+01,1.479886395827634260e-05,-1.980677723884582520e+00,1.770691394805908203e+00,-3.953104169340804219e-05,7.205935567617416382e-02,-2.245937474071979523e-02,-1.543943500518798828e+01,5.000000000000000000e-01,-5.318897962570190430e-02,0.000000000000000000e+00
4.765405654907226562e-01,6.557359008789062500e+02,-2.084601640701293945e+00,-2.084601640701293945e+00,-1.144739612936973572e-02,-1.265815963745117188e+02,5.206924080848693848e-01,-8.793685913085937500e+00,-1.165441036224365234e+01,1.479886395827634260e-05,-1.980677723884582520e+00,1.770691394805908203e+00,-3.953104169340804219e-05,7.205935567617416382e-02,-2.245937474071979523e-02,-1.543943500518798828e+01,5.000000000000000000e-01,-5.318897962570190430e-02,0.000000000000000000e+00
4.765405654907226562e-01,6.557359008789062500e+02,-2.084601640701293945e+00,-2.084601640701293945e+00,-1.144739612936973572e-02,-1.265815963745117188e+02,5.206924080848693848e-01,-8.793685913085937500e+00,-1.165441036224365234e+01,1.479886395827634260e-05,-1.980677723884582520e+00,1.770691394805908203e+00,-3.953104169340804219e-05,7.205935567617416382e-02,-2.245937474071979523e-02,-1.543943500518798828e+01,5.000000000000000000e-01,-5.318897962570190430e-02,0.000000000000000000e+00
4.765405654907226562e-01,6.557359008789062500e+02,-2.084601640701293945e+00,-2.084601640701293945e+00,-1.144739612936973572e-02,-1.265815963745117188e+02,5.206924080848693848e-01,-8.793685913085937500e+00,-1.165441036224365234e+01,1.479886395827634260e-05,-1.980677723884582520e+00,1.770691394805908203e+00,-3.953104169340804219e-05,7.205935567617416382e-02,-2.245937474071979523e-02,-1.543943500518798828e+01,5.000000000000000000e-01,-5.318897962570190430e-02,0.000000000000000000e+00
4.765405654907226562e-01,6.557359008789062500e+02,-2.084601640701293945e+00,-2.084601640701293945e+00,-1.144739612936973572e-02,-1.265815963745117188e+02,5.206924080848693848e-01,-8.793685913085937500e+00,-1.165441036224365234e+01,1.479886395827634260e-05,-1.980677723884582520e+00,1.770691394805908203e+00,-3.953104169340804219e-05,7.205935567617416382e-02,-2.245937474071979523e-02,-1.543943500518798828e+01,5.000000000000000000e-01,-5.318897962570190430e-02,0.000000000000000000e+00
4.765405654907226562e-01,6.557359008789062500e+02,-2.084601640701293945e+00,-2.084601640701293945e+00,-1.144739612936973572e-02,-1.265815963745117188e+02,5.206924080848693848e-01,-8.793685913085937500e+00,-1.165441036224365234e+01,1.479886395827634260e-05,-1.980677723884582520e+00,1.770691394805908203e+00,-3.953104169340804219e-05,7.205935567617416382e-02,-2.245937474071979523e-02,-1.543943500518798828e+01,5.000000000000000000e-01,-5.318897962570190430e-02,0.000000000000000000e+00
4.765405654907226562e-01,6.557359008789062500e+02,-2.084601640701293945e+00,-2.084601640701293945e+00,-1.144739612936973572e-02,-1.265815963745117188e+02,5.206924080848693848e-01,-8.793685913085937500e+00,-1.165441036224365234e+01,1.479886395827634260e-05,-1.980677723884582520e+00,1.770691394805908203e+00,-3.953104169340804219e-05,7.205935567617416382e-02,-2.245937474071979523e-02,-1.543943500518798828e+01,5.000000000000000000e-01,-5.318897962570190430e-02,0.000000000000000000e+00
6.200885772705078125e-01,6.548542480468750000e+02,-3.245287895202636719e+00,-3.245287895202636719e+00,-1.467807590961456299e-02,-1.280351409912109375e+02,4.997530579566955566e-01,-9.052996635437011719e+00,-1.140813732147216797e+01,2.435278292978182435e-05,-1.806439042091369629e+00,1.715614438056945801e+00,6.655556353507563472e-05,-1.142982095479965210e-01,-1.681145429611206055e-01,-1.404297447204589844e+01,5.000000000000000000e-01,-4.525811225175857544e-02,0.000000000000000000e+00
6.200885772705078125e-01,6.548542480468750000e+02,-3.245287895202636719e+00,-3.245287895202636719e+00,-1.467807590961456299e-02,-1.280351409912109375e+02,4.997530579566955566e-01,-9.052996635437011719e+00,-1.140813732147216797e+01,2.435278292978182435e-05,-1.806439042091369629e+00,1.715614438056945801e+00,6.655556353507563472e-05,-1.142982095479965210e-01,-1.681145429611206055e-01,-1.404297447204589844e+01,5.000000000000000000e-01,-4.525811225175857544e-02,0.000000000000000000e+00
6.200885772705078125e-01,6.548542480468750000e+02,-3.245287895202636719e+00,-3.245287895202636719e+00,-1.467807590961456299e-02,-1.280351409912109375e+02,4.997530579566955566e-01,-9.052996635437011719e+00,-1.140813732147216797e+01,2.435278292978182435e-05,-1.806439042091369629e+00,1.715614438056945801e+00,6.655556353507563472e-05,-1.142982095479965210e-01,-1.681145429611206055e-01,-1.404297447204589844e+01,5.000000000000000000e-01,-4.525811225175857544e-02,0.000000000000000000e+00
6.200885772705078125e-01,6.548542480468750000e+02,-3.245287895202636719e+00,-3.245287895202636719e+00,-1.467807590961456299e-02,-1.280351409912109375e+02,4.997530579566955566e-01,-9.052996635437011719e+00,-1.140813732147216797e+01,2.435278292978182435e-05,-1.806439042091369629e+00,1.715614438056945801e+00,6.655556353507563472e-05,-1.142982095479965210e-01,-1.681145429611206055e-01,-1.404297447204589844e+01,5.000000000000000000e-01,-4.525811225175857544e-02,0.000000000000000000e+00
6.200885772705078125e-01,6.548542480468750000e+02,-3.245287895202636719e+00,-3.245287895202636719e+00,-1.467807590961456299e-02,-1.280351409912109375e+02,4.997530579566955566e-01,-9.052996635437011719e+00,-1.140813732147216797e+01,2.435278292978182435e-05,-1.806439042091369629e+00,1.715614438056945801e+00,6.655556353507563472e-05,-1.142982095479965210e-01,-1.681145429611206055e-01,-1.404297447204589844e+01,5.000000000000000000e-01,-4.525811225175857544e-02,0.000000000000000000e+00
6.200885772705078125e-01,6.548542480468750000e+02,-3.245287895202636719e+00,-3.245287895202636719e+00,-1.467807590961456299e-02,-1.280351409912109375e+02,4.997530579566955566e-01,-9.052996635437011719e+00,-1.140813732147216797e+01,2.435278292978182435e-05,-1.806439042091369629e+00,1.715614438056945801e+00,6.655556353507563472e-05,-1.142982095479965210e-01,-1.681145429611206055e-01,-1.404297447204589844e+01,5.000000000000000000e-01,-4.525811225175857544e-02,0.000000000000000000e+00
7.946169376373291016e-01,6.539437255859375000e+02,-4.378524303436279297e+00,-4.378524303436279297e+00,-1.519033964723348618e-02,-1.294817504882812500e+02,5.009733438491821289e-01,-9.347403526306152344e+00,-1.111599445343017578e+01,6.483904144261032343e-06,-1.686871290206909180e+00,1.673899054527282715e+00,-1.023838121909648180e-04,-9.754199534654617310e-03,-1.237482298165559769e-02,-1.469413375854492188e+01,5.000000000000000000e-01,-5.348358303308486938e-02,0.000000000000000000e+00
7.946169376373291016e-01,6.539437255859375000e+02,-4.378524303436279297e+00,-4.378524303436279297e+00,-1.519033964723348618e-02,-1.294817504882812500e+02,5.009733438491821289e-01,-9.347403526306152344e+00,-1.111599445343017578e+01,6.483904144261032343e-06,-1.686871290206909180e+00,1.673899054527282715e+00,-1.023838121909648180e-04,-9.754199534654617310e-03,-1.237482298165559769e-02,-1.469413375854492188e+01,5.000000000000000000e-01,-5.348358303308486938e-02,0.000000000000000000e+00
7.946169376373291016e-01,6.539437255859375000e+02,-4.378524303436279297e+00,-4.378524303436279297e+00,-1.519033964723348618e-02,-1.294817504882812500e+02,5.009733438491821289e-01,-9.347403526306152344e+00,-1.111599445343017578e+01,6.483904144261032343e-06,-1.686871290206909180e+00,1.673899054527282715e+00,-1.023838121909648180e-04,-9.754199534654617310e-03,-1.237482298165559769e-02,-1.469413375854492188e+01,5.000000000000000000e-01,-5.348358303308486938e-02,0.000000000000000000e+00
7.946169376373291016e-01,6.539437255859375000e+02,-4.378524303436279297e+00,-4.378524303436279297e+00,-1.519033964723348618e-02,-1.294817504882812500e+02,5.009733438491821289e-01,-9.347403526306152344e+00,-1.111599445343017578e+01,6.483904144261032343e-06,-1.686871290206909180e+00,1.673899054527282715e+00,-1.023838121909648180e-04,-9.754199534654617310e-03,-1.237482298165559769e-02,-1.469413375854492188e+01,5.000000000000000000e-01,-5.348358303308486938e-02,0.000000000000000000e+00
8.783230781555175781e-01,6.530079345703125000e+02,-5.486304283142089844e+00,-5.486304283142089844e+00,-1.445950940251350403e-02,-1.308719940185546875e+02,4.732618629932403564e-01,-9.568745613098144531e+00,-1.088013648986816406e+01,1.941357186296954751e-05,-2.644275426864624023e+00,2.817690134048461914e+00,1.544649858260527253e-04,-1.667652577161788940e-01,-1.793153136968612671e-01,-1.347146129608154297e+01,5.000000000000000000e-01,-4.394705593585968018e-02,0.000000000000000000e+00
8.783230781555175781e-01,6.530079345703125000e+02,-5.486304283142089844e+00,-5.486304283142089844e+00,-1.445950940251350403e-02,-1.308719940185546875e+02,4.732618629932403564e-01,-9.568745613098144531e+00,-1.088013648986816406e+01,1.941357186296954751e-05,-2.644275426864624023e+00,2.817690134048461914e+00,1.544649858260527253e-04,-1.667652577161788940e-01,-1.793153136968612671e-01,-1.347146129608154297e+01,5.000000000000000000e-01,-4.394705593585968018e-02,0.000000000000000000e+00
9.483780860900878906e-01,6.522050781250000000e+02,-6.392782688140869141e+00,-6.392782688140869141e+00,-1.409750990569591522e-02,-1.320519714355468750e+02,4.780874848365783691e-01,-9.800802230834960938e+00,-1.062593746185302734e+01,5.702176622435217723e-06,-3.312491416931152344e+00,3.628563165664672852e+00,-1.957232598215341568e-04,3.432478383183479309e-02,4.298678040504455566e-02,-1.445128440856933594e+01,5.000000000000000000e-01,-5.457632988691329956e-02,0.000000000000000000e+00
9.483780860900878906e-01,6.522050781250000000e+02,-6.392782688140869141e+00,-6.392782688140869141e+00,-1.409750990569591522e-02,-1.320519714355468750e+02,4.780874848365783691e-01,-9.800802230834960938e+00,-1.062593746185302734e+01,5.702176622435217723e-06,-3.312491416931152344e+00,3.628563165664672852e+00,-1.957232598215341568e-04,3.432478383183479309e-02,4.298678040504455566e-02,-1.445128440856933594e+01,5.000000000000000000e-01,-5.457632988691329956e-02,0.000000000000000000e+00
9.483780860900878906e-01,6.522050781250000000e+02,-6.392782688140869141e+00,-6.392782688140869141e+00,-1.409750990569591522e-02,-1.320519714355468750e+02,4.780874848365783691e-01,-9.800802230834960938e+00,-1.062593746185302734e+01,5.702176622435217723e-06,-3.312491416931152344e+00,3.628563165664672852e+00,-1.957232598215341568e-04,3.432478383183479309e-02,4.298678040504455566e-02,-1.445128440856933594e+01,5.000000000000000000e-01,-5.457632988691329956e-02,0.000000000000000000e+00
9.483780860900878906e-01,6.522050781250000000e+02,-6.392782688140869141e+00,-6.392782688140869141e+00,-1.409750990569591522e-02,-1.320519714355468750e+02,4.780874848365783691e-01,-9.800802230834960938e+00,-1.062593746185302734e+01,5.702176622435217723e-06,-3.312491416931152344e+00,3.628563165664672852e+00,-1.957232598215341568e-04,3.432478383183479309e-02,4.298678040504455566e-02,-1.445128440856933594e+01,5.000000000000000000e-01,-5.457632988691329956e-02,0.000000000000000000e+00
9.483780860900878906e-01,6.515257568359375000e+02,-7.131378173828125000e+00,-7.131378173828125000e+00,-3.161694481968879700e-02,-1.330382995605468750e+02,4.630054831504821777e-01,-9.753683090209960938e+00,-1.025461673736572266e+01,8.534188964404165745e-06,5.979661345481872559e-01,4.712251186370849609e+00,3.593969449866563082e-05,2.189078778028488159e-01,-6.290984153747558594e-01,-1.370848560333251953e+01,5.000000000000000000e-01,-4.849046841263771057e-02,0.000000000000000000e+00
1.027177095413208008e+00,6.515257568359375000e+02,-7.131378173828125000e+00,-7.131378173828125000e+00,-3.161694481968879700e-02,-1.330382995605468750e+02,4.630054831504821777e-01,-9.753683090209960938e+00,-1.025461673736572266e+01,8.534188964404165745e-06,5.979661345481872559e-01,4.712251186370849609e+00,3.593969449866563082e-05,2.189078778028488159e-01,-6.290984153747558594e-01,-1.370848560333251953e+01,5.000000000000000000e-01,-4.849046841263771057e-02,0.000000000000000000e+00
1.027177095413208008e+00,6.515257568359375000e+02,-7.131378173828125000e+00,-7.131378173828125000e+00,-3.161694481968879700e-02,-1.330382995605468750e+02,4.630054831504821777e-01,-9.753683090209960938e+00,-1.025461673736572266e+01,8.534188964404165745e-06,5.979661345481872559e-01,4.712251186370849609e+00,3.593969449866563082e-05,2.189078778028488159e-01,-6.290984153747558594e-01,-1.370848560333251953e+01,5.000000000000000000e-01,-4.849046841263771057e-02,0.000000000000000000e+00
1.095043420791625977e+00,6.507728881835937500e+02,-7.918649673461914062e+00,-7.918649673461914062e+00,-1.006496623158454895e-01,-1.341563873291015625e+02,4.649757742881774902e-01,-9.614074707031250000e+00,-9.655079841613769531e+00,-3.814095862253452651e-06,2.057108402252197266e+00,8.834085464477539062e+00,-1.819501048885285854e-04,7.270984649658203125e-01,-6.314938664436340332e-01,-1.444240474700927734e+01,5.000000000000000000e-01,-6.183101236820220947e-02,0.000000000000000000e+00
1.095043420791625977e+00,6.507728881835937500e+02,-7.918649673461914062e+00,-7.918649673461914062e+00,-1.006496623158454895e-01,-1.341563873291015625e+02,4.649757742881774902e-01,-9.614074707031250000e+00,-9.655079841613769531e+00,-3.814095862253452651e-06,2.057108402252197266e+00,8.834085464477539062e+00,-1.819501048885285854e-04,7.270984649658203125e-01,-6.314938664436340332e-01,-1.444240474700927734e+01,5.000000000000000000e-01,-6.183101236820220947e-02,0.000000000000000000e+00
1.095043420791625977e+00,6.507728881835937500e+02,-7.918649673461914062e+00,-7.918649673461914062e+00,-1.006496623158454895e-01,-1.341563873291015625e+02,4.649757742881774902e-01,-9.614074707031250000e+00,-9.655079841613769531e+00,-3.814095862253452651e-06,2.057108402252197266e+00,8.834085464477539062e+00,-1.819501048885285854e-04,7.270984649658203125e-01,-6.314938664436340332e-01,-1.444240474700927734e+01,5.000000000000000000e-01,-6.183101236820220947e-02,0.000000000000000000e+00
1.095043420791625977e+00,6.507728881835937500e+02,-7.918649673461914062e+00,-7.918649673461914062e+00,-1.006496623158454895e-01,-1.341563873291015625e+02,4.649757742881774902e-01,-9.614074707031250000e+00,-9.655079841613769531e+00,-3.814095862253452651e-06,2.057108402252197266e+00,8.834085464477539062e+00,-1.819501048885285854e-04,7.270984649658203125e-01,-6.314938664436340332e-01,-1.444240474700927734e+01,5.000000000000000000e-01,-6.183101236820220947e-02,0.000000000000000000e+00
1.168572425842285156e+00,6.501341552734375000e+02,-8.562023162841796875e+00,-8.562023162841796875e+00,-1.624765247106552124e-01,-1.351206207275390625e+02,4.563905596733093262e-01,-9.474200248718261719e+00,-9.195614814758300781e+00,-4.414912837091833353e-06,1.902303099632263184e+00,6.248758792877197266e+00,-8.171155968739185482e-06,5.037221312522888184e-01,-7.216594219207763672e-01,-1.406278705596923828e+01,1.000000000000000000e+00,-5.553239956498146057e-02,0.000000000000000000e+00
1.168572425842285156e+00,6.501341552734375000e+02,-8.562023162841796875e+00,-8.562023162841796875e+00,-1.624765247106552124e-01,-1.351206207275390625e+02,4.563905596733093262e-01,-9.474200248718261719e+00,-9.195614814758300781e+00,-4.414912837091833353e-06,1.902303099632263184e+00,6.248758792877197266e+00,-8.171155968739185482e-06,5.037221312522888184e-01,-7.216594219207763672e-01,-1.406278705596923828e+01,1.000000000000000000e+00,-5.553239956498146057e-02,0.000000000000000000e+00
1.168572425842285156e+00,6.501341552734375000e+02,-8.562023162841796875e+00,-8.562023162841796875e+00,-1.624765247106552124e-01,-1.351206207275390625e+02,4.563905596733093262e-01,-9.474200248718261719e+00,-9.195614814758300781e+00,-4.414912837091833353e-06,1.902303099632263184e+00,6.248758792877197266e+00,-8.171155968739185482e-06,5.037221312522888184e-01,-7.216594219207763672e-01,-1.406278705596923828e+01,1.000000000000000000e+00,-5.553239956498146057e-02,0.000000000000000000e+00
1.168572425842285156e+00,6.501341552734375000e+02,-8.562023162841796875e+00,-8.562023162841796875e+00,-1.624765247106552124e-01,-1.351206207275390625e+02,4.563905596733093262e-01,-9.474200248718261719e+00,-9.195614814758300781e+00,-4.414912837091833353e-06,1.902303099632263184e+00,6.248758792877197266e+00,-8.171155968739185482e-06,5.037221312522888184e-01,-7.216594219207763672e-01,-1.406278705596923828e+01,1.000000000000000000e+00,-5.553239956498146057e-02,0.000000000000000000e+00
1.168572425842285156e+00,6.494517211914062500e+02,-9.226086616516113281e+00,-9.226086616516113281e+00,-2.158203125000000000e-01,-1.361144409179687500e+02,4.379546344280242920e-01,-9.341997146606445312e+00,-8.759539604187011719e+00,2.860602080545504577e-06,1.761570096015930176e+00,5.810582637786865234e+00,9.694424079498276114e-05,2.500865161418914795e-01,-6.004525423049926758e-01,-1.321490287780761719e+01,1.000000000000000000e+00,-5.063759908080101013e-02,0.000000000000000000e+00
1.243620872497558594e+00,6.494517211914062500e+02,-9.226086616516113281e+00,-9.226086616516113281e+00,-2.158203125000000000e-01,-1.361144409179687500e+02,4.379546344280242920e-01,-9.341997146606445312e+00,-8.759539604187011719e+00,2.860602080545504577e-06,1.761570096015930176e+00,5.810582637786865234e+00,9.694424079498276114e-05,2.500865161418914795e-01,-6.004525423049926758e-01,-1.321490287780761719e+01,1.000000000000000000e+00,-5.063759908080101013e-02,0.000000000000000000e+00
1.243620872497558594e+00,6.494517211914062500e+02,-9.226086616516113281e+00,-9.226086616516113281e+00,-2.158203125000000000e-01,-1.361144409179687500e+02,4.379546344280242920e-01,-9.341997146606445312e+00,-8.759539604187011719e+00,2.860602080545504577e-06,1.761570096015930176e+00,5.810582637786865234e+00,9.694424079498276114e-05,2.500865161418914795e-01,-6.004525423049926758e-01,-1.321490287780761719e+01,1.000000000000000000e+00,-5.063759908080101013e-02,0.000000000000000000e+00
1.243620872497558594e+00,6.494517211914062500e+02,-9.226086616516113281e+00,-9.226086616516113281e+00,-2.158203125000000000e-01,-1.361144409179687500e+02,4.379546344280242920e-01,-9.341997146606445312e+00,-8.759539604187011719e+00,2.860602080545504577e-06,1.761570096015930176e+00,5.810582637786865234e+00,9.694424079498276114e-05,2.500865161418914795e-01,-6.004525423049926758e-01,-1.321490287780761719e+01,1.000000000000000000e+00,-5.063759908080101013e-02,0.000000000000000000e+00
1.312042951583862305e+00,6.487608032226562500e+02,-9.871212959289550781e+00,-9.871212959289550781e+00,-2.465834766626358032e-01,-1.371493225097656250e+02,4.415529370307922363e-01,-9.293852806091308594e+00,-8.323224067687988281e+00,-3.385035597602836788e-06,7.036375403404235840e-01,6.376823902130126953e+00,-9.128102828981354833e-05,2.207814753055572510e-01,-1.743319481611251831e-01,-1.409612274169921875e+01,1.000000000000000000e+00,-6.227569654583930969e-02,0.000000000000000000e+00
1.312042951583862305e+00,6.487608032226562500e+02,-9.871212959289550781e+00,-9.871212959289550781e+00,-2.465834766626358032e-01,-1.371493225097656250e+02,4.415529370307922363e-01,-9.293852806091308594e+00,-8.323224067687988281e+00,-3.385035597602836788e-06,7.036375403404235840e-01,6.376823902130126953e+00,-9.128102828981354833e-05,2.207814753055572510e-01,-1.743319481611251831e-01,-1.409612274169921875e+01,1.000000000000000000e+00,-6.227569654583930969e-02,0.000000000000000000e+00
1.312042951583862305e+00,6.481337890625000000e+02,-1.043530082702636719e+01,-1.043530082702636719e+01,-2.538781166076660156e-01,-1.380992889404296875e+02,4.298992455005645752e-01,-9.255740165710449219e+00,-8.012549400329589844e+00,4.681900009018136188e-06,5.361452698707580566e-01,4.370380878448486328e+00,1.134807098424062133e-04,-1.492041200399398804e-01,-1.376094967126846313e-01,-1.376546764373779297e+01,1.000000000000000000e+00,-5.573338270187377930e-02,0.000000000000000000e+00
1.383129358291625977e+00,6.481337890625000000e+02,-1.043530082702636719e+01,-1.043530082702636719e+01,-2.538781166076660156e-01,-1.380992889404296875e+02,4.298992455005645752e-01,-9.255740165710449219e+00,-8.012549400329589844e+00,4.681900009018136188e-06,5.361452698707580566e-01,4.370380878448486328e+00,1.134807098424062133e-04,-1.492041200399398804e-01,-1.376094967126846313e-01,-1.376546764373779297e+01,1.000000000000000000e+00,-5.573338270187377930e-02,0.000000000000000000e+00
1.383129358291625977e+00,6.481337890625000000e+02,-1.043530082702636719e+01,-1.043530082702636719e+01,-2.538781166076660156e-01,-1.380992889404296875e+02,4.298992455005645752e-01,-9.255740165710449219e+00,-8.012549400329589844e+00,4.681900009018136188e-06,5.361452698707580566e-01,4.370380878448486328e+00,1.134807098424062133e-04,-1.492041200399398804e-01,-1.376094967126846313e-01,-1.376546764373779297e+01,1.000000000000000000e+00,-5.573338270187377930e-02,0.000000000000000000e+00
1.450951814651489258e+00,6.474837646484375000e+02,-1.100147914886474609e+01,-1.100147914886474609e+01,-2.440836280584335327e-01,-1.390331573486328125e+02,4.059697985649108887e-01,-9.238005638122558594e+00,-7.755963802337646484e+00,2.527831020415760577e-05,2.614845931529998779e-01,3.783195257186889648e+00,3.036812704522162676e-04,-3.844069838523864746e-01,-3.952477499842643738e-02,-1.280433273315429688e+01,1.000000000000000000e+00,-4.931487888097763062e-02,0.000000000000000000e+00
1.450951814651489258e+00,6.474837646484375000e+02,-1.100147914886474609e+01,-1.100147914886474609e+01,-2.440836280584335327e-01,-1.390331573486328125e+02,4.059697985649108887e-01,-9.238005638122558594e+00,-7.755963802337646484e+00,2.527831020415760577e-05,2.614845931529998779e-01,3.783195257186889648e+00,3.036812704522162676e-04,-3.844069838523864746e-01,-3.952477499842643738e-02,-1.280433273315429688e+01,1.000000000000000000e+00,-4.931487888097763062e-02,0.000000000000000000e+00
1.450951814651489258e+00,6.474837646484375000e+02,-1.100147914886474609e+01,-1.100147914886474609e+01,-2.440836280584335327e-01,-1.390331573486328125e+02,4.059697985649108887e-01,-9.238005638122558594e+00,-7.755963802337646484e+00,2.527831020415760577e-05,2.614845931529998779e-01,3.783195257186889648e+00,3.036812704522162676e-04,-3.844069838523864746e-01,-3.952477499842643738e-02,-1.280433273315429688e+01,1.000000000000000000e+00,-4.931487888097763062e-02,0.000000000000000000e+00
1.527701377868652344e+00,6.468612060546875000e+02,-1.152420616149902344e+01,-1.152420616149902344e+01,-2.227119654417037964e-01,-1.399355621337890625e+02,4.051759541034698486e-01,-9.295692443847656250e+00,-7.499353408813476562e+00,2.085402775264810771e-05,-7.516239285469055176e-01,3.343477010726928711e+00,-5.764570232713595033e-05,-2.332843989133834839e-01,2.889825105667114258e-01,-1.357316398620605469e+01,1.000000000000000000e+00,-6.016322597861289978e-02,0.000000000000000000e+00
1.527701377868652344e+00,6.468612060546875000e+02,-1.152420616149902344e+01,-1.152420616149902344e+01,-2.227119654417037964e-01,-1.399355621337890625e+02,4.051759541034698486e-01,-9.295692443847656250e+00,-7.499353408813476562e+00,2.085402775264810771e-05,-7.516239285469055176e-01,3.343477010726928711e+00,-5.764570232713595033e-05,-2.332843989133834839e-01,2.889825105667114258e-01,-1.357316398620605469e+01,1.000000000000000000e+00,-6.016322597861289978e-02,0.000000000000000000e+00
1.527701377868652344e+00,6.468612060546875000e+02,-1.152420616149902344e+01,-1.152420616149902344e+01,-2.227119654417037964e-01,-1.399355621337890625e+02,4.051759541034698486e-01,-9.295692443847656250e+00,-7.499353408813476562e+00,2.085402775264810771e-05,-7.516239285469055176e-01,3.343477010726928711e+00,-5.764570232713595033e-05,-2.332843989133834839e-01,2.889825105667114258e-01,-1.357316398620605469e+01,1.000000000000000000e+00,-6.016322597861289978e-02,0.000000000000000000e+00
1.600134611129760742e+00,6.461518554687500000e+02,-1.209883308410644531e+01,-1.209883308410644531e+01,-1.881716996431350708e-01,-1.409563903808593750e+02,3.895159959793090820e-01,-9.364400863647460938e+00,-7.293387413024902344e+00,2.720415068324655294e-05,-9.485759139060974121e-01,2.843528985977172852e+00,8.766863902565091848e-05,-4.727638959884643555e-01,2.435806691646575928e-01,-1.316333293914794922e+01,1.000000000000000000e+00,-5.337546393275260925e-02,0.000000000000000000e+00
1.600134611129760742e+00,6.461518554687500000e+02,-1.209883308410644531e+01,-1.209883308410644531e+01,-1.881716996431350708e-01,-1.409563903808593750e+02,3.895159959793090820e-01,-9.364400863647460938e+00,-7.293387413024902344e+00,2.720415068324655294e-05,-9.485759139060974121e-01,2.843528985977172852e+00,8.766863902565091848e-05,-4.727638959884643555e-01,2.435806691646575928e-01,-1.316333293914794922e+01,1.000000000000000000e+00,-5.337546393275260925e-02,0.000000000000000000e+00
1.600134611129760742e+00,6.461518554687500000e+02,-1.209883308410644531e+01,-1.209883308410644531e+01,-1.881716996431350708e-01,-1.409563903808593750e+02,3.895159959793090820e-01,-9.364400863647460938e+00,-7.293387413024902344e+00,2.720415068324655294e-05,-9.485759139060974121e-01,2.843528985977172852e+00,8.766863902565091848e-05,-4.727638959884643555e-01,2.435806691646575928e-01,-1.316333293914794922e+01,1.000000000000000000e+00,-5.337546393275260925e-02,0.000000000000000000e+00
1.600134611129760742e+00,6.461518554687500000e+02,-1.209883308410644531e+01,-1.209883308410644531e+01,-1.881716996431350708e-01,-1.409563903808593750e+02,3.895159959793090820e-01,-9.364400863647460938e+00,-7.293387413024902344e+00,2.720415068324655294e-05,-9.485759139060974121e-01,2.843528985977172852e+00,8.766863902565091848e-05,-4.727638959884643555e-01,2.435806691646575928e-01,-1.316333293914794922e+01,1.000000000000000000e+00,-5.337546393275260925e-02,0.000000000000000000e+00
1.600134611129760742e+00,6.461518554687500000e+02,-1.209883308410644531e+01,-1.209883308410644531e+01,-1.881716996431350708e-01,-1.409563903808593750e+02,3.895159959793090820e-01,-9.364400863647460938e+00,-7.293387413024902344e+00,2.720415068324655294e-05,-9.485759139060974121e-01,2.843528985977172852e+00,8.766863902565091848e-05,-4.727638959884643555e-01,2.435806691646575928e-01,-1.316333293914794922e+01,1.000000000000000000e+00,-5.337546393275260925e-02,0.000000000000000000e+00
1.600134611129760742e+00,6.454765014648437500e+02,-1.262928104400634766e+01,-1.262928104400634766e+01,-1.505441963672637939e-01,-1.418490447998046875e+02,3.616117537021636963e-01,-9.441862106323242188e+00,-7.163055896759033203e+00,3.378378460183739662e-05,-6.713642477989196777e-01,1.129596114158630371e+00,5.702634007320739329e-05,-6.053595542907714844e-01,2.061978429555892944e-01,-1.189439582824707031e+01,1.000000000000000000e+00,-4.452427476644515991e-02,0.000000000000000000e+00
1.715513467788696289e+00,6.454765014648437500e+02,-1.262928104400634766e+01,-1.262928104400634766e+01,-1.505441963672637939e-01,-1.418490447998046875e+02,3.616117537021636963e-01,-9.441862106323242188e+00,-7.163055896759033203e+00,3.378378460183739662e-05,-6.713642477989196777e-01,1.129596114158630371e+00,5.702634007320739329e-05,-6.053595542907714844e-01,2.061978429555892944e-01,-1.189439582824707031e+01,1.000000000000000000e+00,-4.452427476644515991e-02,0.000000000000000000e+00
1.715513467788696289e+00,6.454765014648437500e+02,-1.262928104400634766e+01,-1.262928104400634766e+01,-1.505441963672637939e-01,-1.418490447998046875e+02,3.616117537021636963e-01,-9.441862106323242188e+00,-7.163055896759033203e+00,3.378378460183739662e-05,-6.713642477989196777e-01,1.129596114158630371e+00,5.702634007320739329e-05,-6.053595542907714844e-01,2.061978429555892944e-01,-1.189439582824707031e+01,1.000000000000000000e+00,-4.452427476644515991e-02,0.000000000000000000e+00
1.715513467788696289e+00,6.454765014648437500e+02,-1.262928104400634766e+01,-1.262928104400634766e+01,-1.505441963672637939e-01,-1.418490447998046875e+02,3.616117537021636963e-01,-9.441862106323242188e+00,-7.163055896759033203e+00,3.378378460183739662e-05,-6.713642477989196777e-01,1.129596114158630371e+00,5.702634007320739329e-05,-6.053595542907714844e-01,2.061978429555892944e-01,-1.189439582824707031e+01,1.000000000000000000e+00,-4.452427476644515991e-02,0.000000000000000000e+00
1.813115119934082031e+00,6.445280151367187500e+02,-1.334221076965332031e+01,-1.334221076965332031e+01,-9.603928774595260620e-02,-1.431195831298828125e+02,3.655065894126892090e-01,-9.656080245971679688e+00,-6.928365707397460938e+00,1.252919173566624522e-05,-2.194820880889892578e+00,2.404572010040283203e+00,-2.177687856601551175e-04,-3.058288991451263428e-01,4.381052553653717041e-01,-1.312818431854248047e+01,1.000000000000000000e+00,-5.728803202509880066e-02,0.000000000000000000e+00
1.813115119934082031e+00,6.445280151367187500e+02,-1.334221076965332031e+01,-1.334221076965332031e+01,-9.603928774595260620e-02,-1.431195831298828125e+02,3.655065894126892090e-01,-9.656080245971679688e+00,-6.928365707397460938e+00,1.252919173566624522e-05,-2.194820880889892578e+00,2.404572010040283203e+00,-2.177687856601551175e-04,-3.058288991451263428e-01,4.381052553653717041e-01,-1.312818431854248047e+01,1.000000000000000000e+00,-5.728803202509880066e-02,0.000000000000000000e+00
1.813115119934082031e+00,6.445280151367187500e+02,-1.334221076965332031e+01,-1.334221076965332031e+01,-9.603928774595260620e-02,-1.431195831298828125e+02,3.655065894126892090e-01,-9.656080245971679688e+00,-6.928365707397460938e+00,1.252919173566624522e-05,-2.194820880889892578e+00,2.404572010040283203e+00,-2.177687856601551175e-04,-3.058288991451263428e-01,4.381052553653717041e-01,-1.312818431854248047e+01,1.000000000000000000e+00,-5.728803202509880066e-02,0.000000000000000000e+00
1.813115119934082031e+00,6.445280151367187500e+02,-1.334221076965332031e+01,-1.334221076965332031e+01,-9.603928774595260620e-02,-1.431195831298828125e+02,3.655065894126892090e-01,-9.656080245971679688e+00,-6.928365707397460938e+00,1.252919173566624522e-05,-2.194820880889892578e+00,2.404572010040283203e+00,-2.177687856601551175e-04,-3.058288991451263428e-01,4.381052553653717041e-01,-1.312818431854248047e+01,1.000000000000000000e+00,-5.728803202509880066e-02,0.000000000000000000e+00
1.896134853363037109e+00,6.435825805664062500e+02,-1.402273082733154297e+01,-1.402273082733154297e+01,-4.641796275973320007e-02,-1.443273773193359375e+02,3.396389186382293701e-01,-9.851499557495117188e+00,-6.810612201690673828e+00,1.396905554429395124e-05,-2.353889942169189453e+00,1.418379783630371094e+00,1.734363286232110113e-05,-4.549418091773986816e-01,2.698849439620971680e-01,-1.200614261627197266e+01,1.000000000000000000e+00,-4.657156765460968018e-02,0.000000000000000000e+00
1.896134853363037109e+00,6.435825805664062500e+02,-1.402273082733154297e+01,-1.402273082733154297e+01,-4.641796275973320007e-02,-1.443273773193359375e+02,3.396389186382293701e-01,-9.851499557495117188e+00,-6.810612201690673828e+00,1.396905554429395124e-05,-2.353889942169189453e+00,1.418379783630371094e+00,1.734363286232110113e-05,-4.549418091773986816e-01,2.698849439620971680e-01,-1.200614261627197266e+01,1.000000000000000000e+00,-4.657156765460968018e-02,0.000000000000000000e+00
1.896134853363037109e+00,6.435825805664062500e+02,-1.402273082733154297e+01,-1.402273082733154297e+01,-4.641796275973320007e-02,-1.443273773193359375e+02,3.396389186382293701e-01,-9.851499557495117188e+00,-6.810612201690673828e+00,1.396905554429395124e-05,-2.353889942169189453e+00,1.418379783630371094e+00,1.734363286232110113e-05,-4.549418091773986816e-01,2.698849439620971680e-01,-1.200614261627197266e+01,1.000000000000000000e+00,-4.657156765460968018e-02,0.000000000000000000e+00
1.896134853363037109e+00,6.435825805664062500e+02,-1.402273082733154297e+01,-1.402273082733154297e+01,-4.641796275973320007e-02,-1.443273773193359375e+02,3.396389186382293701e-01,-9.851499557495117188e+00,-6.810612201690673828e+00,1.396905554429395124e-05,-2.353889942169189453e+00,1.418379783630371094e+00,1.734363286232110113e-05,-4.549418091773986816e-01,2.698849439620971680e-01,-1.200614261627197266e+01,1.000000000000000000e+00,-4.657156765460968018e-02,0.000000000000000000e+00
1.896134853363037109e+00,6.435825805664062500e+02,-1.402273082733154297e+01,-1.402273082733154297e+01,-4.641796275973320007e-02,-1.443273773193359375e+02,3.396389186382293701e-01,-9.851499557495117188e+00,-6.810612201690673828e+00,1.396905554429395124e-05,-2.353889942169189453e+00,1.418379783630371094e+00,1.734363286232110113e-05,-4.549418091773986816e-01,2.698849439620971680e-01,-1.200614261627197266e+01,1.000000000000000000e+00,-4.657156765460968018e-02,0.000000000000000000e+00
1.896134853363037109e+00,6.435825805664062500e+02,-1.402273082733154297e+01,-1.402273082733154297e+01,-4.641796275973320007e-02,-1.443273773193359375e+02,3.396389186382293701e-01,-9.851499557495117188e+00,-6.810612201690673828e+00,1.396905554429395124e-05,-2.353889942169189453e+00,1.418379783630371094e+00,1.734363286232110113e-05,-4.549418091773986816e-01,2.698849439620971680e-01,-1.200614261627197266e+01,1.000000000000000000e+00,-4.657156765460968018e-02,0.000000000000000000e+00
1.896134853363037109e+00,6.435825805664062500e+02,-1.402273082733154297e+01,-1.402273082733154297e+01,-4.641796275973320007e-02,-1.443273773193359375e+02,3.396389186382293701e-01,-9.851499557495117188e+00,-6.810612201690673828e+00,1.396905554429395124e-05,-2.353889942169189453e+00,1.418379783630371094e+00,1.734363286232110113e-05,-4.549418091773986816e-01,2.698849439620971680e-01,-1.200614261627197266e+01,1.000000000000000000e+00,-4.657156765460968018e-02,0.000000000000000000e+00
2.195794820785522461e+00,6.408361816406250000e+02,-1.583779621124267578e+01,-1.583779621124267578e+01,4.733320698142051697e-02,-1.476496734619140625e+02,3.054961860179901123e-01,-1.050453090667724609e+01,-6.464041709899902344e+00,3.194342070855782367e-06,-3.312556982040405273e+00,1.243731737136840820e+00,1.040302886394783854e-04,-3.320705592632293701e-01,2.604233846068382263e-02,-1.056433963775634766e+01,1.000000000000000000e+00,-3.663308173418045044e-02,0.000000000000000000e+00
2.195794820785522461e+00,6.408361816406250000e+02,-1.583779621124267578e+01,-1.583779621124267578e+01,4.733320698142051697e-02,-1.476496734619140625e+02,3.054961860179901123e-01,-1.050453090667724609e+01,-6.464041709899902344e+00,3.194342070855782367e-06,-3.312556982040405273e+00,1.243731737136840820e+00,1.040302886394783854e-04,-3.320705592632293701e-01,2.604233846068382263e-02,-1.056433963775634766e+01,1.000000000000000000e+00,-3.663308173418045044e-02,0.000000000000000000e+00
2.195794820785522461e+00,6.408361816406250000e+02,-1.583779621124267578e+01,-1.583779621124267578e+01,4.733320698142051697e-02,-1.476496734619140625e+02,3.054961860179901123e-01,-1.050453090667724609e+01,-6.464041709899902344e+00,3.194342070855782367e-06,-3.312556982040405273e+00,1.243731737136840820e+00,1.040302886394783854e-04,-3.320705592632293701e-01,2.604233846068382263e-02,-1.056433963775634766e+01,1.000000000000000000e+00,-3.663308173418045044e-02,0.000000000000000000e+00
2.195794820785522461e+00,6.408361816406250000e+02,-1.583779621124267578e+01,-1.583779621124267578e+01,4.733320698142051697e-02,-1.476496734619140625e+02,3.054961860179901123e-01,-1.050453090667724609e+01,-6.464041709899902344e+00,3.194342070855782367e-06,-3.312556982040405273e+00,1.243731737136840820e+00,1.040302886394783854e-04,-3.320705592632293701e-01,2.604233846068382263e-02,-1.056433963775634766e+01,1.000000000000000000e+00,-3.663308173418045044e-02,0.000000000000000000e+00
2.195794820785522461e+00,6.408361816406250000e+02,-1.583779621124267578e+01,-1.583779621124267578e+01,4.733320698142051697e-02,-1.476496734619140625e+02,3.054961860179901123e-01,-1.050453090667724609e+01,-6.464041709899902344e+00,3.194342070855782367e-06,-3.312556982040405273e+00,1.243731737136840820e+00,1.040302886394783854e-04,-3.320705592632293701e-01,2.604233846068382263e-02,-1.056433963775634766e+01,1.000000000000000000e+00,-3.663308173418045044e-02,0.000000000000000000e+00
2.195794820785522461e+00,6.408361816406250000e+02,-1.583779621124267578e+01,-1.583779621124267578e+01,4.733320698142051697e-02,-1.476496734619140625e+02,3.054961860179901123e-01,-1.050453090667724609e+01,-6.464041709899902344e+00,3.194342070855782367e-06,-3.312556982040405273e+00,1.243731737136840820e+00,1.040302886394783854e-04,-3.320705592632293701e-01,2.604233846068382263e-02,-1.056433963775634766e+01,1.000000000000000000e+00,-3.663308173418045044e-02,0.000000000000000000e+00
2.195794820785522461e+00,6.408361816406250000e+02,-1.583779621124267578e+01,-1.583779621124267578e+01,4.733320698142051697e-02,-1.476496734619140625e+02,3.054961860179901123e-01,-1.050453090667724609e+01,-6.464041709899902344e+00,3.194342070855782367e-06,-3.312556982040405273e+00,1.243731737136840820e+00,1.040302886394783854e-04,-3.320705592632293701e-01,2.604233846068382263e-02,-1.056433963775634766e+01,1.000000000000000000e+00,-3.663308173418045044e-02,0.000000000000000000e+00
2.195794820785522461e+00,6.408361816406250000e+02,-1.583779621124267578e+01,-1.583779621124267578e+01,4.733320698142051697e-02,-1.476496734619140625e+02,3.054961860179901123e-01,-1.050453090667724609e+01,-6.464041709899902344e+00,3.194342070855782367e-06,-3.312556982040405273e+00,1.243731737136840820e+00,1.040302886394783854e-04,-3.320705592632293701e-01,2.604233846068382263e-02,-1.056433963775634766e+01,1.000000000000000000e+00,-3.663308173418045044e-02,0.000000000000000000e+00
2.195794820785522461e+00,6.408361816406250000e+02,-1.583779621124267578e+01,-1.583779621124267578e+01,4.733320698142051697e-02,-1.476496734619140625e+02,3.054961860179901123e-01,-1.050453090667724609e+01,-6.464041709899902344e+00,3.194342070855782367e-06,-3.312556982040405273e+00,1.243731737136840820e+00,1.040302886394783854e-04,-3.320705592632293701e-01,2.604233846068382263e-02,-1.056433963775634766e+01,1.000000000000000000e+00,-3.663308173418045044e-02,0.000000000000000000e+00
2.195794820785522461e+00,6.408361816406250000e+02,-1.583779621124267578e+01,-1.583779621124267578e+01,4.733320698142051697e-02,-1.476496734619140625e+02,3.054961860179901123e-01,-1.050453090667724609e+01,-6.464041709899902344e+00,3.194342070855782367e-06,-3.312556982040405273e+00,1.243731737136840820e+00,1.040302886394783854e-04,-3.320705592632293701e-01,2.604233846068382263e-02,-1.056433963775634766e+01,1.000000000000000000e+00,-3.663308173418045044e-02,0.000000000000000000e+00
2.374083757400512695e+00,6.402772216796875000e+02,-1.618197822570800781e+01,-1.618197822570800781e+01,5.552943423390388489e-02,-1.482530517578125000e+02,3.177318572998046875e-01,-1.064961433410644531e+01,-6.337845325469970703e+00,-6.798795311624417081e-06,-8.137544989585876465e-01,7.078194618225097656e-01,-5.605023761745542288e-05,1.803123354911804199e-01,2.686309218406677246e-01,-1.177962875366210938e+01,1.000000000000000000e+00,-5.430930107831954956e-02,0.000000000000000000e+00
2.374083757400512695e+00,6.402772216796875000e+02,-1.618197822570800781e+01,-1.618197822570800781e+01,5.552943423390388489e-02,-1.482530517578125000e+02,3.177318572998046875e-01,-1.064961433410644531e+01,-6.337845325469970703e+00,-6.798795311624417081e-06,-8.137544989585876465e-01,7.078194618225097656e-01,-5.605023761745542288e-05,1.803123354911804199e-01,2.686309218406677246e-01,-1.177962875366210938e+01,1.000000000000000000e+00,-5.430930107831954956e-02,0.000000000000000000e+00
2.374083757400512695e+00,6.402772216796875000e+02,-1.618197822570800781e+01,-1.618197822570800781e+01,5.552943423390388489e-02,-1.482530517578125000e+02,3.177318572998046875e-01,-1.064961433410644531e+01,-6.337845325469970703e+00,-6.798795311624417081e-06,-8.137544989585876465e-01,7.078194618225097656e-01,-5.605023761745542288e-05,1.803123354911804199e-01,2.686309218406677246e-01,-1.177962875366210938e+01,1.000000000000000000e+00,-5.430930107831954956e-02,0.000000000000000000e+00
2.447860002517700195e+00,6.392053222656250000e+02,-1.681625556945800781e+01,-1.681625556945800781e+01,6.469555199146270752e-02,-1.494795074462890625e+02,3.294490873813629150e-01,-1.088319778442382812e+01,-6.153756141662597656e+00,-1.296780828852206469e-05,-3.166106462478637695e+00,2.495236635208129883e+00,-8.361788059119135141e-05,1.467788591980934143e-02,8.046499639749526978e-02,-1.252410984039306641e+01,1.000000000000000000e+00,-5.131770670413970947e-02,0.000000000000000000e+00
2.447860002517700195e+00,6.392053222656250000e+02,-1.681625556945800781e+01,-1.681625556945800781e+01,6.469555199146270752e-02,-1.494795074462890625e+02,3.294490873813629150e-01,-1.088319778442382812e+01,-6.153756141662597656e+00,-1.296780828852206469e-05,-3.166106462478637695e+00,2.495236635208129883e+00,-8.361788059119135141e-05,1.467788591980934143e-02,8.046499639749526978e-02,-1.252410984039306641e+01,1.000000000000000000e+00,-5.131770670413970947e-02,0.000000000000000000e+00
2.500878810882568359e+00,6.383991699218750000e+02,-1.727015495300292969e+01,-1.727015495300292969e+01,6.677192449569702148e-02,-1.504991912841796875e+02,3.562209010124206543e-01,-1.107656097412109375e+01,-5.946106910705566406e+00,-2.183591823268216103e-05,-3.647067785263061523e+00,3.916520118713378906e+00,-1.672634680289775133e-04,2.883088588714599609e-01,1.781870722770690918e-01,-1.451115798950195312e+01,1.000000000000000000e+00,-6.505933403968811035e-02,0.000000000000000000e+00
2.500878810882568359e+00,6.383991699218750000e+02,-1.727015495300292969e+01,-1.727015495300292969e+01,6.677192449569702148e-02,-1.504991912841796875e+02,3.562209010124206543e-01,-1.107656097412109375e+01,-5.946106910705566406e+00,-2.183591823268216103e-05,-3.647067785263061523e+00,3.916520118713378906e+00,-1.672634680289775133e-04,2.883088588714599609e-01,1.781870722770690918e-01,-1.451115798950195312e+01,1.000000000000000000e+00,-6.505933403968811035e-02,0.000000000000000000e+00
2.500878810882568359e+00,6.383991699218750000e+02,-1.727015495300292969e+01,-1.727015495300292969e+01,6.677192449569702148e-02,-1.504991912841796875e+02,3.562209010124206543e-01,-1.107656097412109375e+01,-5.946106910705566406e+00,-2.183591823268216103e-05,-3.647067785263061523e+00,3.916520118713378906e+00,-1.672634680289775133e-04,2.883088588714599609e-01,1.781870722770690918e-01,-1.451115798950195312e+01,1.000000000000000000e+00,-6.505933403968811035e-02,0.000000000000000000e+00
2.560195446014404297e+00,6.378121948242187500e+02,-1.758898925781250000e+01,-1.758898925781250000e+01,6.695634126663208008e-02,-1.512721862792968750e+02,3.611455261707305908e-01,-1.119231128692626953e+01,-5.834623813629150391e+00,-1.615310065972153097e-05,-1.951397180557250977e+00,1.879457473754882812e+00,9.580478217685595155e-05,4.371392354369163513e-02,2.162855304777622223e-02,-1.461705303192138672e+01,1.000000000000000000e+00,-5.797271803021430969e-02,0.000000000000000000e+00
2.560195446014404297e+00,6.378121948242187500e+02,-1.758898925781250000e+01,-1.758898925781250000e+01,6.695634126663208008e-02,-1.512721862792968750e+02,3.611455261707305908e-01,-1.119231128692626953e+01,-5.834623813629150391e+00,-1.615310065972153097e-05,-1.951397180557250977e+00,1.879457473754882812e+00,9.580478217685595155e-05,4.371392354369163513e-02,2.162855304777622223e-02,-1.461705303192138672e+01,1.000000000000000000e+00,-5.797271803021430969e-02,0.000000000000000000e+00
2.618730545043945312e+00,6.371483154296875000e+02,-1.793910026550292969e+01,-1.793910026550292969e+01,6.648505479097366333e-02,-1.521161499023437500e+02,3.557819426059722900e-01,-1.131101417541503906e+01,-5.723988056182861328e+00,-7.056143203953979537e-06,-2.027892589569091797e+00,1.890075445175170898e+00,1.554102927912026644e-04,-6.685833632946014404e-02,-4.889928549528121948e-02,-1.403901481628417969e+01,1.000000000000000000e+00,-5.185612291097640991e-02,0.000000000000000000e+00
2.618730545043945312e+00,6.371483154296875000e+02,-1.793910026550292969e+01,-1.793910026550292969e+01,6.648505479097366333e-02,-1.521161499023437500e+02,3.557819426059722900e-01,-1.131101417541503906e+01,-5.723988056182861328e+00,-7.056143203953979537e-06,-2.027892589569091797e+00,1.890075445175170898e+00,1.554102927912026644e-04,-6.685833632946014404e-02,-4.889928549528121948e-02,-1.403901481628417969e+01,1.000000000000000000e+00,-5.185612291097640991e-02,0.000000000000000000e+00
2.677334070205688477e+00,6.364877319335937500e+02,-1.827755165100097656e+01,-1.827755165100097656e+01,6.225034222006797791e-02,-1.528963012695312500e+02,3.441526293754577637e-01,-1.137224483489990234e+01,-5.604438304901123047e+00,4.004845948202273576e-07,-1.044828891754150391e+00,2.039975404739379883e+00,1.272385561605915427e-04,-1.014965772628784180e-01,-1.913862973451614380e-01,-1.296739196777343750e+01,1.000000000000000000e+00,-4.513898491859436035e-02,0.000000000000000000e+00
2.677334070205688477e+00,6.364877319335937500e+02,-1.827755165100097656e+01,-1.827755165100097656e+01,6.225034222006797791e-02,-1.528963012695312500e+02,3.441526293754577637e-01,-1.137224483489990234e+01,-5.604438304901123047e+00,4.004845948202273576e-07,-1.044828891754150391e+00,2.039975404739379883e+00,1.272385561605915427e-04,-1.014965772628784180e-01,-1.913862973451614380e-01,-1.296739196777343750e+01,1.000000000000000000e+00,-4.513898491859436035e-02,0.000000000000000000e+00
2.677334070205688477e+00,6.364877319335937500e+02,-1.827755165100097656e+01,-1.827755165100097656e+01,6.225034222006797791e-02,-1.528963012695312500e+02,3.441526293754577637e-01,-1.137224483489990234e+01,-5.604438304901123047e+00,4.004845948202273576e-07,-1.044828891754150391e+00,2.039975404739379883e+00,1.272385561605915427e-04,-1.014965772628784180e-01,-1.913862973451614380e-01,-1.296739196777343750e+01,1.000000000000000000e+00,-4.513898491859436035e-02,0.000000000000000000e+00
2.677334070205688477e+00,6.364877319335937500e+02,-1.827755165100097656e+01,-1.827755165100097656e+01,6.225034222006797791e-02,-1.528963012695312500e+02,3.441526293754577637e-01,-1.137224483489990234e+01,-5.604438304901123047e+00,4.004845948202273576e-07,-1.044828891754150391e+00,2.039975404739379883e+00,1.272385561605915427e-04,-1.014965772628784180e-01,-1.913862973451614380e-01,-1.296739196777343750e+01,1.000000000000000000e+00,-4.513898491859436035e-02,0.000000000000000000e+00
2.755024909973144531e+00,6.358222656250000000e+02,-1.860573768615722656e+01,-1.860573768615722656e+01,5.205287039279937744e-02,-1.536977233886718750e+02,3.602522909641265869e-01,-1.145049285888671875e+01,-5.395168781280517578e+00,-3.470865976851200685e-06,-1.007171869277954102e+00,2.693619012832641602e+00,-4.983020699000917375e-05,3.727325201034545898e-01,-2.971609123051166534e-02,-1.402904510498046875e+01,1.000000000000000000e+00,-6.113738939166069031e-02,0.000000000000000000e+00
2.755024909973144531e+00,6.358222656250000000e+02,-1.860573768615722656e+01,-1.860573768615722656e+01,5.205287039279937744e-02,-1.536977233886718750e+02,3.602522909641265869e-01,-1.145049285888671875e+01,-5.395168781280517578e+00,-3.470865976851200685e-06,-1.007171869277954102e+00,2.693619012832641602e+00,-4.983020699000917375e-05,3.727325201034545898e-01,-2.971609123051166534e-02,-1.402904510498046875e+01,1.000000000000000000e+00,-6.113738939166069031e-02,0.000000000000000000e+00
2.755024909973144531e+00,6.358222656250000000e+02,-1.860573768615722656e+01,-1.860573768615722656e+01,5.205287039279937744e-02,-1.536977233886718750e+02,3.602522909641265869e-01,-1.145049285888671875e+01,-5.395168781280517578e+00,-3.470865976851200685e-06,-1.007171869277954102e+00,2.693619012832641602e+00,-4.983020699000917375e-05,3.727325201034545898e-01,-2.971609123051166534e-02,-1.402904510498046875e+01,1.000000000000000000e+00,-6.113738939166069031e-02,0.000000000000000000e+00
2.830169916152954102e+00,6.349343261718750000e+02,-1.902483177185058594e+01,-1.902483177185058594e+01,3.670543432235717773e-02,-1.547933807373046875e+02,3.690449893474578857e-01,-1.152898406982421875e+01,-5.168072223663330078e+00,-7.618673862452851608e-06,-1.044529914855957031e+00,3.022110939025878906e+00,-5.519738260773010552e-05,1.414823830127716064e-01,-1.461077481508255005e-01,-1.414021968841552734e+01,1.000000000000000000e+00,-5.610874667763710022e-02,0.000000000000000000e+00
2.830169916152954102e+00,6.349343261718750000e+02,-1.902483177185058594e+01,-1.902483177185058594e+01,3.670543432235717773e-02,-1.547933807373046875e+02,3.690449893474578857e-01,-1.152898406982421875e+01,-5.168072223663330078e+00,-7.618673862452851608e-06,-1.044529914855957031e+00,3.022110939025878906e+00,-5.519738260773010552e-05,1.414823830127716064e-01,-1.461077481508255005e-01,-1.414021968841552734e+01,1.000000000000000000e+00,-5.610874667763710022e-02,0.000000000000000000e+00
2.830169916152954102e+00,6.349343261718750000e+02,-1.902483177185058594e+01,-1.902483177185058594e+01,3.670543432235717773e-02,-1.547933807373046875e+02,3.690449893474578857e-01,-1.152898406982421875e+01,-5.168072223663330078e+00,-7.618673862452851608e-06,-1.044529914855957031e+00,3.022110939025878906e+00,-5.519738260773010552e-05,1.414823830127716064e-01,-1.461077481508255005e-01,-1.414021968841552734e+01,1.000000000000000000e+00,-5.610874667763710022e-02,0.000000000000000000e+00
2.830169916152954102e+00,6.349343261718750000e+02,-1.902483177185058594e+01,-1.902483177185058594e+01,3.670543432235717773e-02,-1.547933807373046875e+02,3.690449893474578857e-01,-1.152898406982421875e+01,-5.168072223663330078e+00,-7.618673862452851608e-06,-1.044529914855957031e+00,3.022110939025878906e+00,-5.519738260773010552e-05,1.414823830127716064e-01,-1.461077481508255005e-01,-1.414021968841552734e+01,1.000000000000000000e+00,-5.610874667763710022e-02,0.000000000000000000e+00
2.830169916152954102e+00,6.349343261718750000e+02,-1.902483177185058594e+01,-1.902483177185058594e+01,3.670543432235717773e-02,-1.547933807373046875e+02,3.690449893474578857e-01,-1.152898406982421875e+01,-5.168072223663330078e+00,-7.618673862452851608e-06,-1.044529914855957031e+00,3.022110939025878906e+00,-5.519738260773010552e-05,1.414823830127716064e-01,-1.461077481508255005e-01,-1.414021968841552734e+01,1.000000000000000000e+00,-5.610874667763710022e-02,0.000000000000000000e+00
