# Time,X,Y,Z,Roll,Pitch,Yaw,Vx,Vy,Vz,Ax,Ay,Az,Wx,Wy,Wz,Throttle,Steer,Brake
0.000000000000000000e+00,-7.249756336212158203e+00,1.624829254150390625e+02,1.624829254150390625e+02,0.000000000000000000e+00,8.947254180908203125e+01,0.000000000000000000e+00,0.000000000000000000e+00,0.000000000000000000e+00,-4.090190410614013672e+00,0.000000000000000000e+00,0.000000000000000000e+00,-9.484607696533203125e+00,0.000000000000000000e+00,0.000000000000000000e+00,0.000000000000000000e+00,0.000000000000000000e+00,0.000000000000000000e+00,0.000000000000000000e+00
5.537414550781250000e-02,-7.249756336212158203e+00,1.624829254150390625e+02,1.624829254150390625e+02,0.000000000000000000e+00,8.947254180908203125e+01,0.000000000000000000e+00,0.000000000000000000e+00,0.000000000000000000e+00,-4.090190410614013672e+00,0.000000000000000000e+00,0.000000000000000000e+00,-9.484607696533203125e+00,0.000000000000000000e+00,0.000000000000000000e+00,0.000000000000000000e+00,0.000000000000000000e+00,0.000000000000000000e+00,0.000000000000000000e+00
5.537414550781250000e-02,-7.249756336212158203e+00,1.624829254150390625e+02,1.624829254150390625e+02,0.000000000000000000e+00,8.947254180908203125e+01,0.000000000000000000e+00,0.000000000000000000e+00,0.000000000000000000e+00,-4.630404472351074219e+00,0.000000000000000000e+00,0.000000000000000000e+00,-1.498252296447753906e+01,0.000000000000000000e+00,0.000000000000000000e+00,0.000000000000000000e+00,0.000000000000000000e+00,0.000000000000000000e+00,0.000000000000000000e+00
9.143042564392089844e-02,-7.249756336212158203e+00,1.624829254150390625e+02,1.624829254150390625e+02,0.000000000000000000e+00,8.947254180908203125e+01,0.000000000000000000e+00,0.000000000000000000e+00,0.000000000000000000e+00,-4.630404472351074219e+00,0.000000000000000000e+00,0.000000000000000000e+00,-1.498252296447753906e+01,0.000000000000000000e+00,0.000000000000000000e+00,0.000000000000000000e+00,0.000000000000000000e+00,0.000000000000000000e+00,0.000000000000000000e+00
1.258192062377929688e-01,-7.249756336212158203e+00,1.624829254150390625e+02,1.624829254150390625e+02,0.000000000000000000e+00,8.947254180908203125e+01,0.000000000000000000e+00,0.000000000000000000e+00,0.000000000000000000e+00,-4.982001304626464844e+00,0.000000000000000000e+00,0.000000000000000000e+00,-1.022417259216308594e+01,0.000000000000000000e+00,0.000000000000000000e+00,0.000000000000000000e+00,0.000000000000000000e+00,0.000000000000000000e+00,0.000000000000000000e+00
1.258192062377929688e-01,-7.249756336212158203e+00,1.624829254150390625e+02,1.624829254150390625e+02,0.000000000000000000e+00,8.947254180908203125e+01,0.000000000000000000e+00,0.000000000000000000e+00,0.000000000000000000e+00,-4.982001304626464844e+00,0.000000000000000000e+00,0.000000000000000000e+00,-1.022417259216308594e+01,0.000000000000000000e+00,0.000000000000000000e+00,0.000000000000000000e+00,0.000000000000000000e+00,0.000000000000000000e+00,0.000000000000000000e+00
1.258192062377929688e-01,-7.249756336212158203e+00,1.624829254150390625e+02,1.624829254150390625e+02,0.000000000000000000e+00,8.947254180908203125e+01,0.000000000000000000e+00,0.000000000000000000e+00,0.000000000000000000e+00,-4.982001304626464844e+00,0.000000000000000000e+00,0.000000000000000000e+00,-1.022417259216308594e+01,0.000000000000000000e+00,0.000000000000000000e+00,0.000000000000000000e+00,0.000000000000000000e+00,0.000000000000000000e+00,0.000000000000000000e+00
1.567826271057128906e-01,-7.249756336212158203e+00,1.624829254150390625e+02,1.624829254150390625e+02,0.000000000000000000e+00,8.947254180908203125e+01,0.000000000000000000e+00,0.000000000000000000e+00,0.000000000000000000e+00,-5.317221164703369141e+00,0.000000000000000000e+00,0.000000000000000000e+00,-1.082631874084472656e+01,0.000000000000000000e+00,0.000000000000000000e+00,0.000000000000000000e+00,0.000000000000000000e+00,0.000000000000000000e+00,0.000000000000000000e+00
1.567826271057128906e-01,-7.249756336212158203e+00,1.624829254150390625e+02,1.624829254150390625e+02,0.000000000000000000e+00,8.947254180908203125e+01,0.000000000000000000e+00,0.000000000000000000e+00,0.000000000000000000e+00,-5.317221164703369141e+00,0.000000000000000000e+00,0.000000000000000000e+00,-1.082631874084472656e+01,0.000000000000000000e+00,0.000000000000000000e+00,0.000000000000000000e+00,0.000000000000000000e+00,0.000000000000000000e+00,0.000000000000000000e+00
2.203702926635742188e-01,-7.249756336212158203e+00,1.624829254150390625e+02,1.624829254150390625e+02,0.000000000000000000e+00,8.947254180908203125e+01,0.000000000000000000e+00,0.000000000000000000e+00,0.000000000000000000e+00,-5.937868595123291016e+00,0.000000000000000000e+00,0.000000000000000000e+00,-1.033828258514404297e+01,0.000000000000000000e+00,0.000000000000000000e+00,0.000000000000000000e+00,0.000000000000000000e+00,0.000000000000000000e+00,0.000000000000000000e+00
2.203702926635742188e-01,-7.249756336212158203e+00,1.624829254150390625e+02,1.624829254150390625e+02,0.000000000000000000e+00,8.947254180908203125e+01,0.000000000000000000e+00,0.000000000000000000e+00,0.000000000000000000e+00,-5.937868595123291016e+00,0.000000000000000000e+00,0.000000000000000000e+00,-1.033828258514404297e+01,0.000000000000000000e+00,0.000000000000000000e+00,0.000000000000000000e+00,0.000000000000000000e+00,0.000000000000000000e+00,0.000000000000000000e+00
2.203702926635742188e-01,-7.249756336212158203e+00,1.624829254150390625e+02,1.624829254150390625e+02,0.000000000000000000e+00,8.947254180908203125e+01,0.000000000000000000e+00,0.000000000000000000e+00,0.000000000000000000e+00,-5.937868595123291016e+00,0.000000000000000000e+00,0.000000000000000000e+00,-1.033828258514404297e+01,0.000000000000000000e+00,0.000000000000000000e+00,0.000000000000000000e+00,0.000000000000000000e+00,0.000000000000000000e+00,0.000000000000000000e+00
2.203702926635742188e-01,-7.249756336212158203e+00,1.624829254150390625e+02,1.624829254150390625e+02,0.000000000000000000e+00,8.947254180908203125e+01,0.000000000000000000e+00,0.000000000000000000e+00,0.000000000000000000e+00,-5.937868595123291016e+00,0.000000000000000000e+00,0.000000000000000000e+00,-1.033828258514404297e+01,0.000000000000000000e+00,0.000000000000000000e+00,0.000000000000000000e+00,0.000000000000000000e+00,0.000000000000000000e+00,0.000000000000000000e+00
2.203702926635742188e-01,-7.249756336212158203e+00,1.624829254150390625e+02,1.624829254150390625e+02,0.000000000000000000e+00,8.947254180908203125e+01,0.000000000000000000e+00,0.000000000000000000e+00,0.000000000000000000e+00,-5.937868595123291016e+00,0.000000000000000000e+00,0.000000000000000000e+00,-1.033828258514404297e+01,0.000000000000000000e+00,0.000000000000000000e+00,0.000000000000000000e+00,0.000000000000000000e+00,0.000000000000000000e+00,0.000000000000000000e+00
2.203702926635742188e-01,-7.249756336212158203e+00,1.624829254150390625e+02,1.624829254150390625e+02,0.000000000000000000e+00,8.947254180908203125e+01,0.000000000000000000e+00,0.000000000000000000e+00,0.000000000000000000e+00,-6.238284587860107422e+00,0.000000000000000000e+00,0.000000000000000000e+00,-3.211542844772338867e+00,0.000000000000000000e+00,0.000000000000000000e+00,0.000000000000000000e+00,0.000000000000000000e+00,0.000000000000000000e+00,0.000000000000000000e+00
3.139128684997558594e-01,-7.249756336212158203e+00,1.624829254150390625e+02,1.624829254150390625e+02,0.000000000000000000e+00,8.947254180908203125e+01,0.000000000000000000e+00,0.000000000000000000e+00,0.000000000000000000e+00,-6.238284587860107422e+00,0.000000000000000000e+00,0.000000000000000000e+00,-3.211542844772338867e+00,0.000000000000000000e+00,0.000000000000000000e+00,0.000000000000000000e+00,0.000000000000000000e+00,0.000000000000000000e+00,0.000000000000000000e+00
3.139128684997558594e-01,-7.249756336212158203e+00,1.624829254150390625e+02,1.624829254150390625e+02,0.000000000000000000e+00,8.947254180908203125e+01,0.000000000000000000e+00,-2.194452264348001336e-07,2.856357372849060994e-09,-3.954042673110961914e+00,-5.357633654057281092e-06,6.973638022600425757e-08,5.576850128173828125e+01,-5.277651325741317123e-06,-1.102259921026416123e-04,-1.514778857902854270e-09,0.000000000000000000e+00,0.000000000000000000e+00,0.000000000000000000e+00
3.548722267150878906e-01,-7.249756336212158203e+00,1.624829254150390625e+02,1.624829254150390625e+02,0.000000000000000000e+00,8.947254180908203125e+01,0.000000000000000000e+00,-2.194452264348001336e-07,2.856357372849060994e-09,-3.954042673110961914e+00,-5.357633654057281092e-06,6.973638022600425757e-08,5.576850128173828125e+01,-5.277651325741317123e-06,-1.102259921026416123e-04,-1.514778857902854270e-09,0.000000000000000000e+00,0.000000000000000000e+00,0.000000000000000000e+00
3.889763355255126953e-01,-7.249370574951171875e+00,1.624829254150390625e+02,1.624829254150390625e+02,0.000000000000000000e+00,8.947255706787109375e+01,-1.515197604894638062e-01,4.254554584622383118e-02,-4.188236198388040066e-04,7.247886806726455688e-02,1.247526049613952637e+00,-1.228082086890935898e-02,1.180655899047851562e+02,2.116988152265548706e-01,6.300071239471435547e+00,-3.362184157595038414e-03,0.000000000000000000e+00,0.000000000000000000e+00,0.000000000000000000e+00
3.889763355255126953e-01,-7.249370574951171875e+00,1.624829254150390625e+02,1.624829254150390625e+02,0.000000000000000000e+00,8.947255706787109375e+01,-1.515197604894638062e-01,4.254554584622383118e-02,-4.188236198388040066e-04,7.247886806726455688e-02,1.247526049613952637e+00,-1.228082086890935898e-02,1.180655899047851562e+02,2.116988152265548706e-01,6.300071239471435547e+00,-3.362184157595038414e-03,0.000000000000000000e+00,0.000000000000000000e+00,0.000000000000000000e+00
3.889763355255126953e-01,-7.249431610107421875e+00,1.624829864501953125e+02,1.624829864501953125e+02,1.064826454967260361e-02,8.947251892089843750e+01,-3.041076362133026123e-01,1.862539909780025482e-02,-2.551320649217814207e-04,1.701543331146240234e-01,-7.509608268737792969e-01,5.139013286679983139e-03,3.066471576690673828e+00,2.987451255321502686e-01,3.513444900512695312e+00,-1.485147280618548393e-03,0.000000000000000000e+00,0.000000000000000000e+00,0.000000000000000000e+00
4.208290576934814453e-01,-7.249431610107421875e+00,1.624829864501953125e+02,1.624829864501953125e+02,1.064826454967260361e-02,8.947251892089843750e+01,-3.041076362133026123e-01,1.862539909780025482e-02,-2.551320649217814207e-04,1.701543331146240234e-01,-7.509608268737792969e-01,5.139013286679983139e-03,3.066471576690673828e+00,2.987451255321502686e-01,3.513444900512695312e+00,-1.485147280618548393e-03,0.000000000000000000e+00,0.000000000000000000e+00,0.000000000000000000e+00
4.208290576934814453e-01,-7.249431610107421875e+00,1.624829864501953125e+02,1.624829864501953125e+02,1.064826454967260361e-02,8.947251892089843750e+01,-3.041076362133026123e-01,1.862539909780025482e-02,-2.551320649217814207e-04,1.701543331146240234e-01,-7.509608268737792969e-01,5.139013286679983139e-03,3.066471576690673828e+00,2.987451255321502686e-01,3.513444900512695312e+00,-1.485147280618548393e-03,0.000000000000000000e+00,0.000000000000000000e+00,0.000000000000000000e+00
4.513106346130371094e-01,-7.249433994293212891e+00,1.624830169677734375e+02,1.624830169677734375e+02,1.675445400178432465e-02,8.947245788574218750e+01,-3.706054389476776123e-01,9.585759602487087250e-03,-1.406774681527167559e-04,2.191141843795776367e-01,-2.965607643127441406e-01,3.754877718165516853e-03,1.606211185455322266e+00,1.835782229900360107e-01,1.668856263160705566e+00,-1.129666343331336975e-03,0.000000000000000000e+00,0.000000000000000000e+00,0.000000000000000000e+00
4.513106346130371094e-01,-7.249433994293212891e+00,1.624830169677734375e+02,1.624830169677734375e+02,1.675445400178432465e-02,8.947245788574218750e+01,-3.706054389476776123e-01,9.585759602487087250e-03,-1.406774681527167559e-04,2.191141843795776367e-01,-2.965607643127441406e-01,3.754877718165516853e-03,1.606211185455322266e+00,1.835782229900360107e-01,1.668856263160705566e+00,-1.129666343331336975e-03,0.000000000000000000e+00,0.000000000000000000e+00,0.000000000000000000e+00
4.513106346130371094e-01,-7.249388694763183594e+00,1.624830627441406250e+02,1.624830627441406250e+02,2.209566161036491394e-02,8.947239685058593750e+01,-3.924560546875000000e-01,-8.191568194888532162e-04,-3.537701559253036976e-06,2.511047720909118652e-01,-1.329917907714843750e-01,1.784528372809290886e-03,2.350083440542221069e-01,3.393971920013427734e-02,-2.880501747131347656e-01,-3.252064925618469715e-04,0.000000000000000000e+00,0.000000000000000000e+00,0.000000000000000000e+00
4.861364364624023438e-01,-7.249388694763183594e+00,1.624830627441406250e+02,1.624830627441406250e+02,2.209566161036491394e-02,8.947239685058593750e+01,-3.924560546875000000e-01,-8.191568194888532162e-04,-3.537701559253036976e-06,2.511047720909118652e-01,-1.329917907714843750e-01,1.784528372809290886e-03,2.350083440542221069e-01,3.393971920013427734e-02,-2.880501747131347656e-01,-3.252064925618469715e-04,0.000000000000000000e+00,0.000000000000000000e+00,0.000000000000000000e+00
4.861364364624023438e-01,-7.249388694763183594e+00,1.624830627441406250e+02,1.624830627441406250e+02,2.209566161036491394e-02,8.947239685058593750e+01,-3.924560546875000000e-01,-8.191568194888532162e-04,-3.537701559253036976e-06,2.511047720909118652e-01,-1.329917907714843750e-01,1.784528372809290886e-03,2.350083440542221069e-01,3.393971920013427734e-02,-2.880501747131347656e-01,-3.252064925618469715e-04,0.000000000000000000e+00,0.000000000000000000e+00,0.000000000000000000e+00
5.504996776580810547e-01,-7.249364852905273438e+00,1.624830627441406250e+02,1.624830627441406250e+02,2.241667918860912323e-02,8.947240447998046875e+01,-3.726196587085723877e-01,-3.373335814103484154e-03,3.214366006432101130e-05,2.445141971111297607e-01,-8.239060640335083008e-02,1.150980126112699509e-03,-2.125933617353439331e-01,-8.576790802180767059e-03,-7.198240160942077637e-01,-4.400310717755928636e-05,0.000000000000000000e+00,0.000000000000000000e+00,0.000000000000000000e+00
5.839269161224365234e-01,-7.249348163604736328e+00,1.624830474853515625e+02,1.624830474853515625e+02,2.177464216947555542e-02,8.947242736816406250e+01,-3.446960151195526123e-01,-4.808997269719839096e-03,5.308525942382402718e-05,2.302402108907699585e-01,-4.294884949922561646e-02,6.264830590225756168e-04,-4.270166158676147461e-01,-3.467837721109390259e-02,-9.390119910240173340e-01,1.293525565415620804e-04,0.000000000000000000e+00,0.000000000000000000e+00,0.000000000000000000e+00
5.839269161224365234e-01,-7.249348163604736328e+00,1.624830474853515625e+02,1.624830474853515625e+02,2.177464216947555542e-02,8.947242736816406250e+01,-3.446960151195526123e-01,-4.808997269719839096e-03,5.308525942382402718e-05,2.302402108907699585e-01,-4.294884949922561646e-02,6.264830590225756168e-04,-4.270166158676147461e-01,-3.467837721109390259e-02,-9.390119910240173340e-01,1.293525565415620804e-04,0.000000000000000000e+00,0.000000000000000000e+00,0.000000000000000000e+00
5.839269161224365234e-01,-7.249348163604736328e+00,1.624830474853515625e+02,1.624830474853515625e+02,2.177464216947555542e-02,8.947242736816406250e+01,-3.446960151195526123e-01,-4.808997269719839096e-03,5.308525942382402718e-05,2.302402108907699585e-01,-4.294884949922561646e-02,6.264830590225756168e-04,-4.270166158676147461e-01,-3.467837721109390259e-02,-9.390119910240173340e-01,1.293525565415620804e-04,0.000000000000000000e+00,0.000000000000000000e+00,0.000000000000000000e+00
6.182222366333007812e-01,-7.249337673187255859e+00,1.624830474853515625e+02,1.624830474853515625e+02,2.053837850689888000e-02,8.947245788574218750e+01,-3.118896186351776123e-01,-5.400040186941623688e-03,6.314588245004415512e-05,2.132406532764434814e-01,-1.723392307758331299e-02,2.933526411652565002e-04,-4.956815540790557861e-01,-5.095685645937919617e-02,-1.004384756088256836e+00,2.018354862229898572e-04,0.000000000000000000e+00,0.000000000000000000e+00,0.000000000000000000e+00
6.182222366333007812e-01,-7.249337673187255859e+00,1.624830474853515625e+02,1.624830474853515625e+02,2.053837850689888000e-02,8.947245788574218750e+01,-3.118896186351776123e-01,-5.400040186941623688e-03,6.314588245004415512e-05,2.132406532764434814e-01,-1.723392307758331299e-02,2.933526411652565002e-04,-4.956815540790557861e-01,-5.095685645937919617e-02,-1.004384756088256836e+00,2.018354862229898572e-04,0.000000000000000000e+00,0.000000000000000000e+00,0.000000000000000000e+00
6.499295234680175781e-01,-7.249334335327148438e+00,1.624830322265625000e+02,1.624830322265625000e+02,1.888547278940677643e-02,8.947247314453125000e+01,-2.770995497703552246e-01,-5.639710463583469391e-03,6.816891982452943921e-05,1.916682273149490356e-01,-7.558838929980993271e-03,1.584190322319045663e-04,-6.803618073463439941e-01,-6.046260520815849304e-02,-1.010633468627929688e+00,2.345952234463766217e-04,0.000000000000000000e+00,0.000000000000000000e+00,0.000000000000000000e+00
6.499295234680175781e-01,-7.249334335327148438e+00,1.624830322265625000e+02,1.624830322265625000e+02,1.888547278940677643e-02,8.947247314453125000e+01,-2.770995497703552246e-01,-5.639710463583469391e-03,6.816891982452943921e-05,1.916682273149490356e-01,-7.558838929980993271e-03,1.584190322319045663e-04,-6.803618073463439941e-01,-6.046260520815849304e-02,-1.010633468627929688e+00,2.345952234463766217e-04,0.000000000000000000e+00,0.000000000000000000e+00,0.000000000000000000e+00
7.146451473236083984e-01,-7.249341964721679688e+00,1.624830169677734375e+02,1.624830169677734375e+02,1.547720748931169510e-02,8.947249603271484375e+01,-2.178649902343750000e-01,-5.337684415280818939e-03,6.668212154181674123e-05,1.526452302932739258e-01,9.074037894606590271e-03,-8.613137470092624426e-05,-4.790976643562316895e-01,-6.440162658691406250e-02,-9.117107987403869629e-01,2.184408076573163271e-04,0.000000000000000000e+00,0.000000000000000000e+00,0.000000000000000000e+00
6.795279979705810547e-01,-7.249341964721679688e+00,1.624830169677734375e+02,1.624830169677734375e+02,1.547720748931169510e-02,8.947249603271484375e+01,-2.178649902343750000e-01,-5.337684415280818939e-03,6.668212154181674123e-05,1.526452302932739258e-01,9.074037894606590271e-03,-8.613137470092624426e-05,-4.790976643562316895e-01,-6.440162658691406250e-02,-9.117107987403869629e-01,2.184408076573163271e-04,0.000000000000000000e+00,0.000000000000000000e+00,0.000000000000000000e+00
6.795279979705810547e-01,-7.249341964721679688e+00,1.624830169677734375e+02,1.624830169677734375e+02,1.547720748931169510e-02,8.947249603271484375e+01,-2.178649902343750000e-01,-5.337684415280818939e-03,6.668212154181674123e-05,1.526452302932739258e-01,9.074037894606590271e-03,-8.613137470092624426e-05,-4.790976643562316895e-01,-6.440162658691406250e-02,-9.117107987403869629e-01,2.184408076573163271e-04,0.000000000000000000e+00,0.000000000000000000e+00,0.000000000000000000e+00
7.485094070434570312e-01,-7.249351024627685547e+00,1.624830017089843750e+02,1.624830017089843750e+02,1.356475520879030228e-02,8.947251129150390625e+01,-1.883544772863388062e-01,-4.831693135201931000e-03,6.112508708611130714e-05,1.339906454086303711e-01,1.494174916297197342e-02,-1.640973205212503672e-04,-5.508635044097900391e-01,-6.116408109664916992e-02,-8.115842938423156738e-01,1.803831983124837279e-04,0.000000000000000000e+00,0.000000000000000000e+00,0.000000000000000000e+00
7.485094070434570312e-01,-7.249361038208007812e+00,1.624829864501953125e+02,1.624829864501953125e+02,1.181622687727212906e-02,8.947251892089843750e+01,-1.628417968750000000e-01,-4.374922718852758408e-03,5.581318691838532686e-05,1.155278384685516357e-01,1.450147945433855057e-02,-1.686414179857820272e-04,-5.861544609069824219e-01,-5.711754038929939270e-02,-7.236508131027221680e-01,1.491772854933515191e-04,0.000000000000000000e+00,0.000000000000000000e+00,0.000000000000000000e+00
7.800076007843017578e-01,-7.249361038208007812e+00,1.624829864501953125e+02,1.624829864501953125e+02,1.181622687727212906e-02,8.947251892089843750e+01,-1.628417968750000000e-01,-4.374922718852758408e-03,5.581318691838532686e-05,1.155278384685516357e-01,1.450147945433855057e-02,-1.686414179857820272e-04,-5.861544609069824219e-01,-5.711754038929939270e-02,-7.236508131027221680e-01,1.491772854933515191e-04,0.000000000000000000e+00,0.000000000000000000e+00,0.000000000000000000e+00
7.800076007843017578e-01,-7.249371051788330078e+00,1.624829711914062500e+02,1.624829711914062500e+02,1.029309444129467010e-02,8.947251892089843750e+01,-1.415099948644638062e-01,-4.032602999359369278e-03,5.163962850929237902e-05,9.683404117822647095e-02,1.105000171810388565e-02,-1.347215002169832587e-04,-6.034314632415771484e-01,-5.340414121747016907e-02,-6.564522385597229004e-01,1.268304768018424511e-04,0.000000000000000000e+00,0.000000000000000000e+00,0.000000000000000000e+00
8.109867572784423828e-01,-7.249371051788330078e+00,1.624829711914062500e+02,1.624829711914062500e+02,1.029309444129467010e-02,8.947251892089843750e+01,-1.415099948644638062e-01,-4.032602999359369278e-03,5.163962850929237902e-05,9.683404117822647095e-02,1.105000171810388565e-02,-1.347215002169832587e-04,-6.034314632415771484e-01,-5.340414121747016907e-02,-6.564522385597229004e-01,1.268304768018424511e-04,0.000000000000000000e+00,0.000000000000000000e+00,0.000000000000000000e+00
8.109867572784423828e-01,-7.249371051788330078e+00,1.624829711914062500e+02,1.624829711914062500e+02,1.029309444129467010e-02,8.947251892089843750e+01,-1.415099948644638062e-01,-4.032602999359369278e-03,5.163962850929237902e-05,9.683404117822647095e-02,1.105000171810388565e-02,-1.347215002169832587e-04,-6.034314632415771484e-01,-5.340414121747016907e-02,-6.564522385597229004e-01,1.268304768018424511e-04,0.000000000000000000e+00,0.000000000000000000e+00,0.000000000000000000e+00
8.109867572784423828e-01,-7.249382019042968750e+00,1.624829711914062500e+02,1.624829711914062500e+02,8.920226246118545532e-03,8.947251892089843750e+01,-1.229858323931694031e-01,-3.586292499676346779e-03,4.614339195541106164e-05,8.455277979373931885e-02,1.256594806909561157e-02,-1.547474821563810110e-04,-3.457809984683990479e-01,-4.837941750884056091e-02,-5.785450935363769531e-01,1.017058384604752064e-04,0.000000000000000000e+00,0.000000000000000000e+00,0.000000000000000000e+00
8.465042114257812500e-01,-7.249382019042968750e+00,1.624829711914062500e+02,1.624829711914062500e+02,8.920226246118545532e-03,8.947251892089843750e+01,-1.229858323931694031e-01,-3.586292499676346779e-03,4.614339195541106164e-05,8.455277979373931885e-02,1.256594806909561157e-02,-1.547474821563810110e-04,-3.457809984683990479e-01,-4.837941750884056091e-02,-5.785450935363769531e-01,1.017058384604752064e-04,0.000000000000000000e+00,0.000000000000000000e+00,0.000000000000000000e+00
8.465042114257812500e-01,-7.249382019042968750e+00,1.624829711914062500e+02,1.624829711914062500e+02,8.920226246118545532e-03,8.947251892089843750e+01,-1.229858323931694031e-01,-3.586292499676346779e-03,4.614339195541106164e-05,8.455277979373931885e-02,1.256594806909561157e-02,-1.547474821563810110e-04,-3.457809984683990479e-01,-4.837941750884056091e-02,-5.785450935363769531e-01,1.017058384604752064e-04,0.000000000000000000e+00,0.000000000000000000e+00,0.000000000000000000e+00
8.819472789764404297e-01,-7.249392509460449219e+00,1.624829711914062500e+02,1.624829711914062500e+02,7.533698342740535736e-03,8.947254180908203125e+01,-1.046447604894638062e-01,-3.062951145693659782e-03,3.961078618885949254e-05,7.431221008300781250e-02,1.476569008082151413e-02,-1.843126519815996289e-04,-2.889301180839538574e-01,-4.211062192916870117e-02,-4.911615848541259766e-01,7.621321856277063489e-05,0.000000000000000000e+00,0.000000000000000000e+00,0.000000000000000000e+00
8.819472789764404297e-01,-7.249392509460449219e+00,1.624829711914062500e+02,1.624829711914062500e+02,7.533698342740535736e-03,8.947254180908203125e+01,-1.046447604894638062e-01,-3.062951145693659782e-03,3.961078618885949254e-05,7.431221008300781250e-02,1.476569008082151413e-02,-1.843126519815996289e-04,-2.889301180839538574e-01,-4.211062192916870117e-02,-4.911615848541259766e-01,7.621321856277063489e-05,0.000000000000000000e+00,0.000000000000000000e+00,0.000000000000000000e+00
8.819472789764404297e-01,-7.249402999877929688e+00,1.624829559326171875e+02,1.624829559326171875e+02,6.311094388365745544e-03,8.947256469726562500e+01,-8.886718750000000000e-02,-2.655563643202185631e-03,3.438298153923824430e-05,6.189019978046417236e-02,8.801416493952274323e-03,-1.129442753153853118e-04,-2.683717310428619385e-01,-3.674482926726341248e-02,-4.224944412708282471e-01,5.821120430482551455e-05,0.000000000000000000e+00,0.000000000000000000e+00,0.000000000000000000e+00
9.282338619232177734e-01,-7.249402999877929688e+00,1.624829559326171875e+02,1.624829559326171875e+02,6.311094388365745544e-03,8.947256469726562500e+01,-8.886718750000000000e-02,-2.655563643202185631e-03,3.438298153923824430e-05,6.189019978046417236e-02,8.801416493952274323e-03,-1.129442753153853118e-04,-2.683717310428619385e-01,-3.674482926726341248e-02,-4.224944412708282471e-01,5.821120430482551455e-05,0.000000000000000000e+00,0.000000000000000000e+00,0.000000000000000000e+00
9.282338619232177734e-01,-7.249402999877929688e+00,1.624829559326171875e+02,1.624829559326171875e+02,6.311094388365745544e-03,8.947256469726562500e+01,-8.886718750000000000e-02,-2.655563643202185631e-03,3.438298153923824430e-05,6.189019978046417236e-02,8.801416493952274323e-03,-1.129442753153853118e-04,-2.683717310428619385e-01,-3.674482926726341248e-02,-4.224944412708282471e-01,5.821120430482551455e-05,0.000000000000000000e+00,0.000000000000000000e+00,0.000000000000000000e+00
9.663660526275634766e-01,-7.249423503875732422e+00,1.624829406738281250e+02,1.624829406738281250e+02,4.036641679704189301e-03,8.947258758544921875e+01,-5.972289666533470154e-02,-1.849071937613189220e-03,2.387726090091746300e-05,4.044151306152343750e-02,1.270075514912605286e-02,-1.640342816244810820e-04,-1.878353059291839600e-01,-2.551532536745071411e-02,-2.901305854320526123e-01,2.953602233901619911e-05,0.000000000000000000e+00,0.000000000000000000e+00,0.000000000000000000e+00
9.663660526275634766e-01,-7.249423503875732422e+00,1.624829406738281250e+02,1.624829406738281250e+02,4.036641679704189301e-03,8.947258758544921875e+01,-5.972289666533470154e-02,-1.849071937613189220e-03,2.387726090091746300e-05,4.044151306152343750e-02,1.270075514912605286e-02,-1.640342816244810820e-04,-1.878353059291839600e-01,-2.551532536745071411e-02,-2.901305854320526123e-01,2.953602233901619911e-05,0.000000000000000000e+00,0.000000000000000000e+00,0.000000000000000000e+00
9.663660526275634766e-01,-7.249423503875732422e+00,1.624829406738281250e+02,1.624829406738281250e+02,4.036641679704189301e-03,8.947258758544921875e+01,-5.972289666533470154e-02,-1.849071937613189220e-03,2.387726090091746300e-05,4.044151306152343750e-02,1.270075514912605286e-02,-1.640342816244810820e-04,-1.878353059291839600e-01,-2.551532536745071411e-02,-2.901305854320526123e-01,2.953602233901619911e-05,0.000000000000000000e+00,0.000000000000000000e+00,0.000000000000000000e+00
9.663660526275634766e-01,-7.249423503875732422e+00,1.624829406738281250e+02,1.624829406738281250e+02,4.036641679704189301e-03,8.947258758544921875e+01,-5.972289666533470154e-02,-1.849071937613189220e-03,2.387726090091746300e-05,4.044151306152343750e-02,1.270075514912605286e-02,-1.640342816244810820e-04,-1.878353059291839600e-01,-2.551532536745071411e-02,-2.901305854320526123e-01,2.953602233901619911e-05,0.000000000000000000e+00,0.000000000000000000e+00,0.000000000000000000e+00
9.663660526275634766e-01,-7.249423503875732422e+00,1.624829406738281250e+02,1.624829406738281250e+02,4.036641679704189301e-03,8.947258758544921875e+01,-5.972289666533470154e-02,-1.849071937613189220e-03,2.387726090091746300e-05,4.044151306152343750e-02,1.270075514912605286e-02,-1.640342816244810820e-04,-1.878353059291839600e-01,-2.551532536745071411e-02,-2.901305854320526123e-01,2.953602233901619911e-05,0.000000000000000000e+00,0.000000000000000000e+00,0.000000000000000000e+00
9.663660526275634766e-01,-7.249423503875732422e+00,1.624829406738281250e+02,1.624829406738281250e+02,4.036641679704189301e-03,8.947258758544921875e+01,-5.972289666533470154e-02,-1.849071937613189220e-03,2.387726090091746300e-05,4.044151306152343750e-02,1.270075514912605286e-02,-1.640342816244810820e-04,-1.878353059291839600e-01,-2.551532536745071411e-02,-2.901305854320526123e-01,2.953602233901619911e-05,0.000000000000000000e+00,0.000000000000000000e+00,0.000000000000000000e+00
1.081580162048339844e+00,-7.249429702758789062e+00,1.624829406738281250e+02,1.624829406738281250e+02,3.428754862397909164e-03,8.947256469726562500e+01,-5.197143182158470154e-02,-1.639239024370908737e-03,2.107934778905473650e-05,3.257523104548454285e-02,2.440723823383450508e-03,-3.254462353652343154e-05,-9.149862080812454224e-02,-2.238452248275279999e-02,-2.559123337268829346e-01,2.313109143869951367e-05,0.000000000000000000e+00,0.000000000000000000e+00,0.000000000000000000e+00
1.081580162048339844e+00,-7.249429702758789062e+00,1.624829406738281250e+02,1.624829406738281250e+02,3.428754862397909164e-03,8.947256469726562500e+01,-5.197143182158470154e-02,-1.639239024370908737e-03,2.107934778905473650e-05,3.257523104548454285e-02,2.440723823383450508e-03,-3.254462353652343154e-05,-9.149862080812454224e-02,-2.238452248275279999e-02,-2.559123337268829346e-01,2.313109143869951367e-05,0.000000000000000000e+00,0.000000000000000000e+00,0.000000000000000000e+00
1.081580162048339844e+00,-7.249429702758789062e+00,1.624829406738281250e+02,1.624829406738281250e+02,3.428754862397909164e-03,8.947256469726562500e+01,-5.197143182158470154e-02,-1.639239024370908737e-03,2.107934778905473650e-05,3.257523104548454285e-02,2.440723823383450508e-03,-3.254462353652343154e-05,-9.149862080812454224e-02,-2.238452248275279999e-02,-2.559123337268829346e-01,2.313109143869951367e-05,0.000000000000000000e+00,0.000000000000000000e+00,0.000000000000000000e+00
1.081580162048339844e+00,-7.249429702758789062e+00,1.624829406738281250e+02,1.624829406738281250e+02,3.428754862397909164e-03,8.947256469726562500e+01,-5.197143182158470154e-02,-1.639239024370908737e-03,2.107934778905473650e-05,3.257523104548454285e-02,2.440723823383450508e-03,-3.254462353652343154e-05,-9.149862080812454224e-02,-2.238452248275279999e-02,-2.559123337268829346e-01,2.313109143869951367e-05,0.000000000000000000e+00,0.000000000000000000e+00,0.000000000000000000e+00
1.081580162048339844e+00,-7.249444961547851562e+00,1.624829254150390625e+02,1.624829254150390625e+02,2.076377393677830696e-03,8.947254180908203125e+01,-3.448485955595970154e-02,-1.100978115573525429e-03,1.399136090185493231e-05,2.091565728187561035e-02,7.204289548099040985e-03,-9.486832277616485953e-05,-1.560561954975128174e-01,-1.452555228024721146e-02,-1.708161085844039917e-01,1.128167696151649579e-05,0.000000000000000000e+00,0.000000000000000000e+00,0.000000000000000000e+00
1.156294107437133789e+00,-7.249444961547851562e+00,1.624829254150390625e+02,1.624829254150390625e+02,2.076377393677830696e-03,8.947254180908203125e+01,-3.448485955595970154e-02,-1.100978115573525429e-03,1.399136090185493231e-05,2.091565728187561035e-02,7.204289548099040985e-03,-9.486832277616485953e-05,-1.560561954975128174e-01,-1.452555228024721146e-02,-1.708161085844039917e-01,1.128167696151649579e-05,0.000000000000000000e+00,0.000000000000000000e+00,0.000000000000000000e+00
1.191715240478515625e+00,-7.249453544616699219e+00,1.624829254150390625e+02,1.624829254150390625e+02,1.311396248638629913e-03,8.947256469726562500e+01,-2.407836914062500000e-02,-7.770205847918987274e-04,9.707270692160818726e-06,1.351635996252298355e-02,9.145882911980152130e-03,-1.209472902701236308e-04,-2.088949829339981079e-01,-9.721557609736919403e-03,-1.200189441442489624e-01,6.060908617655513808e-06,0.000000000000000000e+00,0.000000000000000000e+00,0.000000000000000000e+00
1.191715240478515625e+00,-7.249453544616699219e+00,1.624829254150390625e+02,1.624829254150390625e+02,1.311396248638629913e-03,8.947256469726562500e+01,-2.407836914062500000e-02,-7.770205847918987274e-04,9.707270692160818726e-06,1.351635996252298355e-02,9.145882911980152130e-03,-1.209472902701236308e-04,-2.088949829339981079e-01,-9.721557609736919403e-03,-1.200189441442489624e-01,6.060908617655513808e-06,0.000000000000000000e+00,0.000000000000000000e+00,0.000000000000000000e+00
1.191715240478515625e+00,-7.249453544616699219e+00,1.624829254150390625e+02,1.624829254150390625e+02,1.311396248638629913e-03,8.947256469726562500e+01,-2.407836914062500000e-02,-7.770205847918987274e-04,9.707270692160818726e-06,1.351635996252298355e-02,9.145882911980152130e-03,-1.209472902701236308e-04,-2.088949829339981079e-01,-9.721557609736919403e-03,-1.200189441442489624e-01,6.060908617655513808e-06,0.000000000000000000e+00,0.000000000000000000e+00,0.000000000000000000e+00
1.224342584609985352e+00,-7.249457359313964844e+00,1.624829101562500000e+02,1.624829101562500000e+02,1.051849103532731533e-03,8.947256469726562500e+01,-2.032470703125000000e-02,-6.467705825343728065e-04,8.022901056392583996e-06,1.410214789211750031e-02,3.992050420492887497e-03,-5.162447996553964913e-05,1.795389503240585327e-02,-7.886329665780067444e-03,-1.000305190682411194e-01,4.818394700123462826e-06,0.000000000000000000e+00,0.000000000000000000e+00,0.000000000000000000e+00
1.224342584609985352e+00,-7.249457359313964844e+00,1.624829101562500000e+02,1.624829101562500000e+02,1.051849103532731533e-03,8.947256469726562500e+01,-2.032470703125000000e-02,-6.467705825343728065e-04,8.022901056392583996e-06,1.410214789211750031e-02,3.992050420492887497e-03,-5.162447996553964913e-05,1.795389503240585327e-02,-7.886329665780067444e-03,-1.000305190682411194e-01,4.818394700123462826e-06,0.000000000000000000e+00,0.000000000000000000e+00,0.000000000000000000e+00
1.224342584609985352e+00,-7.249457359313964844e+00,1.624829101562500000e+02,1.624829101562500000e+02,1.051849103532731533e-03,8.947256469726562500e+01,-2.032470703125000000e-02,-6.467705825343728065e-04,8.022901056392583996e-06,1.410214789211750031e-02,3.992050420492887497e-03,-5.162447996553964913e-05,1.795389503240585327e-02,-7.886329665780067444e-03,-1.000305190682411194e-01,4.818394700123462826e-06,0.000000000000000000e+00,0.000000000000000000e+00,0.000000000000000000e+00
1.256274461746215820e+00,-7.249459743499755859e+00,1.624829101562500000e+02,1.624829101562500000e+02,8.469434105791151524e-04,8.947256469726562500e+01,-1.736450195312500000e-02,-5.676053697243332863e-04,6.954629498068243265e-06,6.492299493402242661e-03,2.479190705344080925e-03,-3.345470395288430154e-05,-2.383150905370712280e-01,-6.659036036580801010e-03,-8.739365637302398682e-02,3.462053882685722783e-06,0.000000000000000000e+00,0.000000000000000000e+00,0.000000000000000000e+00
1.256274461746215820e+00,-7.249459743499755859e+00,1.624829101562500000e+02,1.624829101562500000e+02,8.469434105791151524e-04,8.947256469726562500e+01,-1.736450195312500000e-02,-5.676053697243332863e-04,6.954629498068243265e-06,6.492299493402242661e-03,2.479190705344080925e-03,-3.345470395288430154e-05,-2.383150905370712280e-01,-6.659036036580801010e-03,-8.739365637302398682e-02,3.462053882685722783e-06,0.000000000000000000e+00,0.000000000000000000e+00,0.000000000000000000e+00
1.256274461746215820e+00,-7.249457836151123047e+00,1.624829101562500000e+02,1.624829101562500000e+02,5.532453069463372231e-04,8.947256469726562500e+01,-1.269531250000000000e-02,-3.450036092544905841e-05,1.534834723315725569e-06,5.404230207204818726e-03,1.356064807623624802e-02,-1.311040978180244565e-04,-2.874431572854518890e-02,-4.571222700178623199e-03,-6.545791774988174438e-02,1.782117396942339838e-05,0.000000000000000000e+00,0.000000000000000000e+00,0.000000000000000000e+00
1.321781396865844727e+00,-7.249457836151123047e+00,1.624829101562500000e+02,1.624829101562500000e+02,5.532453069463372231e-04,8.947256469726562500e+01,-1.269531250000000000e-02,-3.450036092544905841e-05,1.534834723315725569e-06,5.404230207204818726e-03,1.356064807623624802e-02,-1.311040978180244565e-04,-2.874431572854518890e-02,-4.571222700178623199e-03,-6.545791774988174438e-02,1.782117396942339838e-05,0.000000000000000000e+00,0.000000000000000000e+00,0.000000000000000000e+00
1.321781396865844727e+00,-7.249457836151123047e+00,1.624829101562500000e+02,1.624829101562500000e+02,5.532453069463372231e-04,8.947256469726562500e+01,-1.269531250000000000e-02,-3.450036092544905841e-05,1.534834723315725569e-06,5.404230207204818726e-03,1.356064807623624802e-02,-1.311040978180244565e-04,-2.874431572854518890e-02,-4.571222700178623199e-03,-6.545791774988174438e-02,1.782117396942339838e-05,0.000000000000000000e+00,0.000000000000000000e+00,0.000000000000000000e+00
1.321781396865844727e+00,-7.249446392059326172e+00,1.624829101562500000e+02,1.624829101562500000e+02,4.371320828795433044e-04,8.947256469726562500e+01,-1.077270507812500000e-02,1.929808786371722817e-05,7.684393494855612516e-07,4.088732413947582245e-03,1.597275026142597198e-03,-2.275426595588214695e-05,-3.905710577964782715e-02,-3.729576943442225456e-03,-5.516413599252700806e-02,1.302602470332203666e-07,0.000000000000000000e+00,0.000000000000000000e+00,0.000000000000000000e+00
1.355462789535522461e+00,-7.249446392059326172e+00,1.624829101562500000e+02,1.624829101562500000e+02,4.371320828795433044e-04,8.947256469726562500e+01,-1.077270507812500000e-02,0.000000000000000000e+00,0.000000000000000000e+00,0.000000000000000000e+00,-5.806084373034536839e-04,-2.311951357114594430e-05,-1.230149120092391968e-01,0.000000000000000000e+00,0.000000000000000000e+00,0.000000000000000000e+00,0.000000000000000000e+00,0.000000000000000000e+00,0.000000000000000000e+00
1.388700485229492188e+00,-7.249446392059326172e+00,1.624829101562500000e+02,1.624829101562500000e+02,4.371320828795433044e-04,8.947256469726562500e+01,-1.077270507812500000e-02,0.000000000000000000e+00,0.000000000000000000e+00,0.000000000000000000e+00,-5.806084373034536839e-04,-2.311951357114594430e-05,-1.230149120092391968e-01,0.000000000000000000e+00,0.000000000000000000e+00,0.000000000000000000e+00,0.000000000000000000e+00,0.000000000000000000e+00,0.000000000000000000e+00
1.388700485229492188e+00,-7.249446392059326172e+00,1.624829101562500000e+02,1.624829101562500000e+02,4.371320828795433044e-04,8.947256469726562500e+01,-1.077270507812500000e-02,0.000000000000000000e+00,0.000000000000000000e+00,0.000000000000000000e+00,-5.806084373034536839e-04,-2.311951357114594430e-05,-1.230149120092391968e-01,0.000000000000000000e+00,0.000000000000000000e+00,0.000000000000000000e+00,0.000000000000000000e+00,0.000000000000000000e+00,0.000000000000000000e+00
1.420172929763793945e+00,-7.249446392059326172e+00,1.624829101562500000e+02,1.624829101562500000e+02,4.371320828795433044e-04,8.947256469726562500e+01,-1.077270507812500000e-02,0.000000000000000000e+00,0.000000000000000000e+00,0.000000000000000000e+00,0.000000000000000000e+00,0.000000000000000000e+00,0.000000000000000000e+00,0.000000000000000000e+00,0.000000000000000000e+00,0.000000000000000000e+00,0.000000000000000000e+00,0.000000000000000000e+00,0.000000000000000000e+00
1.420172929763793945e+00,-7.249446392059326172e+00,1.624829101562500000e+02,1.624829101562500000e+02,4.371320828795433044e-04,8.947256469726562500e+01,-1.077270507812500000e-02,0.000000000000000000e+00,0.000000000000000000e+00,0.000000000000000000e+00,0.000000000000000000e+00,0.000000000000000000e+00,0.000000000000000000e+00,0.000000000000000000e+00,0.000000000000000000e+00,0.000000000000000000e+00,0.000000000000000000e+00,0.000000000000000000e+00,0.000000000000000000e+00
1.420172929763793945e+00,-7.249446392059326172e+00,1.624829101562500000e+02,1.624829101562500000e+02,4.371320828795433044e-04,8.947256469726562500e+01,-1.077270507812500000e-02,0.000000000000000000e+00,0.000000000000000000e+00,0.000000000000000000e+00,0.000000000000000000e+00,0.000000000000000000e+00,0.000000000000000000e+00,0.000000000000000000e+00,0.000000000000000000e+00,0.000000000000000000e+00,0.000000000000000000e+00,0.000000000000000000e+00,0.000000000000000000e+00
1.452411651611328125e+00,-7.249446392059326172e+00,1.624829101562500000e+02,1.624829101562500000e+02,4.371320828795433044e-04,8.947256469726562500e+01,-1.077270507812500000e-02,0.000000000000000000e+00,0.000000000000000000e+00,0.000000000000000000e+00,0.000000000000000000e+00,0.000000000000000000e+00,0.000000000000000000e+00,0.000000000000000000e+00,0.000000000000000000e+00,0.000000000000000000e+00,0.000000000000000000e+00,0.000000000000000000e+00,0.000000000000000000e+00
1.452411651611328125e+00,-7.249446392059326172e+00,1.624829101562500000e+02,1.624829101562500000e+02,4.371320828795433044e-04,8.947256469726562500e+01,-1.077270507812500000e-02,0.000000000000000000e+00,0.000000000000000000e+00,0.000000000000000000e+00,0.000000000000000000e+00,0.000000000000000000e+00,0.000000000000000000e+00,0.000000000000000000e+00,0.000000000000000000e+00,0.000000000000000000e+00,0.000000000000000000e+00,0.000000000000000000e+00,0.000000000000000000e+00
1.489624500274658203e+00,-7.249446392059326172e+00,1.624829101562500000e+02,1.624829101562500000e+02,4.371320828795433044e-04,8.947256469726562500e+01,-1.077270507812500000e-02,0.000000000000000000e+00,0.000000000000000000e+00,0.000000000000000000e+00,0.000000000000000000e+00,0.000000000000000000e+00,0.000000000000000000e+00,0.000000000000000000e+00,0.000000000000000000e+00,0.000000000000000000e+00,0.000000000000000000e+00,0.000000000000000000e+00,0.000000000000000000e+00
1.489624500274658203e+00,-7.249446392059326172e+00,1.624829101562500000e+02,1.624829101562500000e+02,4.371320828795433044e-04,8.947256469726562500e+01,-1.077270507812500000e-02,0.000000000000000000e+00,0.000000000000000000e+00,0.000000000000000000e+00,0.000000000000000000e+00,0.000000000000000000e+00,0.000000000000000000e+00,0.000000000000000000e+00,0.000000000000000000e+00,0.000000000000000000e+00,0.000000000000000000e+00,0.000000000000000000e+00,0.000000000000000000e+00
1.489624500274658203e+00,-7.249444484710693359e+00,1.624829101562500000e+02,1.624829101562500000e+02,4.234717052895575762e-04,8.947256469726562500e+01,-1.040649507194757462e-02,-1.784739964705295279e-07,1.558062763251655269e-07,-7.063200231641530991e-03,-5.574809165409533307e-06,4.866760718869045377e-06,-2.206259369850158691e-01,-6.112952833063900471e-04,-1.500487234443426132e-02,3.028628370316255314e-08,1.000000000000000000e+00,0.000000000000000000e+00,0.000000000000000000e+00
1.552078723907470703e+00,-7.249444484710693359e+00,1.624829101562500000e+02,1.624829101562500000e+02,4.234717052895575762e-04,8.947256469726562500e+01,-1.040649507194757462e-02,-1.784739964705295279e-07,1.558062763251655269e-07,-7.063200231641530991e-03,-5.574809165409533307e-06,4.866760718869045377e-06,-2.206259369850158691e-01,-6.112952833063900471e-04,-1.500487234443426132e-02,3.028628370316255314e-08,1.000000000000000000e+00,0.000000000000000000e+00,0.000000000000000000e+00
1.552078723907470703e+00,-7.249444484710693359e+00,1.624829101562500000e+02,1.624829101562500000e+02,4.234717052895575762e-04,8.947256469726562500e+01,-1.040649507194757462e-02,-1.784739964705295279e-07,1.558062763251655269e-07,-7.063200231641530991e-03,-5.574809165409533307e-06,4.866760718869045377e-06,-2.206259369850158691e-01,-6.112952833063900471e-04,-1.500487234443426132e-02,3.028628370316255314e-08,1.000000000000000000e+00,0.000000000000000000e+00,0.000000000000000000e+00
1.552078723907470703e+00,-7.249440670013427734e+00,1.624829101562500000e+02,1.624829101562500000e+02,4.029811243526637554e-04,8.947256469726562500e+01,-9.735107421875000000e-03,4.274219463695771992e-06,1.988930620200335397e-07,-3.963474649935960770e-03,1.356130378553643823e-04,1.312268636866065208e-06,9.440650045871734619e-02,-9.842145955190062523e-04,-2.313874289393424988e-02,-4.730885905246395851e-08,1.000000000000000000e+00,0.000000000000000000e+00,0.000000000000000000e+00
1.618568897247314453e+00,-7.249435901641845703e+00,1.624829101562500000e+02,1.624829101562500000e+02,3.756603691726922989e-04,8.947256469726562500e+01,-8.880615234375000000e-03,6.835001386207295582e-06,2.348032666077415342e-07,-1.335935550741851330e-03,7.608612213516607881e-05,1.066966433427296579e-06,7.806961238384246826e-02,-1.224019215442240238e-03,-2.691863104701042175e-02,-1.104202240753693331e-07,1.000000000000000000e+00,0.000000000000000000e+00,0.000000000000000000e+00
1.618568897247314453e+00,-7.249435901641845703e+00,1.624829101562500000e+02,1.624829101562500000e+02,3.756603691726922989e-04,8.947256469726562500e+01,-8.880615234375000000e-03,6.835001386207295582e-06,2.348032666077415342e-07,-1.335935550741851330e-03,7.608612213516607881e-05,1.066966433427296579e-06,7.806961238384246826e-02,-1.224019215442240238e-03,-2.691863104701042175e-02,-1.104202240753693331e-07,1.000000000000000000e+00,0.000000000000000000e+00,0.000000000000000000e+00
1.652050495147705078e+00,-7.249430179595947266e+00,1.624829101562500000e+02,1.624829101562500000e+02,3.415094397496432066e-04,8.947256469726562500e+01,-7.965086959302425385e-03,7.937369446153752506e-06,2.451562295391340740e-07,6.322465837001800537e-03,3.292459587100893259e-05,3.092135330007295124e-07,2.287346571683883667e-01,-1.306660356931388378e-03,-2.732146903872489929e-02,-1.228984274348476902e-07,1.000000000000000000e+00,0.000000000000000000e+00,0.000000000000000000e+00
1.652050495147705078e+00,-7.249430179595947266e+00,1.624829101562500000e+02,1.624829101562500000e+02,3.415094397496432066e-04,8.947256469726562500e+01,-7.965086959302425385e-03,7.937369446153752506e-06,2.451562295391340740e-07,6.322465837001800537e-03,3.292459587100893259e-05,3.092135330007295124e-07,2.287346571683883667e-01,-1.306660356931388378e-03,-2.732146903872489929e-02,-1.228984274348476902e-07,1.000000000000000000e+00,0.000000000000000000e+00,0.000000000000000000e+00
1.652050495147705078e+00,-7.249430179595947266e+00,1.624829101562500000e+02,1.624829101562500000e+02,3.415094397496432066e-04,8.947256469726562500e+01,-7.965086959302425385e-03,7.937369446153752506e-06,2.451562295391340740e-07,6.322465837001800537e-03,3.292459587100893259e-05,3.092135330007295124e-07,2.287346571683883667e-01,-1.306660356931388378e-03,-2.732146903872489929e-02,-1.228984274348476902e-07,1.000000000000000000e+00,0.000000000000000000e+00,0.000000000000000000e+00
1.652050495147705078e+00,-7.249430179595947266e+00,1.624829101562500000e+02,1.624829101562500000e+02,3.415094397496432066e-04,8.947256469726562500e+01,-7.965086959302425385e-03,7.937369446153752506e-06,2.451562295391340740e-07,6.322465837001800537e-03,3.292459587100893259e-05,3.092135330007295124e-07,2.287346571683883667e-01,-1.306660356931388378e-03,-2.732146903872489929e-02,-1.228984274348476902e-07,1.000000000000000000e+00,0.000000000000000000e+00,0.000000000000000000e+00
1.685255289077758789e+00,-7.249425411224365234e+00,1.624829101562500000e+02,1.624829101562500000e+02,3.073585103265941143e-04,8.947256469726562500e+01,-7.049560081213712692e-03,8.215411980927456170e-06,2.450373415285866940e-07,5.801478400826454163e-03,8.373565833608154207e-06,-3.580447049955637340e-09,-1.569012738764286041e-02,-1.314778113737702370e-03,-2.672907523810863495e-02,-1.127120299315720331e-07,1.000000000000000000e+00,0.000000000000000000e+00,0.000000000000000000e+00
1.685255289077758789e+00,-7.249416351318359375e+00,1.624829101562500000e+02,1.624829101562500000e+02,2.322264190297573805e-04,8.947256469726562500e+01,-5.462646484375000000e-03,7.759062100376468152e-06,2.350128767147907638e-07,2.960830926895141602e-03,-1.715291182335931808e-05,-2.520190207633277168e-07,1.075221523642539978e-01,-1.238915021531283855e-03,-2.339155413210391998e-02,-1.074420978852685948e-07,1.000000000000000000e+00,0.000000000000000000e+00,0.000000000000000000e+00
1.747591495513916016e+00,-7.249416351318359375e+00,1.624829101562500000e+02,1.624829101562500000e+02,2.322264190297573805e-04,8.947256469726562500e+01,-5.462646484375000000e-03,7.759062100376468152e-06,2.350128767147907638e-07,2.960830926895141602e-03,-1.715291182335931808e-05,-2.520190207633277168e-07,1.075221523642539978e-01,-1.238915021531283855e-03,-2.339155413210391998e-02,-1.074420978852685948e-07,1.000000000000000000e+00,0.000000000000000000e+00,0.000000000000000000e+00
1.747591495513916016e+00,-7.249416351318359375e+00,1.624829101562500000e+02,1.624829101562500000e+02,2.322264190297573805e-04,8.947256469726562500e+01,-5.462646484375000000e-03,7.759062100376468152e-06,2.350128767147907638e-07,2.960830926895141602e-03,-1.715291182335931808e-05,-2.520190207633277168e-07,1.075221523642539978e-01,-1.238915021531283855e-03,-2.339155413210391998e-02,-1.074420978852685948e-07,1.000000000000000000e+00,0.000000000000000000e+00,0.000000000000000000e+00
1.747591495513916016e+00,-7.249412536621093750e+00,1.624829101562500000e+02,1.624829101562500000e+02,2.049056638497859240e-04,8.947256469726562500e+01,-4.760742653161287308e-03,7.121535873011453077e-06,2.149768221215708763e-07,1.558985328301787376e-03,-2.005684655159711838e-05,-6.303428108367370442e-07,-4.410266131162643433e-02,-1.137775601819157600e-03,-2.118336781859397888e-02,-8.892098435353545938e-08,1.000000000000000000e+00,0.000000000000000000e+00,0.000000000000000000e+00
1.810935497283935547e+00,-7.249409198760986328e+00,1.624829101562500000e+02,1.624829101562500000e+02,1.775849086698144674e-04,8.947256469726562500e+01,-4.150390159338712692e-03,6.445259259635349736e-06,1.950196661937297904e-07,2.531889127567410469e-03,-2.142961602658033371e-05,-6.323953698483819608e-07,3.082903474569320679e-02,-1.027517486363649368e-03,-1.883240044116973877e-02,-7.471599161590347649e-08,1.000000000000000000e+00,0.000000000000000000e+00,0.000000000000000000e+00
1.810935497283935547e+00,-7.249409198760986328e+00,1.624829101562500000e+02,1.624829101562500000e+02,1.775849086698144674e-04,8.947256469726562500e+01,-4.150390159338712692e-03,6.445259259635349736e-06,1.950196661937297904e-07,2.531889127567410469e-03,-2.142961602658033371e-05,-6.323953698483819608e-07,3.082903474569320679e-02,-1.027517486363649368e-03,-1.883240044116973877e-02,-7.471599161590347649e-08,1.000000000000000000e+00,0.000000000000000000e+00,0.000000000000000000e+00
1.810935497283935547e+00,-7.249405860900878906e+00,1.624829101562500000e+02,1.624829101562500000e+02,1.570943422848358750e-04,8.947256469726562500e+01,-3.601074451580643654e-03,5.716354735341155902e-06,1.752422917888907250e-07,2.796323038637638092e-03,-2.230688005511183292e-05,-6.052528078726027161e-07,8.092548698186874390e-03,-9.211762808263301849e-04,-1.667995750904083252e-02,-6.241474892476617242e-08,1.000000000000000000e+00,0.000000000000000000e+00,0.000000000000000000e+00
1.843611717224121094e+00,-7.249405860900878906e+00,1.624829101562500000e+02,1.624829101562500000e+02,1.570943422848358750e-04,8.947256469726562500e+01,-3.601074451580643654e-03,5.716354735341155902e-06,1.752422917888907250e-07,2.796323038637638092e-03,-2.230688005511183292e-05,-6.052528078726027161e-07,8.092548698186874390e-03,-9.211762808263301849e-04,-1.667995750904083252e-02,-6.241474892476617242e-08,1.000000000000000000e+00,0.000000000000000000e+00,0.000000000000000000e+00
1.843611717224121094e+00,-7.249405860900878906e+00,1.624829101562500000e+02,1.624829101562500000e+02,1.570943422848358750e-04,8.947256469726562500e+01,-3.601074451580643654e-03,5.716354735341155902e-06,1.752422917888907250e-07,2.796323038637638092e-03,-2.230688005511183292e-05,-6.052528078726027161e-07,8.092548698186874390e-03,-9.211762808263301849e-04,-1.667995750904083252e-02,-6.241474892476617242e-08,1.000000000000000000e+00,0.000000000000000000e+00,0.000000000000000000e+00
1.843611717224121094e+00,-7.249403476715087891e+00,1.624829101562500000e+02,1.624829101562500000e+02,1.297735871048644185e-04,8.947256469726562500e+01,-3.112792968750000000e-03,5.113979568704962730e-06,1.497896562341338722e-07,2.012038370594382286e-03,-1.931358019646722823e-05,-8.160720312844205182e-07,-2.514603175222873688e-02,-7.997688371688127518e-04,-1.465867552906274796e-02,-4.715985824077506550e-08,1.000000000000000000e+00,0.000000000000000000e+00,0.000000000000000000e+00
1.874800920486450195e+00,-7.249403476715087891e+00,1.624829101562500000e+02,1.624829101562500000e+02,1.297735871048644185e-04,8.947256469726562500e+01,-3.112792968750000000e-03,5.113979568704962730e-06,1.497896562341338722e-07,2.012038370594382286e-03,-1.931358019646722823e-05,-8.160720312844205182e-07,-2.514603175222873688e-02,-7.997688371688127518e-04,-1.465867552906274796e-02,-4.715985824077506550e-08,1.000000000000000000e+00,0.000000000000000000e+00,0.000000000000000000e+00
1.874800920486450195e+00,-7.249403476715087891e+00,1.624829101562500000e+02,1.624829101562500000e+02,1.297735871048644185e-04,8.947256469726562500e+01,-3.112792968750000000e-03,5.113979568704962730e-06,1.497896562341338722e-07,2.012038370594382286e-03,-1.931358019646722823e-05,-8.160720312844205182e-07,-2.514603175222873688e-02,-7.997688371688127518e-04,-1.465867552906274796e-02,-4.715985824077506550e-08,1.000000000000000000e+00,0.000000000000000000e+00,0.000000000000000000e+00
1.907004594802856445e+00,-7.249401092529296875e+00,1.624829101562500000e+02,1.624829101562500000e+02,1.092830207198858261e-04,8.947256469726562500e+01,-2.685546875000000000e-03,4.454868303582770750e-06,1.354937779751708149e-07,3.058623988181352615e-03,-2.046695772150997072e-05,-4.439206975348497508e-07,3.249894827604293823e-02,-7.133051403798162937e-04,-1.270000264048576355e-02,-4.266833997235153220e-08,1.000000000000000000e+00,0.000000000000000000e+00,0.000000000000000000e+00
1.907004594802856445e+00,-7.249401092529296875e+00,1.624829101562500000e+02,1.624829101562500000e+02,1.092830207198858261e-04,8.947256469726562500e+01,-2.685546875000000000e-03,4.454868303582770750e-06,1.354937779751708149e-07,3.058623988181352615e-03,-2.046695772150997072e-05,-4.439206975348497508e-07,3.249894827604293823e-02,-7.133051403798162937e-04,-1.270000264048576355e-02,-4.266833997235153220e-08,1.000000000000000000e+00,0.000000000000000000e+00,0.000000000000000000e+00
1.942394018173217773e+00,-7.249399185180664062e+00,1.624829101562500000e+02,1.624829101562500000e+02,9.562264312990009785e-05,8.947256469726562500e+01,-2.349853515625000000e-03,9.651715799918747507e-07,5.140208259035716765e-08,5.353715270757675171e-03,3.061339157284237444e-05,1.630375436434405856e-06,1.698095798492431641e-01,-2.411023742752149701e-04,-5.043177865445613861e-03,3.593961750425478385e-08,1.000000000000000000e+00,0.000000000000000000e+00,0.000000000000000000e+00
1.942394018173217773e+00,-7.249399185180664062e+00,1.624829101562500000e+02,1.624829101562500000e+02,9.562264312990009785e-05,8.947256469726562500e+01,-2.349853515625000000e-03,9.651715799918747507e-07,5.140208259035716765e-08,5.353715270757675171e-03,3.061339157284237444e-05,1.630375436434405856e-06,1.698095798492431641e-01,-2.411023742752149701e-04,-5.043177865445613861e-03,3.593961750425478385e-08,1.000000000000000000e+00,0.000000000000000000e+00,0.000000000000000000e+00
1.942394018173217773e+00,-7.249399185180664062e+00,1.624829101562500000e+02,1.624829101562500000e+02,9.562264312990009785e-05,8.947256469726562500e+01,-2.349853515625000000e-03,9.651715799918747507e-07,5.140208259035716765e-08,5.353715270757675171e-03,3.061339157284237444e-05,1.630375436434405856e-06,1.698095798492431641e-01,-2.411023742752149701e-04,-5.043177865445613861e-03,3.593961750425478385e-08,1.000000000000000000e+00,0.000000000000000000e+00,0.000000000000000000e+00
2.006944417953491211e+00,-7.249398231506347656e+00,1.624829101562500000e+02,1.624829101562500000e+02,8.879245433490723372e-05,8.947256469726562500e+01,-2.166748046875000000e-03,1.527784547761257272e-06,5.208760711639115470e-08,-1.077482083928771317e-04,1.703718771750573069e-05,2.075922722610812343e-08,-1.653854250907897949e-01,-2.778978378046303988e-04,-6.298413034528493881e-03,8.759156955306934833e-09,1.000000000000000000e+00,0.000000000000000000e+00,0.000000000000000000e+00
2.041551589965820312e+00,-7.249396800994873047e+00,1.624829101562500000e+02,1.624829101562500000e+02,8.196226553991436958e-05,8.947256469726562500e+01,-1.953125000000000000e-03,1.879098249446542468e-06,6.286914100428475649e-08,-5.478526582010090351e-04,1.015147063299082220e-05,3.115404467735061189e-07,-1.271714549511671066e-02,-3.244605613872408867e-04,-6.672417279332876205e-03,-2.022555456449026678e-09,1.000000000000000000e+00,0.000000000000000000e+00,0.000000000000000000e+00
2.041551589965820312e+00,-7.249396800994873047e+00,1.624829101562500000e+02,1.624829101562500000e+02,8.196226553991436958e-05,8.947256469726562500e+01,-1.953125000000000000e-03,1.879098249446542468e-06,6.286914100428475649e-08,-5.478526582010090351e-04,1.015147063299082220e-05,3.115404467735061189e-07,-1.271714549511671066e-02,-3.244605613872408867e-04,-6.672417279332876205e-03,-2.022555456449026678e-09,1.000000000000000000e+00,0.000000000000000000e+00,0.000000000000000000e+00
2.041551589965820312e+00,-7.249396800994873047e+00,1.624829101562500000e+02,1.624829101562500000e+02,8.196226553991436958e-05,8.947256469726562500e+01,-1.953125000000000000e-03,1.879098249446542468e-06,6.286914100428475649e-08,-5.478526582010090351e-04,1.015147063299082220e-05,3.115404467735061189e-07,-1.271714549511671066e-02,-3.244605613872408867e-04,-6.672417279332876205e-03,-2.022555456449026678e-09,1.000000000000000000e+00,0.000000000000000000e+00,0.000000000000000000e+00
2.077179670333862305e+00,-7.249395370483398438e+00,1.624829101562500000e+02,1.624829101562500000e+02,7.513207674492150545e-05,8.947256469726562500e+01,-1.708984491415321827e-03,1.933439079948584549e-06,5.985013018516838201e-08,5.302589852362871170e-03,1.525224774923117366e-06,-8.473683976717438782e-08,1.642087548971176147e-01,-3.162102366331964731e-04,-6.398120895028114319e-03,-7.767439136330267502e-09,1.000000000000000000e+00,0.000000000000000000e+00,0.000000000000000000e+00
2.077179670333862305e+00,-7.249395370483398438e+00,1.624829101562500000e+02,1.624829101562500000e+02,7.513207674492150545e-05,8.947256469726562500e+01,-1.708984491415321827e-03,1.933439079948584549e-06,5.985013018516838201e-08,5.302589852362871170e-03,1.525224774923117366e-06,-8.473683976717438782e-08,1.642087548971176147e-01,-3.162102366331964731e-04,-6.398120895028114319e-03,-7.767439136330267502e-09,1.000000000000000000e+00,0.000000000000000000e+00,0.000000000000000000e+00
2.077179670333862305e+00,-7.249394416809082031e+00,1.624829101562500000e+02,1.624829101562500000e+02,6.830188794992864132e-05,8.947256469726562500e+01,-1.495361328125000000e-03,1.901955215544148814e-06,5.874325026411497674e-08,3.438274143263697624e-03,-9.059425565283163451e-07,-3.185026997698514606e-08,-5.364535003900527954e-02,-3.071160172112286091e-04,-6.029134150594472885e-03,-7.200901208648247120e-09,1.000000000000000000e+00,0.000000000000000000e+00,0.000000000000000000e+00
2.111932277679443359e+00,-7.249394416809082031e+00,1.624829101562500000e+02,1.624829101562500000e+02,6.830188794992864132e-05,8.947256469726562500e+01,-1.495361328125000000e-03,1.901955215544148814e-06,5.874325026411497674e-08,3.438274143263697624e-03,-9.059425565283163451e-07,-3.185026997698514606e-08,-5.364535003900527954e-02,-3.071160172112286091e-04,-6.029134150594472885e-03,-7.200901208648247120e-09,1.000000000000000000e+00,0.000000000000000000e+00,0.000000000000000000e+00
2.111932277679443359e+00,-7.249394416809082031e+00,1.624829101562500000e+02,1.624829101562500000e+02,6.830188794992864132e-05,8.947256469726562500e+01,-1.495361328125000000e-03,1.901955215544148814e-06,5.874325026411497674e-08,3.438274143263697624e-03,-9.059425565283163451e-07,-3.185026997698514606e-08,-5.364535003900527954e-02,-3.071160172112286091e-04,-6.029134150594472885e-03,-7.200901208648247120e-09,1.000000000000000000e+00,0.000000000000000000e+00,0.000000000000000000e+00
