# Time,X,Y,Z,Roll,Pitch,Yaw,Vx,Vy,Vz,Ax,Ay,Az,Wx,Wy,Wz,Throttle,Steer,Brake
0.000000000000000000e+00,-5.890529155731201172e+00,2.659794616699218750e+02,2.659794616699218750e+02,1.072339620441198349e-02,8.922963714599609375e+01,-7.177733629941940308e-02,1.124541461467742920e-01,8.118285179138183594e+00,2.566928196756634861e-05,1.271543502807617188e-01,6.136861801147460938e+00,-3.138150204904377460e-04,1.266319036483764648e+00,-5.721262469887733459e-02,-1.081899274140596390e-02,1.000000000000000000e+00,-7.453918224200606346e-04,0.000000000000000000e+00
1.045818328857421875e-01,-5.890529155731201172e+00,2.659794616699218750e+02,2.659794616699218750e+02,1.072339620441198349e-02,8.922963714599609375e+01,-7.177733629941940308e-02,1.124541461467742920e-01,8.118285179138183594e+00,2.566928196756634861e-05,1.271543502807617188e-01,6.136861801147460938e+00,-3.138150204904377460e-04,1.266319036483764648e+00,-5.721262469887733459e-02,-1.081899274140596390e-02,1.000000000000000000e+00,-7.453918224200606346e-04,0.000000000000000000e+00
1.045818328857421875e-01,-5.890529155731201172e+00,2.659794616699218750e+02,2.659794616699218750e+02,1.072339620441198349e-02,8.922963714599609375e+01,-7.177733629941940308e-02,1.124541461467742920e-01,8.118285179138183594e+00,2.566928196756634861e-05,1.271543502807617188e-01,6.136861801147460938e+00,-3.138150204904377460e-04,1.266319036483764648e+00,-5.721262469887733459e-02,-1.081899274140596390e-02,1.000000000000000000e+00,-7.453918224200606346e-04,0.000000000000000000e+00
1.045818328857421875e-01,-5.890529155731201172e+00,2.659794616699218750e+02,2.659794616699218750e+02,1.072339620441198349e-02,8.922963714599609375e+01,-7.177733629941940308e-02,1.124541461467742920e-01,8.118285179138183594e+00,2.566928196756634861e-05,1.271543502807617188e-01,6.136861801147460938e+00,-3.138150204904377460e-04,1.266319036483764648e+00,-5.721262469887733459e-02,-1.081899274140596390e-02,1.000000000000000000e+00,-7.453918224200606346e-04,0.000000000000000000e+00
1.045818328857421875e-01,-5.890529155731201172e+00,2.659794616699218750e+02,2.659794616699218750e+02,1.072339620441198349e-02,8.922963714599609375e+01,-7.177733629941940308e-02,1.124541461467742920e-01,8.118285179138183594e+00,2.566928196756634861e-05,1.271543502807617188e-01,6.136861801147460938e+00,-3.138150204904377460e-04,1.266319036483764648e+00,-5.721262469887733459e-02,-1.081899274140596390e-02,1.000000000000000000e+00,-7.453918224200606346e-04,0.000000000000000000e+00
1.045818328857421875e-01,-5.890529155731201172e+00,2.659794616699218750e+02,2.659794616699218750e+02,1.072339620441198349e-02,8.922963714599609375e+01,-7.177733629941940308e-02,1.124541461467742920e-01,8.118285179138183594e+00,2.566928196756634861e-05,1.271543502807617188e-01,6.136861801147460938e+00,-3.138150204904377460e-04,1.266319036483764648e+00,-5.721262469887733459e-02,-1.081899274140596390e-02,1.000000000000000000e+00,-7.453918224200606346e-04,0.000000000000000000e+00
1.045818328857421875e-01,-5.878505229949951172e+00,2.668354492187500000e+02,2.668354492187500000e+02,1.144534721970558167e-01,8.921980285644531250e+01,-6.838988512754440308e-02,1.265156567096710205e-01,8.858662605285644531e+00,-5.911795142310438678e-06,1.342914402484893799e-01,7.070815563201904297e+00,-3.016082919202744961e-04,8.400216102600097656e-01,-3.669502213597297668e-02,-1.382751762866973877e-01,1.000000000000000000e+00,-1.083265058696269989e-03,0.000000000000000000e+00
2.092907428741455078e-01,-5.878505229949951172e+00,2.668354492187500000e+02,2.668354492187500000e+02,1.144534721970558167e-01,8.921980285644531250e+01,-6.838988512754440308e-02,1.265156567096710205e-01,8.858662605285644531e+00,-5.911795142310438678e-06,1.342914402484893799e-01,7.070815563201904297e+00,-3.016082919202744961e-04,8.400216102600097656e-01,-3.669502213597297668e-02,-1.382751762866973877e-01,1.000000000000000000e+00,-1.083265058696269989e-03,0.000000000000000000e+00
2.092907428741455078e-01,-5.878505229949951172e+00,2.668354492187500000e+02,2.668354492187500000e+02,1.144534721970558167e-01,8.921980285644531250e+01,-6.838988512754440308e-02,1.265156567096710205e-01,8.858662605285644531e+00,-5.911795142310438678e-06,1.342914402484893799e-01,7.070815563201904297e+00,-3.016082919202744961e-04,8.400216102600097656e-01,-3.669502213597297668e-02,-1.382751762866973877e-01,1.000000000000000000e+00,-1.083265058696269989e-03,0.000000000000000000e+00
2.092907428741455078e-01,-5.878505229949951172e+00,2.668354492187500000e+02,2.668354492187500000e+02,1.144534721970558167e-01,8.921980285644531250e+01,-6.838988512754440308e-02,1.265156567096710205e-01,8.858662605285644531e+00,-5.911795142310438678e-06,1.342914402484893799e-01,7.070815563201904297e+00,-3.016082919202744961e-04,8.400216102600097656e-01,-3.669502213597297668e-02,-1.382751762866973877e-01,1.000000000000000000e+00,-1.083265058696269989e-03,0.000000000000000000e+00
2.092907428741455078e-01,-5.878505229949951172e+00,2.668354492187500000e+02,2.668354492187500000e+02,1.144534721970558167e-01,8.921980285644531250e+01,-6.838988512754440308e-02,1.265156567096710205e-01,8.858662605285644531e+00,-5.911795142310438678e-06,1.342914402484893799e-01,7.070815563201904297e+00,-3.016082919202744961e-04,8.400216102600097656e-01,-3.669502213597297668e-02,-1.382751762866973877e-01,1.000000000000000000e+00,-1.083265058696269989e-03,0.000000000000000000e+00
2.092907428741455078e-01,-5.865280628204345703e+00,2.677500000000000000e+02,2.677500000000000000e+02,1.446087509393692017e-01,8.919800567626953125e+01,-6.561277806758880615e-02,1.375624686479568481e-01,9.214501380920410156e+00,-1.498926121712429449e-05,1.480437219142913818e-01,4.768769264221191406e+00,-1.216515593114309013e-04,-2.916325032711029053e-01,-1.924578659236431122e-02,-2.611679434776306152e-01,0.000000000000000000e+00,-1.564243808388710022e-03,1.000000000000000000e+00
2.839093208312988281e-01,-5.865280628204345703e+00,2.677500000000000000e+02,2.677500000000000000e+02,1.446087509393692017e-01,8.919800567626953125e+01,-6.561277806758880615e-02,1.375624686479568481e-01,9.214501380920410156e+00,-1.498926121712429449e-05,1.480437219142913818e-01,4.768769264221191406e+00,-1.216515593114309013e-04,-2.916325032711029053e-01,-1.924578659236431122e-02,-2.611679434776306152e-01,0.000000000000000000e+00,-1.564243808388710022e-03,1.000000000000000000e+00
2.839093208312988281e-01,-5.865280628204345703e+00,2.677500000000000000e+02,2.677500000000000000e+02,1.446087509393692017e-01,8.919800567626953125e+01,-6.561277806758880615e-02,1.375624686479568481e-01,9.214501380920410156e+00,-1.498926121712429449e-05,1.480437219142913818e-01,4.768769264221191406e+00,-1.216515593114309013e-04,-2.916325032711029053e-01,-1.924578659236431122e-02,-2.611679434776306152e-01,0.000000000000000000e+00,-1.564243808388710022e-03,1.000000000000000000e+00
2.839093208312988281e-01,-5.865280628204345703e+00,2.677500000000000000e+02,2.677500000000000000e+02,1.446087509393692017e-01,8.919800567626953125e+01,-6.561277806758880615e-02,1.375624686479568481e-01,9.214501380920410156e+00,-1.498926121712429449e-05,1.480437219142913818e-01,4.768769264221191406e+00,-1.216515593114309013e-04,-2.916325032711029053e-01,-1.924578659236431122e-02,-2.611679434776306152e-01,0.000000000000000000e+00,-1.564243808388710022e-03,1.000000000000000000e+00
2.839093208312988281e-01,-5.865280628204345703e+00,2.677500000000000000e+02,2.677500000000000000e+02,1.446087509393692017e-01,8.919800567626953125e+01,-6.561277806758880615e-02,1.375624686479568481e-01,9.214501380920410156e+00,-1.498926121712429449e-05,1.480437219142913818e-01,4.768769264221191406e+00,-1.216515593114309013e-04,-2.916325032711029053e-01,-1.924578659236431122e-02,-2.611679434776306152e-01,0.000000000000000000e+00,-1.564243808388710022e-03,1.000000000000000000e+00
3.569011688232421875e-01,-5.855469226837158203e+00,2.684139404296875000e+02,2.684139404296875000e+02,4.871290549635887146e-02,8.917597961425781250e+01,-6.433104723691940308e-02,1.310066431760787964e-01,8.598904609680175781e+00,1.029814484354574233e-06,-8.981585502624511719e-02,-8.433773994445800781e+00,2.194638946093618870e-04,-1.946616768836975098e+00,1.210893783718347549e-02,-3.167527019977569580e-01,0.000000000000000000e+00,-1.471819239668548107e-03,1.000000000000000000e+00
3.569011688232421875e-01,-5.855469226837158203e+00,2.684139404296875000e+02,2.684139404296875000e+02,4.871290549635887146e-02,8.917597961425781250e+01,-6.433104723691940308e-02,1.310066431760787964e-01,8.598904609680175781e+00,1.029814484354574233e-06,-8.981585502624511719e-02,-8.433773994445800781e+00,2.194638946093618870e-04,-1.946616768836975098e+00,1.210893783718347549e-02,-3.167527019977569580e-01,0.000000000000000000e+00,-1.471819239668548107e-03,1.000000000000000000e+00
3.569011688232421875e-01,-5.855469226837158203e+00,2.684139404296875000e+02,2.684139404296875000e+02,4.871290549635887146e-02,8.917597961425781250e+01,-6.433104723691940308e-02,1.310066431760787964e-01,8.598904609680175781e+00,1.029814484354574233e-06,-8.981585502624511719e-02,-8.433773994445800781e+00,2.194638946093618870e-04,-1.946616768836975098e+00,1.210893783718347549e-02,-3.167527019977569580e-01,0.000000000000000000e+00,-1.471819239668548107e-03,1.000000000000000000e+00
3.569011688232421875e-01,-5.855469226837158203e+00,2.684139404296875000e+02,2.684139404296875000e+02,4.871290549635887146e-02,8.917597961425781250e+01,-6.433104723691940308e-02,1.310066431760787964e-01,8.598904609680175781e+00,1.029814484354574233e-06,-8.981585502624511719e-02,-8.433773994445800781e+00,2.194638946093618870e-04,-1.946616768836975098e+00,1.210893783718347549e-02,-3.167527019977569580e-01,0.000000000000000000e+00,-1.471819239668548107e-03,1.000000000000000000e+00
4.765405654907226562e-01,-5.846784591674804688e+00,2.689970397949218750e+02,2.689970397949218750e+02,-1.339058578014373779e-01,8.915219116210937500e+01,-6.344603747129440308e-02,1.168075352907180786e-01,7.588498592376708984e+00,-5.606786544376518577e-06,-1.186825484037399292e-01,-8.445428848266601562e+00,-5.547170439967885613e-05,-2.733745813369750977e+00,2.711835876107215881e-02,-3.350172340869903564e-01,0.000000000000000000e+00,-1.208169152960181236e-03,1.000000000000000000e+00
4.765405654907226562e-01,-5.846784591674804688e+00,2.689970397949218750e+02,2.689970397949218750e+02,-1.339058578014373779e-01,8.915219116210937500e+01,-6.344603747129440308e-02,1.168075352907180786e-01,7.588498592376708984e+00,-5.606786544376518577e-06,-1.186825484037399292e-01,-8.445428848266601562e+00,-5.547170439967885613e-05,-2.733745813369750977e+00,2.711835876107215881e-02,-3.350172340869903564e-01,0.000000000000000000e+00,-1.208169152960181236e-03,1.000000000000000000e+00
4.765405654907226562e-01,-5.846784591674804688e+00,2.689970397949218750e+02,2.689970397949218750e+02,-1.339058578014373779e-01,8.915219116210937500e+01,-6.344603747129440308e-02,1.168075352907180786e-01,7.588498592376708984e+00,-5.606786544376518577e-06,-1.186825484037399292e-01,-8.445428848266601562e+00,-5.547170439967885613e-05,-2.733745813369750977e+00,2.711835876107215881e-02,-3.350172340869903564e-01,0.000000000000000000e+00,-1.208169152960181236e-03,1.000000000000000000e+00
4.765405654907226562e-01,-5.846784591674804688e+00,2.689970397949218750e+02,2.689970397949218750e+02,-1.339058578014373779e-01,8.915219116210937500e+01,-6.344603747129440308e-02,1.168075352907180786e-01,7.588498592376708984e+00,-5.606786544376518577e-06,-1.186825484037399292e-01,-8.445428848266601562e+00,-5.547170439967885613e-05,-2.733745813369750977e+00,2.711835876107215881e-02,-3.350172340869903564e-01,0.000000000000000000e+00,-1.208169152960181236e-03,1.000000000000000000e+00
4.765405654907226562e-01,-5.846784591674804688e+00,2.689970397949218750e+02,2.689970397949218750e+02,-1.339058578014373779e-01,8.915219116210937500e+01,-6.344603747129440308e-02,1.168075352907180786e-01,7.588498592376708984e+00,-5.606786544376518577e-06,-1.186825484037399292e-01,-8.445428848266601562e+00,-5.547170439967885613e-05,-2.733745813369750977e+00,2.711835876107215881e-02,-3.350172340869903564e-01,0.000000000000000000e+00,-1.208169152960181236e-03,1.000000000000000000e+00
4.765405654907226562e-01,-5.846784591674804688e+00,2.689970397949218750e+02,2.689970397949218750e+02,-1.339058578014373779e-01,8.915219116210937500e+01,-6.344603747129440308e-02,1.168075352907180786e-01,7.588498592376708984e+00,-5.606786544376518577e-06,-1.186825484037399292e-01,-8.445428848266601562e+00,-5.547170439967885613e-05,-2.733745813369750977e+00,2.711835876107215881e-02,-3.350172340869903564e-01,0.000000000000000000e+00,-1.208169152960181236e-03,1.000000000000000000e+00
4.765405654907226562e-01,-5.846784591674804688e+00,2.689970397949218750e+02,2.689970397949218750e+02,-1.339058578014373779e-01,8.915219116210937500e+01,-6.344603747129440308e-02,1.168075352907180786e-01,7.588498592376708984e+00,-5.606786544376518577e-06,-1.186825484037399292e-01,-8.445428848266601562e+00,-5.547170439967885613e-05,-2.733745813369750977e+00,2.711835876107215881e-02,-3.350172340869903564e-01,0.000000000000000000e+00,-1.208169152960181236e-03,1.000000000000000000e+00
6.200885772705078125e-01,-5.836631774902343750e+00,2.696747741699218750e+02,2.696747741699218750e+02,-3.873263597488403320e-01,8.911998748779296875e+01,-6.222533434629440308e-02,9.880986064672470093e-02,6.328577041625976562e+00,-7.097968045854941010e-05,-1.253773868083953857e-01,-8.777005195617675781e+00,-4.554078623186796904e-04,-1.985771894454956055e+00,1.564619876444339752e-02,-3.129603266716003418e-01,1.000000000000000000e+00,-8.899144013412296772e-04,0.000000000000000000e+00
6.200885772705078125e-01,-5.836631774902343750e+00,2.696747741699218750e+02,2.696747741699218750e+02,-3.873263597488403320e-01,8.911998748779296875e+01,-6.222533434629440308e-02,9.880986064672470093e-02,6.328577041625976562e+00,-7.097968045854941010e-05,-1.253773868083953857e-01,-8.777005195617675781e+00,-4.554078623186796904e-04,-1.985771894454956055e+00,1.564619876444339752e-02,-3.129603266716003418e-01,1.000000000000000000e+00,-8.899144013412296772e-04,0.000000000000000000e+00
6.200885772705078125e-01,-5.836631774902343750e+00,2.696747741699218750e+02,2.696747741699218750e+02,-3.873263597488403320e-01,8.911998748779296875e+01,-6.222533434629440308e-02,9.880986064672470093e-02,6.328577041625976562e+00,-7.097968045854941010e-05,-1.253773868083953857e-01,-8.777005195617675781e+00,-4.554078623186796904e-04,-1.985771894454956055e+00,1.564619876444339752e-02,-3.129603266716003418e-01,1.000000000000000000e+00,-8.899144013412296772e-04,0.000000000000000000e+00
6.200885772705078125e-01,-5.836631774902343750e+00,2.696747741699218750e+02,2.696747741699218750e+02,-3.873263597488403320e-01,8.911998748779296875e+01,-6.222533434629440308e-02,9.880986064672470093e-02,6.328577041625976562e+00,-7.097968045854941010e-05,-1.253773868083953857e-01,-8.777005195617675781e+00,-4.554078623186796904e-04,-1.985771894454956055e+00,1.564619876444339752e-02,-3.129603266716003418e-01,1.000000000000000000e+00,-8.899144013412296772e-04,0.000000000000000000e+00
6.200885772705078125e-01,-5.836631774902343750e+00,2.696747741699218750e+02,2.696747741699218750e+02,-3.873263597488403320e-01,8.911998748779296875e+01,-6.222533434629440308e-02,9.880986064672470093e-02,6.328577041625976562e+00,-7.097968045854941010e-05,-1.253773868083953857e-01,-8.777005195617675781e+00,-4.554078623186796904e-04,-1.985771894454956055e+00,1.564619876444339752e-02,-3.129603266716003418e-01,1.000000000000000000e+00,-8.899144013412296772e-04,0.000000000000000000e+00
6.200885772705078125e-01,-5.836631774902343750e+00,2.696747741699218750e+02,2.696747741699218750e+02,-3.873263597488403320e-01,8.911998748779296875e+01,-6.222533434629440308e-02,9.880986064672470093e-02,6.328577041625976562e+00,-7.097968045854941010e-05,-1.253773868083953857e-01,-8.777005195617675781e+00,-4.554078623186796904e-04,-1.985771894454956055e+00,1.564619876444339752e-02,-3.129603266716003418e-01,1.000000000000000000e+00,-8.899144013412296772e-04,0.000000000000000000e+00
7.946169376373291016e-01,-5.826717853546142578e+00,2.703141479492187500e+02,2.703141479492187500e+02,-4.111910164356231689e-01,8.910445404052734375e+01,-6.140135601162910461e-02,1.022386178374290466e-01,6.445205688476562500e+00,-2.639330705278553069e-05,1.964584551751613617e-02,6.682503819465637207e-01,2.554677776060998440e-04,4.788373708724975586e-01,-1.009383425116539001e-02,-1.000363975763320923e-01,1.000000000000000000e+00,-4.113333707209676504e-04,0.000000000000000000e+00
7.946169376373291016e-01,-5.826717853546142578e+00,2.703141479492187500e+02,2.703141479492187500e+02,-4.111910164356231689e-01,8.910445404052734375e+01,-6.140135601162910461e-02,1.022386178374290466e-01,6.445205688476562500e+00,-2.639330705278553069e-05,1.964584551751613617e-02,6.682503819465637207e-01,2.554677776060998440e-04,4.788373708724975586e-01,-1.009383425116539001e-02,-1.000363975763320923e-01,1.000000000000000000e+00,-4.113333707209676504e-04,0.000000000000000000e+00
7.946169376373291016e-01,-5.826717853546142578e+00,2.703141479492187500e+02,2.703141479492187500e+02,-4.111910164356231689e-01,8.910445404052734375e+01,-6.140135601162910461e-02,1.022386178374290466e-01,6.445205688476562500e+00,-2.639330705278553069e-05,1.964584551751613617e-02,6.682503819465637207e-01,2.554677776060998440e-04,4.788373708724975586e-01,-1.009383425116539001e-02,-1.000363975763320923e-01,1.000000000000000000e+00,-4.113333707209676504e-04,0.000000000000000000e+00
8.783230781555175781e-01,-5.816563129425048828e+00,2.709601745605468750e+02,2.709601745605468750e+02,-3.394467234611511230e-01,8.909931945800781250e+01,-6.192015856504440308e-02,1.017562970519065857e-01,6.434595584869384766e+00,3.339210525155067444e-05,-5.762071814388036728e-03,-1.267541944980621338e-01,7.142297108657658100e-04,6.940581202507019043e-01,-5.507274065166711807e-03,-3.420181944966316223e-02,1.000000000000000000e+00,-1.258850097656250000e-04,0.000000000000000000e+00
8.783230781555175781e-01,-5.816563129425048828e+00,2.709601745605468750e+02,2.709601745605468750e+02,-3.394467234611511230e-01,8.909931945800781250e+01,-6.192015856504440308e-02,1.017562970519065857e-01,6.434595584869384766e+00,3.339210525155067444e-05,-5.762071814388036728e-03,-1.267541944980621338e-01,7.142297108657658100e-04,6.940581202507019043e-01,-5.507274065166711807e-03,-3.420181944966316223e-02,1.000000000000000000e+00,-1.258850097656250000e-04,0.000000000000000000e+00
8.783230781555175781e-01,-5.816563129425048828e+00,2.709601745605468750e+02,2.709601745605468750e+02,-3.394467234611511230e-01,8.909931945800781250e+01,-6.192015856504440308e-02,1.017562970519065857e-01,6.434595584869384766e+00,3.339210525155067444e-05,-5.762071814388036728e-03,-1.267541944980621338e-01,7.142297108657658100e-04,6.940581202507019043e-01,-5.507274065166711807e-03,-3.420181944966316223e-02,1.000000000000000000e+00,-1.258850097656250000e-04,0.000000000000000000e+00
9.483780860900878906e-01,-5.808053493499755859e+00,2.715004577636718750e+02,2.715004577636718750e+02,-2.820184826850891113e-01,8.909786987304687500e+01,-6.240844354033470154e-02,1.016258150339126587e-01,6.440110206604003906e+00,3.772208947339095175e-05,-1.862565171904861927e-03,7.871845364570617676e-02,6.180835043778643012e-05,6.145873665809631348e-01,-4.575118888169527054e-03,-1.122840214520692825e-02,1.000000000000000000e+00,-2.920968108810484409e-05,0.000000000000000000e+00
9.483780860900878906e-01,-5.808053493499755859e+00,2.715004577636718750e+02,2.715004577636718750e+02,-2.820184826850891113e-01,8.909786987304687500e+01,-6.240844354033470154e-02,1.016258150339126587e-01,6.440110206604003906e+00,3.772208947339095175e-05,-1.862565171904861927e-03,7.871845364570617676e-02,6.180835043778643012e-05,6.145873665809631348e-01,-4.575118888169527054e-03,-1.122840214520692825e-02,1.000000000000000000e+00,-2.920968108810484409e-05,0.000000000000000000e+00
9.483780860900878906e-01,-5.808053493499755859e+00,2.715004577636718750e+02,2.715004577636718750e+02,-2.820184826850891113e-01,8.909786987304687500e+01,-6.240844354033470154e-02,1.016258150339126587e-01,6.440110206604003906e+00,3.772208947339095175e-05,-1.862565171904861927e-03,7.871845364570617676e-02,6.180835043778643012e-05,6.145873665809631348e-01,-4.575118888169527054e-03,-1.122840214520692825e-02,1.000000000000000000e+00,-2.920968108810484409e-05,0.000000000000000000e+00
9.483780860900878906e-01,-5.808053493499755859e+00,2.715004577636718750e+02,2.715004577636718750e+02,-2.820184826850891113e-01,8.909786987304687500e+01,-6.240844354033470154e-02,1.016258150339126587e-01,6.440110206604003906e+00,3.772208947339095175e-05,-1.862565171904861927e-03,7.871845364570617676e-02,6.180835043778643012e-05,6.145873665809631348e-01,-4.575118888169527054e-03,-1.122840214520692825e-02,1.000000000000000000e+00,-2.920968108810484409e-05,0.000000000000000000e+00
9.483780860900878906e-01,-5.800940036773681641e+00,2.719520263671875000e+02,2.719520263671875000e+02,-2.429156601428985596e-01,8.909750366210937500e+01,-6.274411827325820923e-02,1.015550494194030762e-01,6.443159103393554688e+00,2.920695078501012176e-05,-8.980520651675760746e-04,3.869206830859184265e-02,-1.080614892998710275e-04,5.189534425735473633e-01,-4.165275953710079193e-03,-2.043419284746050835e-03,1.000000000000000000e+00,4.032679953525075689e-06,0.000000000000000000e+00
1.027177095413208008e+00,-5.800940036773681641e+00,2.719520263671875000e+02,2.719520263671875000e+02,-2.429156601428985596e-01,8.909750366210937500e+01,-6.274411827325820923e-02,1.015550494194030762e-01,6.443159103393554688e+00,2.920695078501012176e-05,-8.980520651675760746e-04,3.869206830859184265e-02,-1.080614892998710275e-04,5.189534425735473633e-01,-4.165275953710079193e-03,-2.043419284746050835e-03,1.000000000000000000e+00,4.032679953525075689e-06,0.000000000000000000e+00
1.027177095413208008e+00,-5.800940036773681641e+00,2.719520263671875000e+02,2.719520263671875000e+02,-2.429156601428985596e-01,8.909750366210937500e+01,-6.274411827325820923e-02,1.015550494194030762e-01,6.443159103393554688e+00,2.920695078501012176e-05,-8.980520651675760746e-04,3.869206830859184265e-02,-1.080614892998710275e-04,5.189534425735473633e-01,-4.165275953710079193e-03,-2.043419284746050835e-03,1.000000000000000000e+00,4.032679953525075689e-06,0.000000000000000000e+00
1.095043420791625977e+00,-5.792958259582519531e+00,2.724588317871093750e+02,2.724588317871093750e+02,-2.101717442274093628e-01,8.909754180908203125e+01,-6.301877647638320923e-02,1.010148227214813232e-01,6.413750648498535156e+00,1.861278906289953738e-05,-7.960158400237560272e-03,-4.333291053771972656e-01,-1.561033568577840924e-04,3.250778615474700928e-01,-2.197455614805221558e-03,1.259368145838379860e-04,1.000000000000000000e+00,1.602172778802923858e-05,0.000000000000000000e+00
1.095043420791625977e+00,-5.792958259582519531e+00,2.724588317871093750e+02,2.724588317871093750e+02,-2.101717442274093628e-01,8.909754180908203125e+01,-6.301877647638320923e-02,1.010148227214813232e-01,6.413750648498535156e+00,1.861278906289953738e-05,-7.960158400237560272e-03,-4.333291053771972656e-01,-1.561033568577840924e-04,3.250778615474700928e-01,-2.197455614805221558e-03,1.259368145838379860e-04,1.000000000000000000e+00,1.602172778802923858e-05,0.000000000000000000e+00
1.095043420791625977e+00,-5.792958259582519531e+00,2.724588317871093750e+02,2.724588317871093750e+02,-2.101717442274093628e-01,8.909754180908203125e+01,-6.301877647638320923e-02,1.010148227214813232e-01,6.413750648498535156e+00,1.861278906289953738e-05,-7.960158400237560272e-03,-4.333291053771972656e-01,-1.561033568577840924e-04,3.250778615474700928e-01,-2.197455614805221558e-03,1.259368145838379860e-04,1.000000000000000000e+00,1.602172778802923858e-05,0.000000000000000000e+00
1.095043420791625977e+00,-5.792958259582519531e+00,2.724588317871093750e+02,2.724588317871093750e+02,-2.101717442274093628e-01,8.909754180908203125e+01,-6.301877647638320923e-02,1.010148227214813232e-01,6.413750648498535156e+00,1.861278906289953738e-05,-7.960158400237560272e-03,-4.333291053771972656e-01,-1.561033568577840924e-04,3.250778615474700928e-01,-2.197455614805221558e-03,1.259368145838379860e-04,1.000000000000000000e+00,1.602172778802923858e-05,0.000000000000000000e+00
1.168572425842285156e+00,-5.786087512969970703e+00,2.728949279785156250e+02,2.728949279785156250e+02,-1.895718872547149658e-01,8.909755706787109375e+01,-6.314086169004440308e-02,1.012415513396263123e-01,6.425113201141357422e+00,1.125182916439371184e-05,3.083526156842708588e-03,1.545315682888031006e-01,-1.001096024992875755e-04,2.814348936080932617e-01,-2.795457374304533005e-03,6.301089888438582420e-04,1.000000000000000000e+00,-1.089913553187216166e-06,0.000000000000000000e+00
1.168572425842285156e+00,-5.786087512969970703e+00,2.728949279785156250e+02,2.728949279785156250e+02,-1.895718872547149658e-01,8.909755706787109375e+01,-6.314086169004440308e-02,1.012415513396263123e-01,6.425113201141357422e+00,1.125182916439371184e-05,3.083526156842708588e-03,1.545315682888031006e-01,-1.001096024992875755e-04,2.814348936080932617e-01,-2.795457374304533005e-03,6.301089888438582420e-04,1.000000000000000000e+00,-1.089913553187216166e-06,0.000000000000000000e+00
1.168572425842285156e+00,-5.786087512969970703e+00,2.728949279785156250e+02,2.728949279785156250e+02,-1.895718872547149658e-01,8.909755706787109375e+01,-6.314086169004440308e-02,1.012415513396263123e-01,6.425113201141357422e+00,1.125182916439371184e-05,3.083526156842708588e-03,1.545315682888031006e-01,-1.001096024992875755e-04,2.814348936080932617e-01,-2.795457374304533005e-03,6.301089888438582420e-04,1.000000000000000000e+00,-1.089913553187216166e-06,0.000000000000000000e+00
1.168572425842285156e+00,-5.786087512969970703e+00,2.728949279785156250e+02,2.728949279785156250e+02,-1.895718872547149658e-01,8.909755706787109375e+01,-6.314086169004440308e-02,1.012415513396263123e-01,6.425113201141357422e+00,1.125182916439371184e-05,3.083526156842708588e-03,1.545315682888031006e-01,-1.001096024992875755e-04,2.814348936080932617e-01,-2.795457374304533005e-03,6.301089888438582420e-04,1.000000000000000000e+00,-1.089913553187216166e-06,0.000000000000000000e+00
1.168572425842285156e+00,-5.778656959533691406e+00,2.733665771484375000e+02,2.733665771484375000e+02,-1.738897711038589478e-01,8.909754943847656250e+01,-6.326293945312500000e-02,1.008809357881546021e-01,6.401874065399169922e+00,4.901165084447711706e-06,-4.805103410035371780e-03,-3.096551299095153809e-01,-8.462085679639130831e-05,1.617662757635116577e-01,-1.225541229359805584e-03,-9.459482389502227306e-04,1.000000000000000000e+00,-1.525878928987367544e-06,0.000000000000000000e+00
1.243620872497558594e+00,-5.778656959533691406e+00,2.733665771484375000e+02,2.733665771484375000e+02,-1.738897711038589478e-01,8.909754943847656250e+01,-6.326293945312500000e-02,1.008809357881546021e-01,6.401874065399169922e+00,4.901165084447711706e-06,-4.805103410035371780e-03,-3.096551299095153809e-01,-8.462085679639130831e-05,1.617662757635116577e-01,-1.225541229359805584e-03,-9.459482389502227306e-04,1.000000000000000000e+00,-1.525878928987367544e-06,0.000000000000000000e+00
1.243620872497558594e+00,-5.778656959533691406e+00,2.733665771484375000e+02,2.733665771484375000e+02,-1.738897711038589478e-01,8.909754943847656250e+01,-6.326293945312500000e-02,1.008809357881546021e-01,6.401874065399169922e+00,4.901165084447711706e-06,-4.805103410035371780e-03,-3.096551299095153809e-01,-8.462085679639130831e-05,1.617662757635116577e-01,-1.225541229359805584e-03,-9.459482389502227306e-04,1.000000000000000000e+00,-1.525878928987367544e-06,0.000000000000000000e+00
1.243620872497558594e+00,-5.778656959533691406e+00,2.733665771484375000e+02,2.733665771484375000e+02,-1.738897711038589478e-01,8.909754943847656250e+01,-6.326293945312500000e-02,1.008809357881546021e-01,6.401874065399169922e+00,4.901165084447711706e-06,-4.805103410035371780e-03,-3.096551299095153809e-01,-8.462085679639130831e-05,1.617662757635116577e-01,-1.225541229359805584e-03,-9.459482389502227306e-04,1.000000000000000000e+00,-1.525878928987367544e-06,0.000000000000000000e+00
1.312042951583862305e+00,-5.771119117736816406e+00,2.738450927734375000e+02,2.738450927734375000e+02,-1.667180806398391724e-01,8.909739685058593750e+01,-6.332394480705261230e-02,1.004117950797080994e-01,6.371737480163574219e+00,1.516114593869133387e-06,-6.856569088995456696e-03,-4.404511749744415283e-01,-4.947307388647459447e-05,1.090511679649353027e-01,-1.037348643876612186e-03,-8.674157434143126011e-04,1.000000000000000000e+00,-1.416887585037329700e-06,0.000000000000000000e+00
1.312042951583862305e+00,-5.771119117736816406e+00,2.738450927734375000e+02,2.738450927734375000e+02,-1.667180806398391724e-01,8.909739685058593750e+01,-6.332394480705261230e-02,1.004117950797080994e-01,6.371737480163574219e+00,1.516114593869133387e-06,-6.856569088995456696e-03,-4.404511749744415283e-01,-4.947307388647459447e-05,1.090511679649353027e-01,-1.037348643876612186e-03,-8.674157434143126011e-04,1.000000000000000000e+00,-1.416887585037329700e-06,0.000000000000000000e+00
1.383129358291625977e+00,-5.764083862304687500e+00,2.742913208007812500e+02,2.742913208007812500e+02,-1.388167589902877808e-01,8.909794616699218750e+01,-6.341551989316940308e-02,1.045193970203399658e-01,6.634562969207763672e+00,3.184836259606527165e-06,5.778322368860244751e-02,3.697267770767211914e+00,2.347455301787704229e-05,5.900742411613464355e-01,-7.596101146191358566e-03,1.238307356834411621e-02,1.000000000000000000e+00,2.070835762424394488e-06,0.000000000000000000e+00
1.383129358291625977e+00,-5.764083862304687500e+00,2.742913208007812500e+02,2.742913208007812500e+02,-1.388167589902877808e-01,8.909794616699218750e+01,-6.341551989316940308e-02,1.045193970203399658e-01,6.634562969207763672e+00,3.184836259606527165e-06,5.778322368860244751e-02,3.697267770767211914e+00,2.347455301787704229e-05,5.900742411613464355e-01,-7.596101146191358566e-03,1.238307356834411621e-02,1.000000000000000000e+00,2.070835762424394488e-06,0.000000000000000000e+00
1.383129358291625977e+00,-5.764083862304687500e+00,2.742913208007812500e+02,2.742913208007812500e+02,-1.388167589902877808e-01,8.909794616699218750e+01,-6.341551989316940308e-02,1.045193970203399658e-01,6.634562969207763672e+00,3.184836259606527165e-06,5.778322368860244751e-02,3.697267770767211914e+00,2.347455301787704229e-05,5.900742411613464355e-01,-7.596101146191358566e-03,1.238307356834411621e-02,1.000000000000000000e+00,2.070835762424394488e-06,0.000000000000000000e+00
1.450951814651489258e+00,-5.756408691406250000e+00,2.747778320312500000e+02,2.747778320312500000e+02,-8.623796701431274414e-02,8.909905242919921875e+01,-6.356808543205261230e-02,1.100056990981101990e-01,6.983798503875732422e+00,6.751054115738952532e-06,8.089211583137512207e-02,5.149260997772216797e+00,5.258166856947354972e-05,8.029938936233520508e-01,-9.597567841410636902e-03,1.801472157239913940e-02,1.000000000000000000e+00,-1.656668609939515591e-05,0.000000000000000000e+00
1.450951814651489258e+00,-5.756408691406250000e+00,2.747778320312500000e+02,2.747778320312500000e+02,-8.623796701431274414e-02,8.909905242919921875e+01,-6.356808543205261230e-02,1.100056990981101990e-01,6.983798503875732422e+00,6.751054115738952532e-06,8.089211583137512207e-02,5.149260997772216797e+00,5.258166856947354972e-05,8.029938936233520508e-01,-9.597567841410636902e-03,1.801472157239913940e-02,1.000000000000000000e+00,-1.656668609939515591e-05,0.000000000000000000e+00
1.450951814651489258e+00,-5.756408691406250000e+00,2.747778320312500000e+02,2.747778320312500000e+02,-8.623796701431274414e-02,8.909905242919921875e+01,-6.356808543205261230e-02,1.100056990981101990e-01,6.983798503875732422e+00,6.751054115738952532e-06,8.089211583137512207e-02,5.149260997772216797e+00,5.258166856947354972e-05,8.029938936233520508e-01,-9.597567841410636902e-03,1.801472157239913940e-02,1.000000000000000000e+00,-1.656668609939515591e-05,0.000000000000000000e+00
1.527701377868652344e+00,-5.748679161071777344e+00,2.752678527832031250e+02,2.752678527832031250e+02,-2.911709435284137726e-02,8.910034179687500000e+01,-6.381224095821380615e-02,1.161391437053680420e-01,7.375917911529541016e+00,5.311245331540703773e-06,7.991504669189453125e-02,5.109076976776123047e+00,-1.875983070931397378e-05,8.446624279022216797e-01,-9.623554535210132599e-03,1.962589658796787262e-02,1.000000000000000000e+00,-3.694806946441531181e-05,0.000000000000000000e+00
1.527701377868652344e+00,-5.748679161071777344e+00,2.752678527832031250e+02,2.752678527832031250e+02,-2.911709435284137726e-02,8.910034179687500000e+01,-6.381224095821380615e-02,1.161391437053680420e-01,7.375917911529541016e+00,5.311245331540703773e-06,7.991504669189453125e-02,5.109076976776123047e+00,-1.875983070931397378e-05,8.446624279022216797e-01,-9.623554535210132599e-03,1.962589658796787262e-02,1.000000000000000000e+00,-3.694806946441531181e-05,0.000000000000000000e+00
1.527701377868652344e+00,-5.748679161071777344e+00,2.752678527832031250e+02,2.752678527832031250e+02,-2.911709435284137726e-02,8.910034179687500000e+01,-6.381224095821380615e-02,1.161391437053680420e-01,7.375917911529541016e+00,5.311245331540703773e-06,7.991504669189453125e-02,5.109076976776123047e+00,-1.875983070931397378e-05,8.446624279022216797e-01,-9.623554535210132599e-03,1.962589658796787262e-02,1.000000000000000000e+00,-3.694806946441531181e-05,0.000000000000000000e+00
1.600134611129760742e+00,-5.739420413970947266e+00,2.758550415039062500e+02,2.758550415039062500e+02,3.176720812916755676e-02,8.910177612304687500e+01,-6.405638158321380615e-02,1.231864541769027710e-01,7.826237201690673828e+00,-2.479172565017506713e-07,9.729388356208801270e-02,6.217025756835937500e+00,-7.674878725083544850e-05,7.320258617401123047e-01,-7.928447797894477844e-03,1.813050359487533569e-02,1.000000000000000000e+00,-6.256103370105847716e-05,0.000000000000000000e+00
1.600134611129760742e+00,-5.739420413970947266e+00,2.758550415039062500e+02,2.758550415039062500e+02,3.176720812916755676e-02,8.910177612304687500e+01,-6.405638158321380615e-02,1.231864541769027710e-01,7.826237201690673828e+00,-2.479172565017506713e-07,9.729388356208801270e-02,6.217025756835937500e+00,-7.674878725083544850e-05,7.320258617401123047e-01,-7.928447797894477844e-03,1.813050359487533569e-02,1.000000000000000000e+00,-6.256103370105847716e-05,0.000000000000000000e+00
1.600134611129760742e+00,-5.739420413970947266e+00,2.758550415039062500e+02,2.758550415039062500e+02,3.176720812916755676e-02,8.910177612304687500e+01,-6.405638158321380615e-02,1.231864541769027710e-01,7.826237201690673828e+00,-2.479172565017506713e-07,9.729388356208801270e-02,6.217025756835937500e+00,-7.674878725083544850e-05,7.320258617401123047e-01,-7.928447797894477844e-03,1.813050359487533569e-02,1.000000000000000000e+00,-6.256103370105847716e-05,0.000000000000000000e+00
1.600134611129760742e+00,-5.739420413970947266e+00,2.758550415039062500e+02,2.758550415039062500e+02,3.176720812916755676e-02,8.910177612304687500e+01,-6.405638158321380615e-02,1.231864541769027710e-01,7.826237201690673828e+00,-2.479172565017506713e-07,9.729388356208801270e-02,6.217025756835937500e+00,-7.674878725083544850e-05,7.320258617401123047e-01,-7.928447797894477844e-03,1.813050359487533569e-02,1.000000000000000000e+00,-6.256103370105847716e-05,0.000000000000000000e+00
1.600134611129760742e+00,-5.739420413970947266e+00,2.758550415039062500e+02,2.758550415039062500e+02,3.176720812916755676e-02,8.910177612304687500e+01,-6.405638158321380615e-02,1.231864541769027710e-01,7.826237201690673828e+00,-2.479172565017506713e-07,9.729388356208801270e-02,6.217025756835937500e+00,-7.674878725083544850e-05,7.320258617401123047e-01,-7.928447797894477844e-03,1.813050359487533569e-02,1.000000000000000000e+00,-6.256103370105847716e-05,0.000000000000000000e+00
1.600134611129760742e+00,-5.730179309844970703e+00,2.764413757324218750e+02,2.764413757324218750e+02,7.823298126459121704e-02,8.910289764404296875e+01,-6.427000463008880615e-02,1.301255971193313599e-01,8.266558647155761719e+00,-7.180127340689068660e-06,6.014223769307136536e-02,3.816309452056884766e+00,-6.008215132169425488e-05,5.835256576538085938e-01,-6.464065052568912506e-03,1.443101465702056885e-02,1.000000000000000000e+00,-9.602138015907257795e-05,0.000000000000000000e+00
1.715513467788696289e+00,-5.730179309844970703e+00,2.764413757324218750e+02,2.764413757324218750e+02,7.823298126459121704e-02,8.910289764404296875e+01,-6.427000463008880615e-02,1.301255971193313599e-01,8.266558647155761719e+00,-7.180127340689068660e-06,6.014223769307136536e-02,3.816309452056884766e+00,-6.008215132169425488e-05,5.835256576538085938e-01,-6.464065052568912506e-03,1.443101465702056885e-02,1.000000000000000000e+00,-9.602138015907257795e-05,0.000000000000000000e+00
1.715513467788696289e+00,-5.730179309844970703e+00,2.764413757324218750e+02,2.764413757324218750e+02,7.823298126459121704e-02,8.910289764404296875e+01,-6.427000463008880615e-02,1.301255971193313599e-01,8.266558647155761719e+00,-7.180127340689068660e-06,6.014223769307136536e-02,3.816309452056884766e+00,-6.008215132169425488e-05,5.835256576538085938e-01,-6.464065052568912506e-03,1.443101465702056885e-02,1.000000000000000000e+00,-9.602138015907257795e-05,0.000000000000000000e+00
1.715513467788696289e+00,-5.716590881347656250e+00,2.773040771484375000e+02,2.773040771484375000e+02,1.260579675436019897e-01,8.910409545898437500e+01,-6.448363512754440308e-02,1.397196948528289795e-01,8.880093574523925781e+00,-1.098449683922808617e-05,9.829851984977722168e-02,6.286112308502197266e+00,-3.897853821399621665e-05,3.983230590820312500e-01,-4.207950551062822342e-03,1.108676381409168243e-02,1.000000000000000000e+00,-1.135689890361391008e-04,0.000000000000000000e+00
1.813115119934082031e+00,-5.716590881347656250e+00,2.773040771484375000e+02,2.773040771484375000e+02,1.260579675436019897e-01,8.910409545898437500e+01,-6.448363512754440308e-02,1.397196948528289795e-01,8.880093574523925781e+00,-1.098449683922808617e-05,9.829851984977722168e-02,6.286112308502197266e+00,-3.897853821399621665e-05,3.983230590820312500e-01,-4.207950551062822342e-03,1.108676381409168243e-02,1.000000000000000000e+00,-1.135689890361391008e-04,0.000000000000000000e+00
1.813115119934082031e+00,-5.716590881347656250e+00,2.773040771484375000e+02,2.773040771484375000e+02,1.260579675436019897e-01,8.910409545898437500e+01,-6.448363512754440308e-02,1.397196948528289795e-01,8.880093574523925781e+00,-1.098449683922808617e-05,9.829851984977722168e-02,6.286112308502197266e+00,-3.897853821399621665e-05,3.983230590820312500e-01,-4.207950551062822342e-03,1.108676381409168243e-02,1.000000000000000000e+00,-1.135689890361391008e-04,0.000000000000000000e+00
1.813115119934082031e+00,-5.716590881347656250e+00,2.773040771484375000e+02,2.773040771484375000e+02,1.260579675436019897e-01,8.910409545898437500e+01,-6.448363512754440308e-02,1.397196948528289795e-01,8.880093574523925781e+00,-1.098449683922808617e-05,9.829851984977722168e-02,6.286112308502197266e+00,-3.897853821399621665e-05,3.983230590820312500e-01,-4.207950551062822342e-03,1.108676381409168243e-02,1.000000000000000000e+00,-1.135689890361391008e-04,0.000000000000000000e+00
1.896134853363037109e+00,-5.702438831329345703e+00,2.782027282714843750e+02,2.782027282714843750e+02,1.508378833532333374e-01,8.910470581054687500e+01,-6.460569053888320923e-02,1.480946242809295654e-01,9.407802581787109375e+00,-1.144223006122047082e-05,1.008787825703620911e-01,6.356428623199462891e+00,-5.513547421287512407e-06,1.051763221621513367e-01,-7.962206145748496056e-04,2.428986830636858940e-03,5.000000000000000000e-01,-1.485552056692540646e-04,0.000000000000000000e+00
1.896134853363037109e+00,-5.702438831329345703e+00,2.782027282714843750e+02,2.782027282714843750e+02,1.508378833532333374e-01,8.910470581054687500e+01,-6.460569053888320923e-02,1.480946242809295654e-01,9.407802581787109375e+00,-1.144223006122047082e-05,1.008787825703620911e-01,6.356428623199462891e+00,-5.513547421287512407e-06,1.051763221621513367e-01,-7.962206145748496056e-04,2.428986830636858940e-03,5.000000000000000000e-01,-1.485552056692540646e-04,0.000000000000000000e+00
1.896134853363037109e+00,-5.702438831329345703e+00,2.782027282714843750e+02,2.782027282714843750e+02,1.508378833532333374e-01,8.910470581054687500e+01,-6.460569053888320923e-02,1.480946242809295654e-01,9.407802581787109375e+00,-1.144223006122047082e-05,1.008787825703620911e-01,6.356428623199462891e+00,-5.513547421287512407e-06,1.051763221621513367e-01,-7.962206145748496056e-04,2.428986830636858940e-03,5.000000000000000000e-01,-1.485552056692540646e-04,0.000000000000000000e+00
1.896134853363037109e+00,-5.702438831329345703e+00,2.782027282714843750e+02,2.782027282714843750e+02,1.508378833532333374e-01,8.910470581054687500e+01,-6.460569053888320923e-02,1.480946242809295654e-01,9.407802581787109375e+00,-1.144223006122047082e-05,1.008787825703620911e-01,6.356428623199462891e+00,-5.513547421287512407e-06,1.051763221621513367e-01,-7.962206145748496056e-04,2.428986830636858940e-03,5.000000000000000000e-01,-1.485552056692540646e-04,0.000000000000000000e+00
1.896134853363037109e+00,-5.702438831329345703e+00,2.782027282714843750e+02,2.782027282714843750e+02,1.508378833532333374e-01,8.910470581054687500e+01,-6.460569053888320923e-02,1.480946242809295654e-01,9.407802581787109375e+00,-1.144223006122047082e-05,1.008787825703620911e-01,6.356428623199462891e+00,-5.513547421287512407e-06,1.051763221621513367e-01,-7.962206145748496056e-04,2.428986830636858940e-03,5.000000000000000000e-01,-1.485552056692540646e-04,0.000000000000000000e+00
1.896134853363037109e+00,-5.702438831329345703e+00,2.782027282714843750e+02,2.782027282714843750e+02,1.508378833532333374e-01,8.910470581054687500e+01,-6.460569053888320923e-02,1.480946242809295654e-01,9.407802581787109375e+00,-1.144223006122047082e-05,1.008787825703620911e-01,6.356428623199462891e+00,-5.513547421287512407e-06,1.051763221621513367e-01,-7.962206145748496056e-04,2.428986830636858940e-03,5.000000000000000000e-01,-1.485552056692540646e-04,0.000000000000000000e+00
1.896134853363037109e+00,-5.702438831329345703e+00,2.782027282714843750e+02,2.782027282714843750e+02,1.508378833532333374e-01,8.910470581054687500e+01,-6.460569053888320923e-02,1.480946242809295654e-01,9.407802581787109375e+00,-1.144223006122047082e-05,1.008787825703620911e-01,6.356428623199462891e+00,-5.513547421287512407e-06,1.051763221621513367e-01,-7.962206145748496056e-04,2.428986830636858940e-03,5.000000000000000000e-01,-1.485552056692540646e-04,0.000000000000000000e+00
1.896134853363037109e+00,-5.702438831329345703e+00,2.782027282714843750e+02,2.782027282714843750e+02,1.508378833532333374e-01,8.910470581054687500e+01,-6.460569053888320923e-02,1.480946242809295654e-01,9.407802581787109375e+00,-1.144223006122047082e-05,1.008787825703620911e-01,6.356428623199462891e+00,-5.513547421287512407e-06,1.051763221621513367e-01,-7.962206145748496056e-04,2.428986830636858940e-03,5.000000000000000000e-01,-1.485552056692540646e-04,0.000000000000000000e+00
2.195794820785522461e+00,-5.666006565093994141e+00,2.805228271484375000e+02,2.805228271484375000e+02,-3.006239235401153564e-01,8.909024047851562500e+01,-6.314085423946380615e-02,1.116714626550674438e-01,7.072196960449218750e+00,-4.193646600469946861e-05,-3.493682742118835449e-01,-2.220833396911621094e+01,-9.224430541507899761e-04,-2.382188081741333008e+00,2.712800726294517517e-02,-1.081699803471565247e-01,1.000000000000000000e+00,-8.697509474586695433e-05,0.000000000000000000e+00
2.195794820785522461e+00,-5.666006565093994141e+00,2.805228271484375000e+02,2.805228271484375000e+02,-3.006239235401153564e-01,8.909024047851562500e+01,-6.314085423946380615e-02,1.116714626550674438e-01,7.072196960449218750e+00,-4.193646600469946861e-05,-3.493682742118835449e-01,-2.220833396911621094e+01,-9.224430541507899761e-04,-2.382188081741333008e+00,2.712800726294517517e-02,-1.081699803471565247e-01,1.000000000000000000e+00,-8.697509474586695433e-05,0.000000000000000000e+00
2.195794820785522461e+00,-5.666006565093994141e+00,2.805228271484375000e+02,2.805228271484375000e+02,-3.006239235401153564e-01,8.909024047851562500e+01,-6.314085423946380615e-02,1.116714626550674438e-01,7.072196960449218750e+00,-4.193646600469946861e-05,-3.493682742118835449e-01,-2.220833396911621094e+01,-9.224430541507899761e-04,-2.382188081741333008e+00,2.712800726294517517e-02,-1.081699803471565247e-01,1.000000000000000000e+00,-8.697509474586695433e-05,0.000000000000000000e+00
2.195794820785522461e+00,-5.666006565093994141e+00,2.805228271484375000e+02,2.805228271484375000e+02,-3.006239235401153564e-01,8.909024047851562500e+01,-6.314085423946380615e-02,1.116714626550674438e-01,7.072196960449218750e+00,-4.193646600469946861e-05,-3.493682742118835449e-01,-2.220833396911621094e+01,-9.224430541507899761e-04,-2.382188081741333008e+00,2.712800726294517517e-02,-1.081699803471565247e-01,1.000000000000000000e+00,-8.697509474586695433e-05,0.000000000000000000e+00
2.195794820785522461e+00,-5.666006565093994141e+00,2.805228271484375000e+02,2.805228271484375000e+02,-3.006239235401153564e-01,8.909024047851562500e+01,-6.314085423946380615e-02,1.116714626550674438e-01,7.072196960449218750e+00,-4.193646600469946861e-05,-3.493682742118835449e-01,-2.220833396911621094e+01,-9.224430541507899761e-04,-2.382188081741333008e+00,2.712800726294517517e-02,-1.081699803471565247e-01,1.000000000000000000e+00,-8.697509474586695433e-05,0.000000000000000000e+00
2.195794820785522461e+00,-5.666006565093994141e+00,2.805228271484375000e+02,2.805228271484375000e+02,-3.006239235401153564e-01,8.909024047851562500e+01,-6.314085423946380615e-02,1.116714626550674438e-01,7.072196960449218750e+00,-4.193646600469946861e-05,-3.493682742118835449e-01,-2.220833396911621094e+01,-9.224430541507899761e-04,-2.382188081741333008e+00,2.712800726294517517e-02,-1.081699803471565247e-01,1.000000000000000000e+00,-8.697509474586695433e-05,0.000000000000000000e+00
2.195794820785522461e+00,-5.666006565093994141e+00,2.805228271484375000e+02,2.805228271484375000e+02,-3.006239235401153564e-01,8.909024047851562500e+01,-6.314085423946380615e-02,1.116714626550674438e-01,7.072196960449218750e+00,-4.193646600469946861e-05,-3.493682742118835449e-01,-2.220833396911621094e+01,-9.224430541507899761e-04,-2.382188081741333008e+00,2.712800726294517517e-02,-1.081699803471565247e-01,1.000000000000000000e+00,-8.697509474586695433e-05,0.000000000000000000e+00
2.195794820785522461e+00,-5.666006565093994141e+00,2.805228271484375000e+02,2.805228271484375000e+02,-3.006239235401153564e-01,8.909024047851562500e+01,-6.314085423946380615e-02,1.116714626550674438e-01,7.072196960449218750e+00,-4.193646600469946861e-05,-3.493682742118835449e-01,-2.220833396911621094e+01,-9.224430541507899761e-04,-2.382188081741333008e+00,2.712800726294517517e-02,-1.081699803471565247e-01,1.000000000000000000e+00,-8.697509474586695433e-05,0.000000000000000000e+00
2.195794820785522461e+00,-5.666006565093994141e+00,2.805228271484375000e+02,2.805228271484375000e+02,-3.006239235401153564e-01,8.909024047851562500e+01,-6.314085423946380615e-02,1.116714626550674438e-01,7.072196960449218750e+00,-4.193646600469946861e-05,-3.493682742118835449e-01,-2.220833396911621094e+01,-9.224430541507899761e-04,-2.382188081741333008e+00,2.712800726294517517e-02,-1.081699803471565247e-01,1.000000000000000000e+00,-8.697509474586695433e-05,0.000000000000000000e+00
2.195794820785522461e+00,-5.666006565093994141e+00,2.805228271484375000e+02,2.805228271484375000e+02,-3.006239235401153564e-01,8.909024047851562500e+01,-6.314085423946380615e-02,1.116714626550674438e-01,7.072196960449218750e+00,-4.193646600469946861e-05,-3.493682742118835449e-01,-2.220833396911621094e+01,-9.224430541507899761e-04,-2.382188081741333008e+00,2.712800726294517517e-02,-1.081699803471565247e-01,1.000000000000000000e+00,-8.697509474586695433e-05,0.000000000000000000e+00
2.374083757400512695e+00,-5.660343647003173828e+00,2.808841857910156250e+02,2.808841857910156250e+02,-3.928451240062713623e-01,8.908578491210937500e+01,-6.262206286191940308e-02,1.067974567413330078e-01,6.751787185668945312e+00,-6.549919635290279984e-05,-2.733767963945865631e-02,-1.797137737274169922e+00,-1.321603631367906928e-04,-1.244202971458435059e+00,1.004838012158870697e-02,-6.149899214506149292e-02,1.000000000000000000e+00,7.400512549793347716e-05,0.000000000000000000e+00
2.374083757400512695e+00,-5.660343647003173828e+00,2.808841857910156250e+02,2.808841857910156250e+02,-3.928451240062713623e-01,8.908578491210937500e+01,-6.262206286191940308e-02,1.067974567413330078e-01,6.751787185668945312e+00,-6.549919635290279984e-05,-2.733767963945865631e-02,-1.797137737274169922e+00,-1.321603631367906928e-04,-1.244202971458435059e+00,1.004838012158870697e-02,-6.149899214506149292e-02,1.000000000000000000e+00,7.400512549793347716e-05,0.000000000000000000e+00
2.374083757400512695e+00,-5.660343647003173828e+00,2.808841857910156250e+02,2.808841857910156250e+02,-3.928451240062713623e-01,8.908578491210937500e+01,-6.262206286191940308e-02,1.067974567413330078e-01,6.751787185668945312e+00,-6.549919635290279984e-05,-2.733767963945865631e-02,-1.797137737274169922e+00,-1.321603631367906928e-04,-1.244202971458435059e+00,1.004838012158870697e-02,-6.149899214506149292e-02,1.000000000000000000e+00,7.400512549793347716e-05,0.000000000000000000e+00
2.447860002517700195e+00,-5.649554729461669922e+00,2.815657043457031250e+02,2.815657043457031250e+02,-3.872717022895812988e-01,8.908515167236328125e+01,-6.225587055087089539e-02,1.096931025385856628e-01,6.921422481536865234e+00,-1.085100393538596109e-05,3.924902528524398804e-02,2.299321413040161133e+00,7.407288649119436741e-04,7.972177267074584961e-01,-1.196546945720911026e-02,1.884823478758335114e-02,1.000000000000000000e+00,1.531328452983871102e-04,0.000000000000000000e+00
2.447860002517700195e+00,-5.649554729461669922e+00,2.815657043457031250e+02,2.815657043457031250e+02,-3.872717022895812988e-01,8.908515167236328125e+01,-6.225587055087089539e-02,1.096931025385856628e-01,6.921422481536865234e+00,-1.085100393538596109e-05,3.924902528524398804e-02,2.299321413040161133e+00,7.407288649119436741e-04,7.972177267074584961e-01,-1.196546945720911026e-02,1.884823478758335114e-02,1.000000000000000000e+00,1.531328452983871102e-04,0.000000000000000000e+00
2.500878810882568359e+00,-5.641180992126464844e+00,2.820931701660156250e+02,2.820931701660156250e+02,-2.958974242210388184e-01,8.908780670166015625e+01,-6.259155273437500000e-02,1.152871102094650269e-01,7.290277004241943359e+00,4.401510886964388192e-05,1.055098697543144226e-01,6.957050323486328125e+00,1.034842454828321934e-03,1.433124780654907227e+00,-1.654710248112678528e-02,4.434491693973541260e-02,1.000000000000000000e+00,1.822335325414314866e-04,0.000000000000000000e+00
2.500878810882568359e+00,-5.641180992126464844e+00,2.820931701660156250e+02,2.820931701660156250e+02,-2.958974242210388184e-01,8.908780670166015625e+01,-6.259155273437500000e-02,1.152871102094650269e-01,7.290277004241943359e+00,4.401510886964388192e-05,1.055098697543144226e-01,6.957050323486328125e+00,1.034842454828321934e-03,1.433124780654907227e+00,-1.654710248112678528e-02,4.434491693973541260e-02,1.000000000000000000e+00,1.822335325414314866e-04,0.000000000000000000e+00
2.560195446014404297e+00,-5.634897232055664062e+00,2.824892272949218750e+02,2.824892272949218750e+02,-2.189348787069320679e-01,8.909024047851562500e+01,-6.295774132013320923e-02,1.196083500981330872e-01,7.569211959838867188e+00,5.730822522309608757e-05,7.285038381814956665e-02,4.702474117279052734e+00,2.241043548565357924e-04,1.472339749336242676e+00,-1.649344526231288910e-02,4.786667972803115845e-02,1.000000000000000000e+00,1.363481860607862473e-04,0.000000000000000000e+00
2.560195446014404297e+00,-5.634897232055664062e+00,2.824892272949218750e+02,2.824892272949218750e+02,-2.189348787069320679e-01,8.909024047851562500e+01,-6.295774132013320923e-02,1.196083500981330872e-01,7.569211959838867188e+00,5.730822522309608757e-05,7.285038381814956665e-02,4.702474117279052734e+00,2.241043548565357924e-04,1.472339749336242676e+00,-1.649344526231288910e-02,4.786667972803115845e-02,1.000000000000000000e+00,1.363481860607862473e-04,0.000000000000000000e+00
2.560195446014404297e+00,-5.634897232055664062e+00,2.824892272949218750e+02,2.824892272949218750e+02,-2.189348787069320679e-01,8.909024047851562500e+01,-6.295774132013320923e-02,1.196083500981330872e-01,7.569211959838867188e+00,5.730822522309608757e-05,7.285038381814956665e-02,4.702474117279052734e+00,2.241043548565357924e-04,1.472339749336242676e+00,-1.649344526231288910e-02,4.786667972803115845e-02,1.000000000000000000e+00,1.363481860607862473e-04,0.000000000000000000e+00
2.618730545043945312e+00,-5.627576828002929688e+00,2.829510192871093750e+02,2.829510192871093750e+02,-1.336053162813186646e-01,8.909304809570312500e+01,-6.335448473691940308e-02,1.247308030724525452e-01,7.902209281921386719e+00,5.116657121106982231e-05,8.751079440116882324e-02,5.688848495483398438e+00,-1.049225829774513841e-04,1.385426521301269531e+00,-1.504657417535781860e-02,4.708430171012878418e-02,1.000000000000000000e+00,1.000540578388608992e-04,0.000000000000000000e+00
2.618730545043945312e+00,-5.627576828002929688e+00,2.829510192871093750e+02,2.829510192871093750e+02,-1.336053162813186646e-01,8.909304809570312500e+01,-6.335448473691940308e-02,1.247308030724525452e-01,7.902209281921386719e+00,5.116657121106982231e-05,8.751079440116882324e-02,5.688848495483398438e+00,-1.049225829774513841e-04,1.385426521301269531e+00,-1.504657417535781860e-02,4.708430171012878418e-02,1.000000000000000000e+00,1.000540578388608992e-04,0.000000000000000000e+00
2.677334070205688477e+00,-5.620050430297851562e+00,2.834263916015625000e+02,2.834263916015625000e+02,-6.011932343244552612e-02,8.909568023681640625e+01,-6.372070312500000000e-02,1.299465745687484741e-01,8.240201950073242188e+00,3.547149026417173445e-05,8.900098502635955811e-02,5.767446041107177734e+00,-2.678180462680757046e-04,1.178358197212219238e+00,-1.248212810605764389e-02,4.328975081443786621e-02,1.000000000000000000e+00,5.613054599962197244e-05,0.000000000000000000e+00
2.677334070205688477e+00,-5.620050430297851562e+00,2.834263916015625000e+02,2.834263916015625000e+02,-6.011932343244552612e-02,8.909568023681640625e+01,-6.372070312500000000e-02,1.299465745687484741e-01,8.240201950073242188e+00,3.547149026417173445e-05,8.900098502635955811e-02,5.767446041107177734e+00,-2.678180462680757046e-04,1.178358197212219238e+00,-1.248212810605764389e-02,4.328975081443786621e-02,1.000000000000000000e+00,5.613054599962197244e-05,0.000000000000000000e+00
2.677334070205688477e+00,-5.620050430297851562e+00,2.834263916015625000e+02,2.834263916015625000e+02,-6.011932343244552612e-02,8.909568023681640625e+01,-6.372070312500000000e-02,1.299465745687484741e-01,8.240201950073242188e+00,3.547149026417173445e-05,8.900098502635955811e-02,5.767446041107177734e+00,-2.678180462680757046e-04,1.178358197212219238e+00,-1.248212810605764389e-02,4.328975081443786621e-02,1.000000000000000000e+00,5.613054599962197244e-05,0.000000000000000000e+00
2.677334070205688477e+00,-5.612209320068359375e+00,2.839223327636718750e+02,2.839223327636718750e+02,8.879245724529027939e-04,8.909798431396484375e+01,-6.399536132812500000e-02,1.353020370006561279e-01,8.585651397705078125e+00,1.614333996258210391e-05,6.893299520015716553e-02,4.446463108062744141e+00,-2.487828896846622229e-04,9.605664610862731934e-01,-1.016592141240835190e-02,3.791027143597602844e-02,1.000000000000000000e+00,1.198904828925151378e-05,0.000000000000000000e+00
2.755024909973144531e+00,-5.612209320068359375e+00,2.839223327636718750e+02,2.839223327636718750e+02,8.879245724529027939e-04,8.909798431396484375e+01,-6.399536132812500000e-02,1.353020370006561279e-01,8.585651397705078125e+00,1.614333996258210391e-05,6.893299520015716553e-02,4.446463108062744141e+00,-2.487828896846622229e-04,9.605664610862731934e-01,-1.016592141240835190e-02,3.791027143597602844e-02,1.000000000000000000e+00,1.198904828925151378e-05,0.000000000000000000e+00
2.755024909973144531e+00,-5.612209320068359375e+00,2.839223327636718750e+02,2.839223327636718750e+02,8.879245724529027939e-04,8.909798431396484375e+01,-6.399536132812500000e-02,1.353020370006561279e-01,8.585651397705078125e+00,1.614333996258210391e-05,6.893299520015716553e-02,4.446463108062744141e+00,-2.487828896846622229e-04,9.605664610862731934e-01,-1.016592141240835190e-02,3.791027143597602844e-02,1.000000000000000000e+00,1.198904828925151378e-05,0.000000000000000000e+00
2.755024909973144531e+00,-5.612209320068359375e+00,2.839223327636718750e+02,2.839223327636718750e+02,8.879245724529027939e-04,8.909798431396484375e+01,-6.399536132812500000e-02,1.353020370006561279e-01,8.585651397705078125e+00,1.614333996258210391e-05,6.893299520015716553e-02,4.446463108062744141e+00,-2.487828896846622229e-04,9.605664610862731934e-01,-1.016592141240835190e-02,3.791027143597602844e-02,1.000000000000000000e+00,1.198904828925151378e-05,0.000000000000000000e+00
2.830169916152954102e+00,-5.601346969604492188e+00,2.846102600097656250e+02,2.846102600097656250e+02,6.104139611124992371e-02,8.910047912597656250e+01,-6.430052220821380615e-02,1.418581455945968628e-01,9.008747100830078125e+00,-5.721156526306003798e-07,8.724609762430191040e-02,5.630390167236328125e+00,-2.224426571046933532e-04,6.136189103126525879e-01,-6.016803905367851257e-03,2.874080091714859009e-02,5.000000000000000000e-01,-3.138951069558970630e-05,0.000000000000000000e+00
2.830169916152954102e+00,-5.601346969604492188e+00,2.846102600097656250e+02,2.846102600097656250e+02,6.104139611124992371e-02,8.910047912597656250e+01,-6.430052220821380615e-02,1.418581455945968628e-01,9.008747100830078125e+00,-5.721156526306003798e-07,8.724609762430191040e-02,5.630390167236328125e+00,-2.224426571046933532e-04,6.136189103126525879e-01,-6.016803905367851257e-03,2.874080091714859009e-02,5.000000000000000000e-01,-3.138951069558970630e-05,0.000000000000000000e+00
2.830169916152954102e+00,-5.601346969604492188e+00,2.846102600097656250e+02,2.846102600097656250e+02,6.104139611124992371e-02,8.910047912597656250e+01,-6.430052220821380615e-02,1.418581455945968628e-01,9.008747100830078125e+00,-5.721156526306003798e-07,8.724609762430191040e-02,5.630390167236328125e+00,-2.224426571046933532e-04,6.136189103126525879e-01,-6.016803905367851257e-03,2.874080091714859009e-02,5.000000000000000000e-01,-3.138951069558970630e-05,0.000000000000000000e+00
2.830169916152954102e+00,-5.601346969604492188e+00,2.846102600097656250e+02,2.846102600097656250e+02,6.104139611124992371e-02,8.910047912597656250e+01,-6.430052220821380615e-02,1.418581455945968628e-01,9.008747100830078125e+00,-5.721156526306003798e-07,8.724609762430191040e-02,5.630390167236328125e+00,-2.224426571046933532e-04,6.136189103126525879e-01,-6.016803905367851257e-03,2.874080091714859009e-02,5.000000000000000000e-01,-3.138951069558970630e-05,0.000000000000000000e+00
2.830169916152954102e+00,-5.601346969604492188e+00,2.846102600097656250e+02,2.846102600097656250e+02,6.104139611124992371e-02,8.910047912597656250e+01,-6.430052220821380615e-02,1.418581455945968628e-01,9.008747100830078125e+00,-5.721156526306003798e-07,8.724609762430191040e-02,5.630390167236328125e+00,-2.224426571046933532e-04,6.136189103126525879e-01,-6.016803905367851257e-03,2.874080091714859009e-02,5.000000000000000000e-01,-3.138951069558970630e-05,0.000000000000000000e+00
2.917726278305053711e+00,-5.590478420257568359e+00,2.852995910644531250e+02,2.852995910644531250e+02,8.474898338317871094e-02,8.910186004638671875e+01,-6.445311754941940308e-02,1.457240432500839233e-01,9.255644798278808594e+00,-1.036488174577243626e-05,4.415324330329895020e-02,2.819871425628662109e+00,-1.118452782975509763e-04,1.142977103590965271e-01,-4.411024565342813730e-04,1.213651988655328751e-02,5.000000000000000000e-01,-7.531302253482863307e-05,0.000000000000000000e+00
