# Time,X,Y,Z,Roll,Pitch,Yaw,Vx,Vy,Vz,Ax,Ay,Az,Wx,Wy,Wz,Throttle,Steer,Brake
0.000000000000000000e+00,6.419884033203125000e+02,4.866401672363281250e+01,4.866401672363281250e+01,-6.147169915493577719e-05,-2.243041805922985077e-02,6.257312634261325002e-06,-1.667964077967099001e-08,2.506382479339208658e-08,1.460012048482894897e-03,-9.413745516440030769e-08,1.640629250232450431e-07,1.453760731965303421e-02,1.224829975399188697e-05,1.094529125111876056e-05,-6.211640646291982648e-10,0.000000000000000000e+00,-2.867293951567262411e-04,1.000000000000000000e+00
1.045818328857421875e-01,6.419884033203125000e+02,4.866401672363281250e+01,4.866401672363281250e+01,-6.147169915493577719e-05,-2.243041805922985077e-02,6.257312634261325002e-06,-1.667964077967099001e-08,2.506382479339208658e-08,1.460012048482894897e-03,-9.413745516440030769e-08,1.640629250232450431e-07,1.453760731965303421e-02,1.224829975399188697e-05,1.094529125111876056e-05,-6.211640646291982648e-10,0.000000000000000000e+00,-2.867293951567262411e-04,1.000000000000000000e+00
1.045818328857421875e-01,6.419884033203125000e+02,4.866401672363281250e+01,4.866401672363281250e+01,-6.147169915493577719e-05,-2.243041805922985077e-02,6.257312634261325002e-06,-1.667964077967099001e-08,2.506382479339208658e-08,1.460012048482894897e-03,-9.413745516440030769e-08,1.640629250232450431e-07,1.453760731965303421e-02,1.224829975399188697e-05,1.094529125111876056e-05,-6.211640646291982648e-10,0.000000000000000000e+00,-2.867293951567262411e-04,1.000000000000000000e+00
1.045818328857421875e-01,6.419884033203125000e+02,4.866401672363281250e+01,4.866401672363281250e+01,-6.147169915493577719e-05,-2.243041805922985077e-02,6.257312634261325002e-06,-1.667964077967099001e-08,2.506382479339208658e-08,1.460012048482894897e-03,-9.413745516440030769e-08,1.640629250232450431e-07,1.453760731965303421e-02,1.224829975399188697e-05,1.094529125111876056e-05,-6.211640646291982648e-10,0.000000000000000000e+00,-2.867293951567262411e-04,1.000000000000000000e+00
1.045818328857421875e-01,6.419884033203125000e+02,4.866401672363281250e+01,4.866401672363281250e+01,-6.147169915493577719e-05,-2.243041805922985077e-02,6.257312634261325002e-06,-1.667964077967099001e-08,2.506382479339208658e-08,1.460012048482894897e-03,-9.413745516440030769e-08,1.640629250232450431e-07,1.453760731965303421e-02,1.224829975399188697e-05,1.094529125111876056e-05,-6.211640646291982648e-10,0.000000000000000000e+00,-2.867293951567262411e-04,1.000000000000000000e+00
1.045818328857421875e-01,6.419884033203125000e+02,4.866401672363281250e+01,4.866401672363281250e+01,-6.147169915493577719e-05,-2.243041805922985077e-02,6.257312634261325002e-06,-1.667964077967099001e-08,2.506382479339208658e-08,1.460012048482894897e-03,-9.413745516440030769e-08,1.640629250232450431e-07,1.453760731965303421e-02,1.224829975399188697e-05,1.094529125111876056e-05,-6.211640646291982648e-10,0.000000000000000000e+00,-2.867293951567262411e-04,1.000000000000000000e+00
1.045818328857421875e-01,6.419884033203125000e+02,4.866401672363281250e+01,4.866401672363281250e+01,-6.147169915493577719e-05,-2.243041805922985077e-02,6.257312634261325002e-06,-2.231388762652386504e-08,2.645865038175543305e-08,-1.046406803652644157e-03,-5.380866596738087537e-08,1.332098253925551035e-08,-2.393701486289501190e-02,1.171533858723705634e-05,1.463037642679410055e-05,-1.084850653754187988e-09,0.000000000000000000e+00,-2.867293951567262411e-04,1.000000000000000000e+00
2.092907428741455078e-01,6.419884033203125000e+02,4.866401672363281250e+01,4.866401672363281250e+01,-6.147169915493577719e-05,-2.243041805922985077e-02,6.257312634261325002e-06,-2.231388762652386504e-08,2.645865038175543305e-08,-1.046406803652644157e-03,-5.380866596738087537e-08,1.332098253925551035e-08,-2.393701486289501190e-02,1.171533858723705634e-05,1.463037642679410055e-05,-1.084850653754187988e-09,0.000000000000000000e+00,-2.867293951567262411e-04,1.000000000000000000e+00
2.092907428741455078e-01,6.419884033203125000e+02,4.866401672363281250e+01,4.866401672363281250e+01,-6.147169915493577719e-05,-2.243041805922985077e-02,6.257312634261325002e-06,-2.231388762652386504e-08,2.645865038175543305e-08,-1.046406803652644157e-03,-5.380866596738087537e-08,1.332098253925551035e-08,-2.393701486289501190e-02,1.171533858723705634e-05,1.463037642679410055e-05,-1.084850653754187988e-09,0.000000000000000000e+00,-2.867293951567262411e-04,1.000000000000000000e+00
2.092907428741455078e-01,6.419884033203125000e+02,4.866401672363281250e+01,4.866401672363281250e+01,-6.147169915493577719e-05,-2.243041805922985077e-02,6.257312634261325002e-06,-2.231388762652386504e-08,2.645865038175543305e-08,-1.046406803652644157e-03,-5.380866596738087537e-08,1.332098253925551035e-08,-2.393701486289501190e-02,1.171533858723705634e-05,1.463037642679410055e-05,-1.084850653754187988e-09,0.000000000000000000e+00,-2.867293951567262411e-04,1.000000000000000000e+00
2.092907428741455078e-01,6.419884033203125000e+02,4.866401672363281250e+01,4.866401672363281250e+01,-6.147169915493577719e-05,-2.243041805922985077e-02,6.257312634261325002e-06,-2.231388762652386504e-08,2.645865038175543305e-08,-1.046406803652644157e-03,-5.380866596738087537e-08,1.332098253925551035e-08,-2.393701486289501190e-02,1.171533858723705634e-05,1.463037642679410055e-05,-1.084850653754187988e-09,0.000000000000000000e+00,-2.867293951567262411e-04,1.000000000000000000e+00
2.092907428741455078e-01,6.419884033203125000e+02,4.866401672363281250e+01,4.866401672363281250e+01,-6.147169915493577719e-05,-2.243041805922985077e-02,6.257312634261325002e-06,3.147625449173574452e-08,1.720631992441212788e-08,-2.582119486760348082e-04,7.208679448922339361e-07,-1.239949938280915376e-07,1.056298334151506424e-02,9.418185072718188167e-06,-2.201554707426112145e-05,7.027392889824568556e-09,0.000000000000000000e+00,-2.867293951567262411e-04,1.000000000000000000e+00
2.839093208312988281e-01,6.419884033203125000e+02,4.866401672363281250e+01,4.866401672363281250e+01,-6.147169915493577719e-05,-2.243041805922985077e-02,6.257312634261325002e-06,3.147625449173574452e-08,1.720631992441212788e-08,-2.582119486760348082e-04,7.208679448922339361e-07,-1.239949938280915376e-07,1.056298334151506424e-02,9.418185072718188167e-06,-2.201554707426112145e-05,7.027392889824568556e-09,0.000000000000000000e+00,-2.867293951567262411e-04,1.000000000000000000e+00
2.839093208312988281e-01,6.419884033203125000e+02,4.866401672363281250e+01,4.866401672363281250e+01,-6.147169915493577719e-05,-2.243041805922985077e-02,6.257312634261325002e-06,3.147625449173574452e-08,1.720631992441212788e-08,-2.582119486760348082e-04,7.208679448922339361e-07,-1.239949938280915376e-07,1.056298334151506424e-02,9.418185072718188167e-06,-2.201554707426112145e-05,7.027392889824568556e-09,0.000000000000000000e+00,-2.867293951567262411e-04,1.000000000000000000e+00
2.839093208312988281e-01,6.419884033203125000e+02,4.866401672363281250e+01,4.866401672363281250e+01,-6.147169915493577719e-05,-2.243041805922985077e-02,6.257312634261325002e-06,3.147625449173574452e-08,1.720631992441212788e-08,-2.582119486760348082e-04,7.208679448922339361e-07,-1.239949938280915376e-07,1.056298334151506424e-02,9.418185072718188167e-06,-2.201554707426112145e-05,7.027392889824568556e-09,0.000000000000000000e+00,-2.867293951567262411e-04,1.000000000000000000e+00
2.839093208312988281e-01,6.419884033203125000e+02,4.866401672363281250e+01,4.866401672363281250e+01,-6.147169915493577719e-05,-2.243041805922985077e-02,6.257312634261325002e-06,3.147625449173574452e-08,1.720631992441212788e-08,-2.582119486760348082e-04,7.208679448922339361e-07,-1.239949938280915376e-07,1.056298334151506424e-02,9.418185072718188167e-06,-2.201554707426112145e-05,7.027392889824568556e-09,0.000000000000000000e+00,-2.867293951567262411e-04,1.000000000000000000e+00
3.569011688232421875e-01,6.419884033203125000e+02,4.866401672363281250e+01,4.866401672363281250e+01,-6.147169915493577719e-05,-2.243041805922985077e-02,6.257312634261325002e-06,0.000000000000000000e+00,0.000000000000000000e+00,0.000000000000000000e+00,-4.312297221531480318e-07,-2.357293311661123880e-07,3.537544980645179749e-03,0.000000000000000000e+00,0.000000000000000000e+00,0.000000000000000000e+00,0.000000000000000000e+00,-2.867293951567262411e-04,1.000000000000000000e+00
3.569011688232421875e-01,6.419884033203125000e+02,4.866401672363281250e+01,4.866401672363281250e+01,-6.147169915493577719e-05,-2.243041805922985077e-02,6.257312634261325002e-06,0.000000000000000000e+00,0.000000000000000000e+00,0.000000000000000000e+00,-4.312297221531480318e-07,-2.357293311661123880e-07,3.537544980645179749e-03,0.000000000000000000e+00,0.000000000000000000e+00,0.000000000000000000e+00,0.000000000000000000e+00,-2.867293951567262411e-04,1.000000000000000000e+00
3.569011688232421875e-01,6.419884033203125000e+02,4.866401672363281250e+01,4.866401672363281250e+01,-6.147169915493577719e-05,-2.243041805922985077e-02,6.257312634261325002e-06,0.000000000000000000e+00,0.000000000000000000e+00,0.000000000000000000e+00,-4.312297221531480318e-07,-2.357293311661123880e-07,3.537544980645179749e-03,0.000000000000000000e+00,0.000000000000000000e+00,0.000000000000000000e+00,0.000000000000000000e+00,-2.867293951567262411e-04,1.000000000000000000e+00
3.569011688232421875e-01,6.419884033203125000e+02,4.866401672363281250e+01,4.866401672363281250e+01,-6.147169915493577719e-05,-2.243041805922985077e-02,6.257312634261325002e-06,0.000000000000000000e+00,0.000000000000000000e+00,0.000000000000000000e+00,-4.312297221531480318e-07,-2.357293311661123880e-07,3.537544980645179749e-03,0.000000000000000000e+00,0.000000000000000000e+00,0.000000000000000000e+00,0.000000000000000000e+00,-2.867293951567262411e-04,1.000000000000000000e+00
4.765405654907226562e-01,6.419884033203125000e+02,4.866401672363281250e+01,4.866401672363281250e+01,-6.147169915493577719e-05,-2.243041805922985077e-02,6.257312634261325002e-06,-2.276967236980453890e-08,-2.359950457275772351e-08,2.908568130806088448e-04,-1.903191844121465692e-07,-1.972553036466706544e-07,2.431112341582775116e-03,-1.156457256001885980e-05,1.591906402609311044e-05,-4.972311895556913441e-09,0.000000000000000000e+00,-2.867293951567262411e-04,1.000000000000000000e+00
4.765405654907226562e-01,6.419884033203125000e+02,4.866401672363281250e+01,4.866401672363281250e+01,-6.147169915493577719e-05,-2.243041805922985077e-02,6.257312634261325002e-06,-2.276967236980453890e-08,-2.359950457275772351e-08,2.908568130806088448e-04,-1.903191844121465692e-07,-1.972553036466706544e-07,2.431112341582775116e-03,-1.156457256001885980e-05,1.591906402609311044e-05,-4.972311895556913441e-09,0.000000000000000000e+00,-2.867293951567262411e-04,1.000000000000000000e+00
4.765405654907226562e-01,6.419884033203125000e+02,4.866401672363281250e+01,4.866401672363281250e+01,-6.147169915493577719e-05,-2.243041805922985077e-02,6.257312634261325002e-06,-2.276967236980453890e-08,-2.359950457275772351e-08,2.908568130806088448e-04,-1.903191844121465692e-07,-1.972553036466706544e-07,2.431112341582775116e-03,-1.156457256001885980e-05,1.591906402609311044e-05,-4.972311895556913441e-09,0.000000000000000000e+00,-2.867293951567262411e-04,1.000000000000000000e+00
4.765405654907226562e-01,6.419884033203125000e+02,4.866401672363281250e+01,4.866401672363281250e+01,-6.147169915493577719e-05,-2.243041805922985077e-02,6.257312634261325002e-06,-2.276967236980453890e-08,-2.359950457275772351e-08,2.908568130806088448e-04,-1.903191844121465692e-07,-1.972553036466706544e-07,2.431112341582775116e-03,-1.156457256001885980e-05,1.591906402609311044e-05,-4.972311895556913441e-09,0.000000000000000000e+00,-2.867293951567262411e-04,1.000000000000000000e+00
4.765405654907226562e-01,6.419884033203125000e+02,4.866401672363281250e+01,4.866401672363281250e+01,-6.147169915493577719e-05,-2.243041805922985077e-02,6.257312634261325002e-06,-2.276967236980453890e-08,-2.359950457275772351e-08,2.908568130806088448e-04,-1.903191844121465692e-07,-1.972553036466706544e-07,2.431112341582775116e-03,-1.156457256001885980e-05,1.591906402609311044e-05,-4.972311895556913441e-09,0.000000000000000000e+00,-2.867293951567262411e-04,1.000000000000000000e+00
4.765405654907226562e-01,6.419884033203125000e+02,4.866401672363281250e+01,4.866401672363281250e+01,-6.147169915493577719e-05,-2.243041805922985077e-02,6.257312634261325002e-06,-2.276967236980453890e-08,-2.359950457275772351e-08,2.908568130806088448e-04,-1.903191844121465692e-07,-1.972553036466706544e-07,2.431112341582775116e-03,-1.156457256001885980e-05,1.591906402609311044e-05,-4.972311895556913441e-09,0.000000000000000000e+00,-2.867293951567262411e-04,1.000000000000000000e+00
4.765405654907226562e-01,6.419884033203125000e+02,4.866401672363281250e+01,4.866401672363281250e+01,-6.147169915493577719e-05,-2.243041805922985077e-02,6.257312634261325002e-06,-2.276967236980453890e-08,-2.359950457275772351e-08,2.908568130806088448e-04,-1.903191844121465692e-07,-1.972553036466706544e-07,2.431112341582775116e-03,-1.156457256001885980e-05,1.591906402609311044e-05,-4.972311895556913441e-09,0.000000000000000000e+00,-2.867293951567262411e-04,1.000000000000000000e+00
6.200885772705078125e-01,6.419884033203125000e+02,4.866401672363281250e+01,4.866401672363281250e+01,-6.147169915493577719e-05,-2.243041805922985077e-02,6.257312634261325002e-06,-4.151651822326130059e-08,2.749345640040701255e-08,-9.340254473499953747e-04,-1.305963479580896092e-07,3.559294441402016673e-07,-8.532909676432609558e-03,2.233238046756014228e-05,2.712851892283651978e-05,1.173695363121396440e-09,0.000000000000000000e+00,-2.867293951567262411e-04,1.000000000000000000e+00
6.200885772705078125e-01,6.419884033203125000e+02,4.866401672363281250e+01,4.866401672363281250e+01,-6.147169915493577719e-05,-2.243041805922985077e-02,6.257312634261325002e-06,-4.151651822326130059e-08,2.749345640040701255e-08,-9.340254473499953747e-04,-1.305963479580896092e-07,3.559294441402016673e-07,-8.532909676432609558e-03,2.233238046756014228e-05,2.712851892283651978e-05,1.173695363121396440e-09,0.000000000000000000e+00,-2.867293951567262411e-04,1.000000000000000000e+00
6.200885772705078125e-01,6.419884033203125000e+02,4.866401672363281250e+01,4.866401672363281250e+01,-6.147169915493577719e-05,-2.243041805922985077e-02,6.257312634261325002e-06,-4.151651822326130059e-08,2.749345640040701255e-08,-9.340254473499953747e-04,-1.305963479580896092e-07,3.559294441402016673e-07,-8.532909676432609558e-03,2.233238046756014228e-05,2.712851892283651978e-05,1.173695363121396440e-09,0.000000000000000000e+00,-2.867293951567262411e-04,1.000000000000000000e+00
6.200885772705078125e-01,6.419884033203125000e+02,4.866401672363281250e+01,4.866401672363281250e+01,-6.147169915493577719e-05,-2.243041805922985077e-02,6.257312634261325002e-06,-4.151651822326130059e-08,2.749345640040701255e-08,-9.340254473499953747e-04,-1.305963479580896092e-07,3.559294441402016673e-07,-8.532909676432609558e-03,2.233238046756014228e-05,2.712851892283651978e-05,1.173695363121396440e-09,0.000000000000000000e+00,-2.867293951567262411e-04,1.000000000000000000e+00
6.200885772705078125e-01,6.419884033203125000e+02,4.866401672363281250e+01,4.866401672363281250e+01,-6.147169915493577719e-05,-2.243041805922985077e-02,6.257312634261325002e-06,-4.151651822326130059e-08,2.749345640040701255e-08,-9.340254473499953747e-04,-1.305963479580896092e-07,3.559294441402016673e-07,-8.532909676432609558e-03,2.233238046756014228e-05,2.712851892283651978e-05,1.173695363121396440e-09,0.000000000000000000e+00,-2.867293951567262411e-04,1.000000000000000000e+00
6.200885772705078125e-01,6.419884033203125000e+02,4.866401672363281250e+01,4.866401672363281250e+01,-6.147169915493577719e-05,-2.243041805922985077e-02,6.257312634261325002e-06,-4.151651822326130059e-08,2.749345640040701255e-08,-9.340254473499953747e-04,-1.305963479580896092e-07,3.559294441402016673e-07,-8.532909676432609558e-03,2.233238046756014228e-05,2.712851892283651978e-05,1.173695363121396440e-09,0.000000000000000000e+00,-2.867293951567262411e-04,1.000000000000000000e+00
7.946169376373291016e-01,6.419884033203125000e+02,4.866401672363281250e+01,4.866401672363281250e+01,-6.147169915493577719e-05,-2.243041805922985077e-02,6.257312634261325002e-06,-3.316271701692130591e-08,-1.842220953562900831e-08,-3.960902540711686015e-05,4.786500795717074652e-08,-2.630842743656103266e-07,5.124762654304504395e-03,-7.976101187523454428e-06,2.264973045384977013e-05,-4.300527489675687320e-09,0.000000000000000000e+00,-2.867293951567262411e-04,1.000000000000000000e+00
7.946169376373291016e-01,6.419884033203125000e+02,4.866401672363281250e+01,4.866401672363281250e+01,-6.147169915493577719e-05,-2.243041805922985077e-02,6.257312634261325002e-06,-3.316271701692130591e-08,-1.842220953562900831e-08,-3.960902540711686015e-05,4.786500795717074652e-08,-2.630842743656103266e-07,5.124762654304504395e-03,-7.976101187523454428e-06,2.264973045384977013e-05,-4.300527489675687320e-09,0.000000000000000000e+00,-2.867293951567262411e-04,1.000000000000000000e+00
7.946169376373291016e-01,6.419884033203125000e+02,4.866401672363281250e+01,4.866401672363281250e+01,-6.147169915493577719e-05,-2.243041805922985077e-02,6.257312634261325002e-06,-3.316271701692130591e-08,-1.842220953562900831e-08,-3.960902540711686015e-05,4.786500795717074652e-08,-2.630842743656103266e-07,5.124762654304504395e-03,-7.976101187523454428e-06,2.264973045384977013e-05,-4.300527489675687320e-09,0.000000000000000000e+00,-2.867293951567262411e-04,1.000000000000000000e+00
7.946169376373291016e-01,6.419884033203125000e+02,4.866401672363281250e+01,4.866401672363281250e+01,-6.147169915493577719e-05,-2.243041805922985077e-02,6.257312634261325002e-06,-3.316271701692130591e-08,-1.842220953562900831e-08,-3.960902540711686015e-05,4.786500795717074652e-08,-2.630842743656103266e-07,5.124762654304504395e-03,-7.976101187523454428e-06,2.264973045384977013e-05,-4.300527489675687320e-09,0.000000000000000000e+00,-2.867293951567262411e-04,1.000000000000000000e+00
8.783230781555175781e-01,6.419884033203125000e+02,4.866401672363281250e+01,4.866401672363281250e+01,-6.147169915493577719e-05,-2.243041805922985077e-02,6.257312634261325002e-06,2.929011166941108968e-08,2.719498182202073622e-09,1.987316791201010346e-04,7.460961342076188885e-07,2.525705724565341370e-07,2.847350202500820160e-03,-1.001203963824082166e-05,-1.968316973943728954e-05,8.956326236209122271e-10,0.000000000000000000e+00,-2.867293951567262411e-04,1.000000000000000000e+00
8.783230781555175781e-01,6.419884033203125000e+02,4.866401672363281250e+01,4.866401672363281250e+01,-6.147169915493577719e-05,-2.243041805922985077e-02,6.257312634261325002e-06,2.929011166941108968e-08,2.719498182202073622e-09,1.987316791201010346e-04,7.460961342076188885e-07,2.525705724565341370e-07,2.847350202500820160e-03,-1.001203963824082166e-05,-1.968316973943728954e-05,8.956326236209122271e-10,0.000000000000000000e+00,-2.867293951567262411e-04,1.000000000000000000e+00
9.483780860900878906e-01,6.419884033203125000e+02,4.866401672363281250e+01,4.866401672363281250e+01,-6.147169915493577719e-05,-2.243041805922985077e-02,6.257312634261325002e-06,2.039299396017213439e-08,-1.158721030236620209e-08,4.261280409991741180e-04,-1.270018827881358447e-07,-2.042210667241306510e-07,3.245968604460358620e-03,-5.361972398532088846e-06,-1.332608644588617608e-05,1.045552741607558289e-10,0.000000000000000000e+00,-2.867293951567262411e-04,1.000000000000000000e+00
9.483780860900878906e-01,6.419884033203125000e+02,4.866401672363281250e+01,4.866401672363281250e+01,-6.147169915493577719e-05,-2.243041805922985077e-02,6.257312634261325002e-06,2.039299396017213439e-08,-1.158721030236620209e-08,4.261280409991741180e-04,-1.270018827881358447e-07,-2.042210667241306510e-07,3.245968604460358620e-03,-5.361972398532088846e-06,-1.332608644588617608e-05,1.045552741607558289e-10,0.000000000000000000e+00,-2.867293951567262411e-04,1.000000000000000000e+00
9.483780860900878906e-01,6.419884033203125000e+02,4.866401672363281250e+01,4.866401672363281250e+01,-6.147169915493577719e-05,-2.243041805922985077e-02,6.257312634261325002e-06,2.039299396017213439e-08,-1.158721030236620209e-08,4.261280409991741180e-04,-1.270018827881358447e-07,-2.042210667241306510e-07,3.245968604460358620e-03,-5.361972398532088846e-06,-1.332608644588617608e-05,1.045552741607558289e-10,0.000000000000000000e+00,-2.867293951567262411e-04,1.000000000000000000e+00
9.483780860900878906e-01,6.419884033203125000e+02,4.866401672363281250e+01,4.866401672363281250e+01,-6.147169915493577719e-05,-2.243041805922985077e-02,6.257312634261325002e-06,2.039299396017213439e-08,-1.158721030236620209e-08,4.261280409991741180e-04,-1.270018827881358447e-07,-2.042210667241306510e-07,3.245968604460358620e-03,-5.361972398532088846e-06,-1.332608644588617608e-05,1.045552741607558289e-10,0.000000000000000000e+00,-2.867293951567262411e-04,1.000000000000000000e+00
9.483780860900878906e-01,6.419884033203125000e+02,4.866401672363281250e+01,4.866401672363281250e+01,-6.147169915493577719e-05,-2.243041805922985077e-02,6.257312634261325002e-06,4.080971649500497733e-08,7.488861974991323223e-09,3.006132319569587708e-04,2.590987264738942031e-07,2.420851785700506298e-07,-1.592847518622875214e-03,5.607644652627641335e-06,-2.718138239288236946e-05,3.611922760882180228e-09,0.000000000000000000e+00,-2.867293951567262411e-04,1.000000000000000000e+00
1.027177095413208008e+00,6.419884033203125000e+02,4.866401672363281250e+01,4.866401672363281250e+01,-6.147169915493577719e-05,-2.243041805922985077e-02,6.257312634261325002e-06,4.080971649500497733e-08,7.488861974991323223e-09,3.006132319569587708e-04,2.590987264738942031e-07,2.420851785700506298e-07,-1.592847518622875214e-03,5.607644652627641335e-06,-2.718138239288236946e-05,3.611922760882180228e-09,0.000000000000000000e+00,-2.867293951567262411e-04,1.000000000000000000e+00
1.027177095413208008e+00,6.419884033203125000e+02,4.866401672363281250e+01,4.866401672363281250e+01,-6.147169915493577719e-05,-2.243041805922985077e-02,6.257312634261325002e-06,4.080971649500497733e-08,7.488861974991323223e-09,3.006132319569587708e-04,2.590987264738942031e-07,2.420851785700506298e-07,-1.592847518622875214e-03,5.607644652627641335e-06,-2.718138239288236946e-05,3.611922760882180228e-09,0.000000000000000000e+00,-2.867293951567262411e-04,1.000000000000000000e+00
1.095043420791625977e+00,6.419884033203125000e+02,4.866401672363281250e+01,4.866401672363281250e+01,-6.147169915493577719e-05,-2.243041805922985077e-02,6.257312634261325002e-06,-2.210609117980766314e-08,5.741312314455626620e-09,-8.331415592692792416e-04,-9.270548844142467715e-07,-2.574987867376421491e-08,-1.670570485293865204e-02,1.300847998209064826e-06,1.543100916023831815e-05,-6.851482936554020853e-09,0.000000000000000000e+00,-2.867293951567262411e-04,1.000000000000000000e+00
1.095043420791625977e+00,6.419884033203125000e+02,4.866401672363281250e+01,4.866401672363281250e+01,-6.147169915493577719e-05,-2.243041805922985077e-02,6.257312634261325002e-06,-2.210609117980766314e-08,5.741312314455626620e-09,-8.331415592692792416e-04,-9.270548844142467715e-07,-2.574987867376421491e-08,-1.670570485293865204e-02,1.300847998209064826e-06,1.543100916023831815e-05,-6.851482936554020853e-09,0.000000000000000000e+00,-2.867293951567262411e-04,1.000000000000000000e+00
1.095043420791625977e+00,6.419884033203125000e+02,4.866401672363281250e+01,4.866401672363281250e+01,-6.147169915493577719e-05,-2.243041805922985077e-02,6.257312634261325002e-06,-2.210609117980766314e-08,5.741312314455626620e-09,-8.331415592692792416e-04,-9.270548844142467715e-07,-2.574987867376421491e-08,-1.670570485293865204e-02,1.300847998209064826e-06,1.543100916023831815e-05,-6.851482936554020853e-09,0.000000000000000000e+00,-2.867293951567262411e-04,1.000000000000000000e+00
1.095043420791625977e+00,6.419884033203125000e+02,4.866401672363281250e+01,4.866401672363281250e+01,-6.147169915493577719e-05,-2.243041805922985077e-02,6.257312634261325002e-06,-2.210609117980766314e-08,5.741312314455626620e-09,-8.331415592692792416e-04,-9.270548844142467715e-07,-2.574987867376421491e-08,-1.670570485293865204e-02,1.300847998209064826e-06,1.543100916023831815e-05,-6.851482936554020853e-09,0.000000000000000000e+00,-2.867293951567262411e-04,1.000000000000000000e+00
1.168572425842285156e+00,6.419884033203125000e+02,4.866401672363281250e+01,4.866401672363281250e+01,-6.147169915493577719e-05,-2.243041805922985077e-02,6.257312634261325002e-06,-2.622379291494780773e-08,2.506607810204286579e-09,1.424081157892942429e-03,-5.600105268399602210e-08,-4.399222319761975086e-08,3.069839812815189362e-02,-8.935959954214922618e-07,1.768409128999337554e-05,-2.992950332014743253e-09,0.000000000000000000e+00,-2.867293951567262411e-04,1.000000000000000000e+00
1.168572425842285156e+00,6.419884033203125000e+02,4.866401672363281250e+01,4.866401672363281250e+01,-6.147169915493577719e-05,-2.243041805922985077e-02,6.257312634261325002e-06,-2.622379291494780773e-08,2.506607810204286579e-09,1.424081157892942429e-03,-5.600105268399602210e-08,-4.399222319761975086e-08,3.069839812815189362e-02,-8.935959954214922618e-07,1.768409128999337554e-05,-2.992950332014743253e-09,0.000000000000000000e+00,-2.867293951567262411e-04,1.000000000000000000e+00
1.168572425842285156e+00,6.419884033203125000e+02,4.866401672363281250e+01,4.866401672363281250e+01,-6.147169915493577719e-05,-2.243041805922985077e-02,6.257312634261325002e-06,-2.622379291494780773e-08,2.506607810204286579e-09,1.424081157892942429e-03,-5.600105268399602210e-08,-4.399222319761975086e-08,3.069839812815189362e-02,-8.935959954214922618e-07,1.768409128999337554e-05,-2.992950332014743253e-09,0.000000000000000000e+00,-2.867293951567262411e-04,1.000000000000000000e+00
1.168572425842285156e+00,6.419884033203125000e+02,4.866401672363281250e+01,4.866401672363281250e+01,-6.147169915493577719e-05,-2.243041805922985077e-02,6.257312634261325002e-06,-2.622379291494780773e-08,2.506607810204286579e-09,1.424081157892942429e-03,-5.600105268399602210e-08,-4.399222319761975086e-08,3.069839812815189362e-02,-8.935959954214922618e-07,1.768409128999337554e-05,-2.992950332014743253e-09,0.000000000000000000e+00,-2.867293951567262411e-04,1.000000000000000000e+00
1.168572425842285156e+00,6.419884033203125000e+02,4.866401672363281250e+01,4.866401672363281250e+01,-6.147169915493577719e-05,-2.243041805922985077e-02,6.257312634261325002e-06,-3.064468856450730527e-08,-4.881861137562282238e-09,-8.969895134214311838e-05,-5.890722221124633506e-08,-9.844932691294161486e-08,-2.017070539295673370e-02,-2.564026317486423068e-06,2.004366979235783219e-05,-3.112067270549800924e-10,0.000000000000000000e+00,-2.867293951567262411e-04,1.000000000000000000e+00
1.243620872497558594e+00,6.419884033203125000e+02,4.866401672363281250e+01,4.866401672363281250e+01,-6.147169915493577719e-05,-2.243041805922985077e-02,6.257312634261325002e-06,-3.064468856450730527e-08,-4.881861137562282238e-09,-8.969895134214311838e-05,-5.890722221124633506e-08,-9.844932691294161486e-08,-2.017070539295673370e-02,-2.564026317486423068e-06,2.004366979235783219e-05,-3.112067270549800924e-10,0.000000000000000000e+00,-2.867293951567262411e-04,1.000000000000000000e+00
1.243620872497558594e+00,6.419884033203125000e+02,4.866401672363281250e+01,4.866401672363281250e+01,-6.147169915493577719e-05,-2.243041805922985077e-02,6.257312634261325002e-06,-3.064468856450730527e-08,-4.881861137562282238e-09,-8.969895134214311838e-05,-5.890722221124633506e-08,-9.844932691294161486e-08,-2.017070539295673370e-02,-2.564026317486423068e-06,2.004366979235783219e-05,-3.112067270549800924e-10,0.000000000000000000e+00,-2.867293951567262411e-04,1.000000000000000000e+00
1.243620872497558594e+00,6.419884033203125000e+02,4.866401672363281250e+01,4.866401672363281250e+01,-6.147169915493577719e-05,-2.243041805922985077e-02,6.257312634261325002e-06,-3.064468856450730527e-08,-4.881861137562282238e-09,-8.969895134214311838e-05,-5.890722221124633506e-08,-9.844932691294161486e-08,-2.017070539295673370e-02,-2.564026317486423068e-06,2.004366979235783219e-05,-3.112067270549800924e-10,0.000000000000000000e+00,-2.867293951567262411e-04,1.000000000000000000e+00
1.312042951583862305e+00,6.419884033203125000e+02,4.866401672363281250e+01,4.866401672363281250e+01,-6.147169915493577719e-05,-2.243041805922985077e-02,6.257312634261325002e-06,-1.212742262168831076e-08,4.090286509494944767e-08,-1.505911786807700992e-04,2.706329098600690486e-07,6.691513476653199177e-07,-8.899499662220478058e-04,3.140646367683075368e-05,8.490562322549521923e-06,1.958893935949390652e-09,0.000000000000000000e+00,-2.867293951567262411e-04,1.000000000000000000e+00
1.312042951583862305e+00,6.419884033203125000e+02,4.866401672363281250e+01,4.866401672363281250e+01,-6.147169915493577719e-05,-2.243041805922985077e-02,6.257312634261325002e-06,-1.212742262168831076e-08,4.090286509494944767e-08,-1.505911786807700992e-04,2.706329098600690486e-07,6.691513476653199177e-07,-8.899499662220478058e-04,3.140646367683075368e-05,8.490562322549521923e-06,1.958893935949390652e-09,0.000000000000000000e+00,-2.867293951567262411e-04,1.000000000000000000e+00
1.312042951583862305e+00,6.419884033203125000e+02,4.866401672363281250e+01,4.866401672363281250e+01,-6.147169915493577719e-05,-2.243041805922985077e-02,6.257312634261325002e-06,3.780058577262934705e-08,-1.130977445029657247e-08,3.089958627242594957e-04,7.023566013231175020e-07,-7.344954155996674672e-07,6.465188227593898773e-03,-5.897421488043619320e-06,-2.677700103959068656e-05,9.086847718720036937e-09,0.000000000000000000e+00,-2.867293951567262411e-04,1.000000000000000000e+00
1.383129358291625977e+00,6.419884033203125000e+02,4.866401672363281250e+01,4.866401672363281250e+01,-6.147169915493577719e-05,-2.243041805922985077e-02,6.257312634261325002e-06,3.780058577262934705e-08,-1.130977445029657247e-08,3.089958627242594957e-04,7.023566013231175020e-07,-7.344954155996674672e-07,6.465188227593898773e-03,-5.897421488043619320e-06,-2.677700103959068656e-05,9.086847718720036937e-09,0.000000000000000000e+00,-2.867293951567262411e-04,1.000000000000000000e+00
1.383129358291625977e+00,6.419884033203125000e+02,4.866401672363281250e+01,4.866401672363281250e+01,-6.147169915493577719e-05,-2.243041805922985077e-02,6.257312634261325002e-06,3.780058577262934705e-08,-1.130977445029657247e-08,3.089958627242594957e-04,7.023566013231175020e-07,-7.344954155996674672e-07,6.465188227593898773e-03,-5.897421488043619320e-06,-2.677700103959068656e-05,9.086847718720036937e-09,0.000000000000000000e+00,-2.867293951567262411e-04,1.000000000000000000e+00
1.450951814651489258e+00,6.419884033203125000e+02,4.866401672363281250e+01,4.866401672363281250e+01,-6.147169915493577719e-05,-2.243041805922985077e-02,6.257312634261325002e-06,1.375490166211079668e-09,-6.219852410893622618e-10,-4.235619053361006081e-05,-5.370654321268375497e-07,1.575848216361919185e-07,-5.180467851459980011e-03,-1.199405414809007198e-05,-4.218925653276528465e-07,-4.141788689793202138e-09,0.000000000000000000e+00,-2.867293951567262411e-04,1.000000000000000000e+00
1.450951814651489258e+00,6.419884033203125000e+02,4.866401672363281250e+01,4.866401672363281250e+01,-6.147169915493577719e-05,-2.243041805922985077e-02,6.257312634261325002e-06,1.375490166211079668e-09,-6.219852410893622618e-10,-4.235619053361006081e-05,-5.370654321268375497e-07,1.575848216361919185e-07,-5.180467851459980011e-03,-1.199405414809007198e-05,-4.218925653276528465e-07,-4.141788689793202138e-09,0.000000000000000000e+00,-2.867293951567262411e-04,1.000000000000000000e+00
1.450951814651489258e+00,6.419884033203125000e+02,4.866401672363281250e+01,4.866401672363281250e+01,-6.147169915493577719e-05,-2.243041805922985077e-02,6.257312634261325002e-06,1.375490166211079668e-09,-6.219852410893622618e-10,-4.235619053361006081e-05,-5.370654321268375497e-07,1.575848216361919185e-07,-5.180467851459980011e-03,-1.199405414809007198e-05,-4.218925653276528465e-07,-4.141788689793202138e-09,0.000000000000000000e+00,-2.867293951567262411e-04,1.000000000000000000e+00
1.527701377868652344e+00,6.419884033203125000e+02,4.866401672363281250e+01,4.866401672363281250e+01,-6.147169915493577719e-05,-2.243041805922985077e-02,6.257312634261325002e-06,2.307769086939970293e-08,-1.690628259609638917e-08,5.756359896622598171e-04,2.827664502547122538e-07,-2.121744557825877564e-07,8.052061311900615692e-03,-7.240190370794152841e-06,-1.456556583434576169e-05,-3.457648833915527575e-09,0.000000000000000000e+00,-2.867293951567262411e-04,1.000000000000000000e+00
1.527701377868652344e+00,6.419884033203125000e+02,4.866401672363281250e+01,4.866401672363281250e+01,-6.147169915493577719e-05,-2.243041805922985077e-02,6.257312634261325002e-06,2.307769086939970293e-08,-1.690628259609638917e-08,5.756359896622598171e-04,2.827664502547122538e-07,-2.121744557825877564e-07,8.052061311900615692e-03,-7.240190370794152841e-06,-1.456556583434576169e-05,-3.457648833915527575e-09,0.000000000000000000e+00,-2.867293951567262411e-04,1.000000000000000000e+00
1.527701377868652344e+00,6.419884033203125000e+02,4.866401672363281250e+01,4.866401672363281250e+01,-6.147169915493577719e-05,-2.243041805922985077e-02,6.257312634261325002e-06,2.307769086939970293e-08,-1.690628259609638917e-08,5.756359896622598171e-04,2.827664502547122538e-07,-2.121744557825877564e-07,8.052061311900615692e-03,-7.240190370794152841e-06,-1.456556583434576169e-05,-3.457648833915527575e-09,0.000000000000000000e+00,-2.867293951567262411e-04,1.000000000000000000e+00
1.600134611129760742e+00,6.419884033203125000e+02,4.866401672363281250e+01,4.866401672363281250e+01,-6.147169915493577719e-05,-2.243041805922985077e-02,6.257312634261325002e-06,-4.612064952169703247e-09,-3.634359302395751001e-08,-7.777164573781192303e-04,-3.822797225438989699e-07,-2.683479749521211488e-07,-1.868413761258125305e-02,-1.887979851744603366e-05,3.025793148481170647e-06,-1.920424264056919128e-09,0.000000000000000000e+00,-2.867293951567262411e-04,1.000000000000000000e+00
1.600134611129760742e+00,6.419884033203125000e+02,4.866401672363281250e+01,4.866401672363281250e+01,-6.147169915493577719e-05,-2.243041805922985077e-02,6.257312634261325002e-06,-4.612064952169703247e-09,-3.634359302395751001e-08,-7.777164573781192303e-04,-3.822797225438989699e-07,-2.683479749521211488e-07,-1.868413761258125305e-02,-1.887979851744603366e-05,3.025793148481170647e-06,-1.920424264056919128e-09,0.000000000000000000e+00,-2.867293951567262411e-04,1.000000000000000000e+00
1.600134611129760742e+00,6.419884033203125000e+02,4.866401672363281250e+01,4.866401672363281250e+01,-6.147169915493577719e-05,-2.243041805922985077e-02,6.257312634261325002e-06,-4.612064952169703247e-09,-3.634359302395751001e-08,-7.777164573781192303e-04,-3.822797225438989699e-07,-2.683479749521211488e-07,-1.868413761258125305e-02,-1.887979851744603366e-05,3.025793148481170647e-06,-1.920424264056919128e-09,0.000000000000000000e+00,-2.867293951567262411e-04,1.000000000000000000e+00
1.600134611129760742e+00,6.419884033203125000e+02,4.866401672363281250e+01,4.866401672363281250e+01,-6.147169915493577719e-05,-2.243041805922985077e-02,6.257312634261325002e-06,-4.612064952169703247e-09,-3.634359302395751001e-08,-7.777164573781192303e-04,-3.822797225438989699e-07,-2.683479749521211488e-07,-1.868413761258125305e-02,-1.887979851744603366e-05,3.025793148481170647e-06,-1.920424264056919128e-09,0.000000000000000000e+00,-2.867293951567262411e-04,1.000000000000000000e+00
1.600134611129760742e+00,6.419884033203125000e+02,4.866401672363281250e+01,4.866401672363281250e+01,-6.147169915493577719e-05,-2.243041805922985077e-02,6.257312634261325002e-06,-4.612064952169703247e-09,-3.634359302395751001e-08,-7.777164573781192303e-04,-3.822797225438989699e-07,-2.683479749521211488e-07,-1.868413761258125305e-02,-1.887979851744603366e-05,3.025793148481170647e-06,-1.920424264056919128e-09,0.000000000000000000e+00,-2.867293951567262411e-04,1.000000000000000000e+00
1.600134611129760742e+00,6.419884033203125000e+02,4.866401672363281250e+01,4.866401672363281250e+01,-6.147169915493577719e-05,-2.243041805922985077e-02,6.257312634261325002e-06,3.645111235073272837e-08,-3.845221741016757733e-08,4.811829712707549334e-04,3.558986350071791094e-07,-1.827565654366480885e-08,1.091100648045539856e-02,-1.836098090279847383e-05,-2.382277489232365042e-05,2.977762481037871112e-10,0.000000000000000000e+00,-2.867293951567262411e-04,1.000000000000000000e+00
1.715513467788696289e+00,6.419884033203125000e+02,4.866401672363281250e+01,4.866401672363281250e+01,-6.147169915493577719e-05,-2.243041805922985077e-02,6.257312634261325002e-06,3.645111235073272837e-08,-3.845221741016757733e-08,4.811829712707549334e-04,3.558986350071791094e-07,-1.827565654366480885e-08,1.091100648045539856e-02,-1.836098090279847383e-05,-2.382277489232365042e-05,2.977762481037871112e-10,0.000000000000000000e+00,-2.867293951567262411e-04,1.000000000000000000e+00
1.715513467788696289e+00,6.419884033203125000e+02,4.866401672363281250e+01,4.866401672363281250e+01,-6.147169915493577719e-05,-2.243041805922985077e-02,6.257312634261325002e-06,3.645111235073272837e-08,-3.845221741016757733e-08,4.811829712707549334e-04,3.558986350071791094e-07,-1.827565654366480885e-08,1.091100648045539856e-02,-1.836098090279847383e-05,-2.382277489232365042e-05,2.977762481037871112e-10,0.000000000000000000e+00,-2.867293951567262411e-04,1.000000000000000000e+00
1.715513467788696289e+00,6.419884033203125000e+02,4.866401672363281250e+01,4.866401672363281250e+01,-6.147169915493577719e-05,-2.243041805922985077e-02,6.257312634261325002e-06,3.645111235073272837e-08,-3.845221741016757733e-08,4.811829712707549334e-04,3.558986350071791094e-07,-1.827565654366480885e-08,1.091100648045539856e-02,-1.836098090279847383e-05,-2.382277489232365042e-05,2.977762481037871112e-10,0.000000000000000000e+00,-2.867293951567262411e-04,1.000000000000000000e+00
1.813115119934082031e+00,6.419884033203125000e+02,4.866401672363281250e+01,4.866401672363281250e+01,-6.147169915493577719e-05,-2.243041805922985077e-02,6.257312634261325002e-06,-3.994413688701570209e-08,-4.631636230101321416e-08,-8.903926209313794971e-05,-7.827250101399840787e-07,-8.057389067062104004e-08,-5.842342041432857513e-03,-3.206179826520383358e-05,2.704697180888615549e-05,-7.690373671209727036e-09,0.000000000000000000e+00,-2.867293951567262411e-04,1.000000000000000000e+00
1.813115119934082031e+00,6.419884033203125000e+02,4.866401672363281250e+01,4.866401672363281250e+01,-6.147169915493577719e-05,-2.243041805922985077e-02,6.257312634261325002e-06,-3.994413688701570209e-08,-4.631636230101321416e-08,-8.903926209313794971e-05,-7.827250101399840787e-07,-8.057389067062104004e-08,-5.842342041432857513e-03,-3.206179826520383358e-05,2.704697180888615549e-05,-7.690373671209727036e-09,0.000000000000000000e+00,-2.867293951567262411e-04,1.000000000000000000e+00
1.813115119934082031e+00,6.419884033203125000e+02,4.866401672363281250e+01,4.866401672363281250e+01,-6.147169915493577719e-05,-2.243041805922985077e-02,6.257312634261325002e-06,-3.994413688701570209e-08,-4.631636230101321416e-08,-8.903926209313794971e-05,-7.827250101399840787e-07,-8.057389067062104004e-08,-5.842342041432857513e-03,-3.206179826520383358e-05,2.704697180888615549e-05,-7.690373671209727036e-09,0.000000000000000000e+00,-2.867293951567262411e-04,1.000000000000000000e+00
1.813115119934082031e+00,6.419884033203125000e+02,4.866401672363281250e+01,4.866401672363281250e+01,-6.147169915493577719e-05,-2.243041805922985077e-02,6.257312634261325002e-06,-3.994413688701570209e-08,-4.631636230101321416e-08,-8.903926209313794971e-05,-7.827250101399840787e-07,-8.057389067062104004e-08,-5.842342041432857513e-03,-3.206179826520383358e-05,2.704697180888615549e-05,-7.690373671209727036e-09,0.000000000000000000e+00,-2.867293951567262411e-04,1.000000000000000000e+00
1.896134853363037109e+00,6.419884033203125000e+02,4.866401672363281250e+01,4.866401672363281250e+01,-6.147169915493577719e-05,-2.243041805922985077e-02,6.257312634261325002e-06,-8.180009447578129311e-10,-5.763204136144395306e-09,4.091264563612639904e-04,4.712871657375217183e-07,4.884761324319697451e-07,6.000570021569728851e-03,7.276384167198557407e-06,5.579389039667148609e-07,2.232236617771832243e-09,0.000000000000000000e+00,-2.867293951567262411e-04,1.000000000000000000e+00
1.896134853363037109e+00,6.419884033203125000e+02,4.866401672363281250e+01,4.866401672363281250e+01,-6.147169915493577719e-05,-2.243041805922985077e-02,6.257312634261325002e-06,-8.180009447578129311e-10,-5.763204136144395306e-09,4.091264563612639904e-04,4.712871657375217183e-07,4.884761324319697451e-07,6.000570021569728851e-03,7.276384167198557407e-06,5.579389039667148609e-07,2.232236617771832243e-09,0.000000000000000000e+00,-2.867293951567262411e-04,1.000000000000000000e+00
1.896134853363037109e+00,6.419884033203125000e+02,4.866401672363281250e+01,4.866401672363281250e+01,-6.147169915493577719e-05,-2.243041805922985077e-02,6.257312634261325002e-06,-8.180009447578129311e-10,-5.763204136144395306e-09,4.091264563612639904e-04,4.712871657375217183e-07,4.884761324319697451e-07,6.000570021569728851e-03,7.276384167198557407e-06,5.579389039667148609e-07,2.232236617771832243e-09,0.000000000000000000e+00,-2.867293951567262411e-04,1.000000000000000000e+00
1.896134853363037109e+00,6.419884033203125000e+02,4.866401672363281250e+01,4.866401672363281250e+01,-6.147169915493577719e-05,-2.243041805922985077e-02,6.257312634261325002e-06,-8.180009447578129311e-10,-5.763204136144395306e-09,4.091264563612639904e-04,4.712871657375217183e-07,4.884761324319697451e-07,6.000570021569728851e-03,7.276384167198557407e-06,5.579389039667148609e-07,2.232236617771832243e-09,0.000000000000000000e+00,-2.867293951567262411e-04,1.000000000000000000e+00
1.896134853363037109e+00,6.419884033203125000e+02,4.866401672363281250e+01,4.866401672363281250e+01,-6.147169915493577719e-05,-2.243041805922985077e-02,6.257312634261325002e-06,-8.180009447578129311e-10,-5.763204136144395306e-09,4.091264563612639904e-04,4.712871657375217183e-07,4.884761324319697451e-07,6.000570021569728851e-03,7.276384167198557407e-06,5.579389039667148609e-07,2.232236617771832243e-09,0.000000000000000000e+00,-2.867293951567262411e-04,1.000000000000000000e+00
1.896134853363037109e+00,6.419884033203125000e+02,4.866401672363281250e+01,4.866401672363281250e+01,-6.147169915493577719e-05,-2.243041805922985077e-02,6.257312634261325002e-06,-8.180009447578129311e-10,-5.763204136144395306e-09,4.091264563612639904e-04,4.712871657375217183e-07,4.884761324319697451e-07,6.000570021569728851e-03,7.276384167198557407e-06,5.579389039667148609e-07,2.232236617771832243e-09,0.000000000000000000e+00,-2.867293951567262411e-04,1.000000000000000000e+00
1.896134853363037109e+00,6.419884033203125000e+02,4.866401672363281250e+01,4.866401672363281250e+01,-6.147169915493577719e-05,-2.243041805922985077e-02,6.257312634261325002e-06,-8.180009447578129311e-10,-5.763204136144395306e-09,4.091264563612639904e-04,4.712871657375217183e-07,4.884761324319697451e-07,6.000570021569728851e-03,7.276384167198557407e-06,5.579389039667148609e-07,2.232236617771832243e-09,0.000000000000000000e+00,-2.867293951567262411e-04,1.000000000000000000e+00
2.195794820785522461e+00,6.419884033203125000e+02,4.866401672363281250e+01,4.866401672363281250e+01,-6.147169915493577719e-05,-2.243041805922985077e-02,6.257312634261325002e-06,3.039302853835579299e-08,-1.232244750681843470e-09,1.279729767702519894e-03,7.300677395960519789e-08,5.588028670899802819e-07,2.228912524878978729e-02,-1.163248816737905145e-05,-2.040526123892050236e-05,4.063770708828684519e-10,0.000000000000000000e+00,-2.867293951567262411e-04,1.000000000000000000e+00
2.195794820785522461e+00,6.419884033203125000e+02,4.866401672363281250e+01,4.866401672363281250e+01,-6.147169915493577719e-05,-2.243041805922985077e-02,6.257312634261325002e-06,3.039302853835579299e-08,-1.232244750681843470e-09,1.279729767702519894e-03,7.300677395960519789e-08,5.588028670899802819e-07,2.228912524878978729e-02,-1.163248816737905145e-05,-2.040526123892050236e-05,4.063770708828684519e-10,0.000000000000000000e+00,-2.867293951567262411e-04,1.000000000000000000e+00
2.195794820785522461e+00,6.419884033203125000e+02,4.866401672363281250e+01,4.866401672363281250e+01,-6.147169915493577719e-05,-2.243041805922985077e-02,6.257312634261325002e-06,3.039302853835579299e-08,-1.232244750681843470e-09,1.279729767702519894e-03,7.300677395960519789e-08,5.588028670899802819e-07,2.228912524878978729e-02,-1.163248816737905145e-05,-2.040526123892050236e-05,4.063770708828684519e-10,0.000000000000000000e+00,-2.867293951567262411e-04,1.000000000000000000e+00
2.195794820785522461e+00,6.419884033203125000e+02,4.866401672363281250e+01,4.866401672363281250e+01,-6.147169915493577719e-05,-2.243041805922985077e-02,6.257312634261325002e-06,3.039302853835579299e-08,-1.232244750681843470e-09,1.279729767702519894e-03,7.300677395960519789e-08,5.588028670899802819e-07,2.228912524878978729e-02,-1.163248816737905145e-05,-2.040526123892050236e-05,4.063770708828684519e-10,0.000000000000000000e+00,-2.867293951567262411e-04,1.000000000000000000e+00
2.195794820785522461e+00,6.419884033203125000e+02,4.866401672363281250e+01,4.866401672363281250e+01,-6.147169915493577719e-05,-2.243041805922985077e-02,6.257312634261325002e-06,3.039302853835579299e-08,-1.232244750681843470e-09,1.279729767702519894e-03,7.300677395960519789e-08,5.588028670899802819e-07,2.228912524878978729e-02,-1.163248816737905145e-05,-2.040526123892050236e-05,4.063770708828684519e-10,0.000000000000000000e+00,-2.867293951567262411e-04,1.000000000000000000e+00
2.195794820785522461e+00,6.419884033203125000e+02,4.866401672363281250e+01,4.866401672363281250e+01,-6.147169915493577719e-05,-2.243041805922985077e-02,6.257312634261325002e-06,3.039302853835579299e-08,-1.232244750681843470e-09,1.279729767702519894e-03,7.300677395960519789e-08,5.588028670899802819e-07,2.228912524878978729e-02,-1.163248816737905145e-05,-2.040526123892050236e-05,4.063770708828684519e-10,0.000000000000000000e+00,-2.867293951567262411e-04,1.000000000000000000e+00
2.195794820785522461e+00,6.419884033203125000e+02,4.866401672363281250e+01,4.866401672363281250e+01,-6.147169915493577719e-05,-2.243041805922985077e-02,6.257312634261325002e-06,3.039302853835579299e-08,-1.232244750681843470e-09,1.279729767702519894e-03,7.300677395960519789e-08,5.588028670899802819e-07,2.228912524878978729e-02,-1.163248816737905145e-05,-2.040526123892050236e-05,4.063770708828684519e-10,0.000000000000000000e+00,-2.867293951567262411e-04,1.000000000000000000e+00
2.195794820785522461e+00,6.419884033203125000e+02,4.866401672363281250e+01,4.866401672363281250e+01,-6.147169915493577719e-05,-2.243041805922985077e-02,6.257312634261325002e-06,3.039302853835579299e-08,-1.232244750681843470e-09,1.279729767702519894e-03,7.300677395960519789e-08,5.588028670899802819e-07,2.228912524878978729e-02,-1.163248816737905145e-05,-2.040526123892050236e-05,4.063770708828684519e-10,0.000000000000000000e+00,-2.867293951567262411e-04,1.000000000000000000e+00
2.195794820785522461e+00,6.419884033203125000e+02,4.866401672363281250e+01,4.866401672363281250e+01,-6.147169915493577719e-05,-2.243041805922985077e-02,6.257312634261325002e-06,3.039302853835579299e-08,-1.232244750681843470e-09,1.279729767702519894e-03,7.300677395960519789e-08,5.588028670899802819e-07,2.228912524878978729e-02,-1.163248816737905145e-05,-2.040526123892050236e-05,4.063770708828684519e-10,0.000000000000000000e+00,-2.867293951567262411e-04,1.000000000000000000e+00
2.195794820785522461e+00,6.419884033203125000e+02,4.866401672363281250e+01,4.866401672363281250e+01,-6.147169915493577719e-05,-2.243041805922985077e-02,6.257312634261325002e-06,3.039302853835579299e-08,-1.232244750681843470e-09,1.279729767702519894e-03,7.300677395960519789e-08,5.588028670899802819e-07,2.228912524878978729e-02,-1.163248816737905145e-05,-2.040526123892050236e-05,4.063770708828684519e-10,0.000000000000000000e+00,-2.867293951567262411e-04,1.000000000000000000e+00
2.374083757400512695e+00,6.419884033203125000e+02,4.866401672363281250e+01,4.866401672363281250e+01,-6.147169915493577719e-05,-2.243041805922985077e-02,6.257312634261325002e-06,5.986988327322251280e-08,-9.369153453064882342e-09,2.173230750486254692e-04,1.653319259276031516e-07,-4.563888822417538904e-08,-5.958904046565294266e-03,-6.519884209410520270e-06,-4.072930096299387515e-05,6.460900703331162731e-09,0.000000000000000000e+00,-2.867293951567262411e-04,1.000000000000000000e+00
2.374083757400512695e+00,6.419884033203125000e+02,4.866401672363281250e+01,4.866401672363281250e+01,-6.147169915493577719e-05,-2.243041805922985077e-02,6.257312634261325002e-06,5.986988327322251280e-08,-9.369153453064882342e-09,2.173230750486254692e-04,1.653319259276031516e-07,-4.563888822417538904e-08,-5.958904046565294266e-03,-6.519884209410520270e-06,-4.072930096299387515e-05,6.460900703331162731e-09,0.000000000000000000e+00,-2.867293951567262411e-04,1.000000000000000000e+00
2.374083757400512695e+00,6.419884033203125000e+02,4.866401672363281250e+01,4.866401672363281250e+01,-6.147169915493577719e-05,-2.243041805922985077e-02,6.257312634261325002e-06,5.986988327322251280e-08,-9.369153453064882342e-09,2.173230750486254692e-04,1.653319259276031516e-07,-4.563888822417538904e-08,-5.958904046565294266e-03,-6.519884209410520270e-06,-4.072930096299387515e-05,6.460900703331162731e-09,0.000000000000000000e+00,-2.867293951567262411e-04,1.000000000000000000e+00
2.447860002517700195e+00,6.419884033203125000e+02,4.866401672363281250e+01,4.866401672363281250e+01,-6.147169915493577719e-05,-2.243041805922985077e-02,6.257312634261325002e-06,-2.373855423343229631e-08,2.018640010703620646e-08,-1.554439775645732880e-03,-1.133270529862784315e-06,4.006107303666794905e-07,-2.401535771787166595e-02,-2.179130888180225156e-06,1.603448254172690213e-05,-5.534368074933126991e-09,0.000000000000000000e+00,-2.867293951567262411e-04,1.000000000000000000e+00
2.447860002517700195e+00,6.419884033203125000e+02,4.866401672363281250e+01,4.866401672363281250e+01,-6.147169915493577719e-05,-2.243041805922985077e-02,6.257312634261325002e-06,-2.373855423343229631e-08,2.018640010703620646e-08,-1.554439775645732880e-03,-1.133270529862784315e-06,4.006107303666794905e-07,-2.401535771787166595e-02,-2.179130888180225156e-06,1.603448254172690213e-05,-5.534368074933126991e-09,0.000000000000000000e+00,-2.867293951567262411e-04,1.000000000000000000e+00
2.500878810882568359e+00,6.419884033203125000e+02,4.866401672363281250e+01,4.866401672363281250e+01,-6.147169915493577719e-05,-2.243041805922985077e-02,6.257312634261325002e-06,-3.039381368807880790e-08,-7.880318619868376118e-09,1.014311797916889191e-03,-1.255263839539111359e-07,-5.293728690958232619e-07,4.844981804490089417e-02,-4.323193934396840632e-06,1.989299016713630408e-05,-7.402975454873228500e-10,0.000000000000000000e+00,-2.867293951567262411e-04,1.000000000000000000e+00
2.500878810882568359e+00,6.419884033203125000e+02,4.866401672363281250e+01,4.866401672363281250e+01,-6.147169915493577719e-05,-2.243041805922985077e-02,6.257312634261325002e-06,-3.039381368807880790e-08,-7.880318619868376118e-09,1.014311797916889191e-03,-1.255263839539111359e-07,-5.293728690958232619e-07,4.844981804490089417e-02,-4.323193934396840632e-06,1.989299016713630408e-05,-7.402975454873228500e-10,0.000000000000000000e+00,-2.867293951567262411e-04,1.000000000000000000e+00
2.500878810882568359e+00,6.419884033203125000e+02,4.866401672363281250e+01,4.866401672363281250e+01,-6.147169915493577719e-05,-2.243041805922985077e-02,6.257312634261325002e-06,-3.039381368807880790e-08,-7.880318619868376118e-09,1.014311797916889191e-03,-1.255263839539111359e-07,-5.293728690958232619e-07,4.844981804490089417e-02,-4.323193934396840632e-06,1.989299016713630408e-05,-7.402975454873228500e-10,0.000000000000000000e+00,-2.867293951567262411e-04,1.000000000000000000e+00
2.560195446014404297e+00,6.419884033203125000e+02,4.866401672363281250e+01,4.866401672363281250e+01,-6.147169915493577719e-05,-2.243041805922985077e-02,6.257312634261325002e-06,4.677254494822591369e-08,8.384690275420325634e-09,1.829724875278770924e-03,1.300922804148285650e-06,2.742065419170103269e-07,1.374678593128919601e-02,-7.538461886724689975e-06,-3.109082899754866958e-05,4.729889813148702160e-10,0.000000000000000000e+00,-2.867293951567262411e-04,1.000000000000000000e+00
2.560195446014404297e+00,6.419884033203125000e+02,4.866401672363281250e+01,4.866401672363281250e+01,-6.147169915493577719e-05,-2.243041805922985077e-02,6.257312634261325002e-06,4.677254494822591369e-08,8.384690275420325634e-09,1.829724875278770924e-03,1.300922804148285650e-06,2.742065419170103269e-07,1.374678593128919601e-02,-7.538461886724689975e-06,-3.109082899754866958e-05,4.729889813148702160e-10,0.000000000000000000e+00,-2.867293951567262411e-04,1.000000000000000000e+00
2.618730545043945312e+00,6.419884033203125000e+02,4.866401672363281250e+01,4.866401672363281250e+01,-6.147169915493577719e-05,-2.243041805922985077e-02,6.257312634261325002e-06,-4.003326381507577025e-08,-2.035324975224739319e-08,-3.676441265270113945e-04,-1.482970219512935728e-06,-4.909522886009654030e-07,-3.753934055566787720e-02,-9.863102604867890477e-06,2.619236147438641638e-05,-1.081039480155254751e-09,0.000000000000000000e+00,-2.867293951567262411e-04,1.000000000000000000e+00
2.618730545043945312e+00,6.419884033203125000e+02,4.866401672363281250e+01,4.866401672363281250e+01,-6.147169915493577719e-05,-2.243041805922985077e-02,6.257312634261325002e-06,-4.003326381507577025e-08,-2.035324975224739319e-08,-3.676441265270113945e-04,-1.482970219512935728e-06,-4.909522886009654030e-07,-3.753934055566787720e-02,-9.863102604867890477e-06,2.619236147438641638e-05,-1.081039480155254751e-09,0.000000000000000000e+00,-2.867293951567262411e-04,1.000000000000000000e+00
2.677334070205688477e+00,6.419884033203125000e+02,4.866401672363281250e+01,4.866401672363281250e+01,-6.147169915493577719e-05,-2.243041805922985077e-02,6.257312634261325002e-06,-3.870724227250654792e-11,-2.820465638819769083e-08,-2.092055183311458677e-05,6.824599267929443158e-07,-1.339749928774836008e-07,5.916428286582231522e-03,-1.355969561700476333e-05,-1.007051064760844383e-08,5.326299956642799316e-10,0.000000000000000000e+00,-2.867293951567262411e-04,1.000000000000000000e+00
2.677334070205688477e+00,6.419884033203125000e+02,4.866401672363281250e+01,4.866401672363281250e+01,-6.147169915493577719e-05,-2.243041805922985077e-02,6.257312634261325002e-06,-3.870724227250654792e-11,-2.820465638819769083e-08,-2.092055183311458677e-05,6.824599267929443158e-07,-1.339749928774836008e-07,5.916428286582231522e-03,-1.355969561700476333e-05,-1.007051064760844383e-08,5.326299956642799316e-10,0.000000000000000000e+00,-2.867293951567262411e-04,1.000000000000000000e+00
2.677334070205688477e+00,6.419884033203125000e+02,4.866401672363281250e+01,4.866401672363281250e+01,-6.147169915493577719e-05,-2.243041805922985077e-02,6.257312634261325002e-06,-3.870724227250654792e-11,-2.820465638819769083e-08,-2.092055183311458677e-05,6.824599267929443158e-07,-1.339749928774836008e-07,5.916428286582231522e-03,-1.355969561700476333e-05,-1.007051064760844383e-08,5.326299956642799316e-10,0.000000000000000000e+00,-2.867293951567262411e-04,1.000000000000000000e+00
2.677334070205688477e+00,6.419884033203125000e+02,4.866401672363281250e+01,4.866401672363281250e+01,-6.147169915493577719e-05,-2.243041805922985077e-02,6.257312634261325002e-06,-3.870724227250654792e-11,-2.820465638819769083e-08,-2.092055183311458677e-05,6.824599267929443158e-07,-1.339749928774836008e-07,5.916428286582231522e-03,-1.355969561700476333e-05,-1.007051064760844383e-08,5.326299956642799316e-10,0.000000000000000000e+00,-2.867293951567262411e-04,1.000000000000000000e+00
2.755024909973144531e+00,6.419884033203125000e+02,4.866401672363281250e+01,4.866401672363281250e+01,-6.147169915493577719e-05,-2.243041805922985077e-02,6.257312634261325002e-06,0.000000000000000000e+00,0.000000000000000000e+00,0.000000000000000000e+00,4.982214640847359988e-10,3.630370883911382407e-07,2.692795242182910442e-04,0.000000000000000000e+00,0.000000000000000000e+00,0.000000000000000000e+00,0.000000000000000000e+00,-2.867293951567262411e-04,1.000000000000000000e+00
2.755024909973144531e+00,6.419884033203125000e+02,4.866401672363281250e+01,4.866401672363281250e+01,-6.147169915493577719e-05,-2.243041805922985077e-02,6.257312634261325002e-06,0.000000000000000000e+00,0.000000000000000000e+00,0.000000000000000000e+00,4.982214640847359988e-10,3.630370883911382407e-07,2.692795242182910442e-04,0.000000000000000000e+00,0.000000000000000000e+00,0.000000000000000000e+00,0.000000000000000000e+00,-2.867293951567262411e-04,1.000000000000000000e+00
2.755024909973144531e+00,6.419884033203125000e+02,4.866401672363281250e+01,4.866401672363281250e+01,-6.147169915493577719e-05,-2.243041805922985077e-02,6.257312634261325002e-06,0.000000000000000000e+00,0.000000000000000000e+00,0.000000000000000000e+00,4.982214640847359988e-10,3.630370883911382407e-07,2.692795242182910442e-04,0.000000000000000000e+00,0.000000000000000000e+00,0.000000000000000000e+00,0.000000000000000000e+00,-2.867293951567262411e-04,1.000000000000000000e+00
2.830169916152954102e+00,6.419884033203125000e+02,4.866401672363281250e+01,4.866401672363281250e+01,-6.147169915493577719e-05,-2.243041805922985077e-02,6.257312634261325002e-06,4.407926024185826464e-09,-1.002082061773990063e-08,-5.658795707859098911e-04,5.865893371037600446e-08,-1.333531116642916459e-07,-7.530501112341880798e-03,-2.706134182517416775e-06,-2.408842419754364528e-06,-7.550775560360989402e-10,0.000000000000000000e+00,-2.867293951567262411e-04,1.000000000000000000e+00
2.830169916152954102e+00,6.419884033203125000e+02,4.866401672363281250e+01,4.866401672363281250e+01,-6.147169915493577719e-05,-2.243041805922985077e-02,6.257312634261325002e-06,4.407926024185826464e-09,-1.002082061773990063e-08,-5.658795707859098911e-04,5.865893371037600446e-08,-1.333531116642916459e-07,-7.530501112341880798e-03,-2.706134182517416775e-06,-2.408842419754364528e-06,-7.550775560360989402e-10,0.000000000000000000e+00,-2.867293951567262411e-04,1.000000000000000000e+00
2.830169916152954102e+00,6.419884033203125000e+02,4.866401672363281250e+01,4.866401672363281250e+01,-6.147169915493577719e-05,-2.243041805922985077e-02,6.257312634261325002e-06,4.407926024185826464e-09,-1.002082061773990063e-08,-5.658795707859098911e-04,5.865893371037600446e-08,-1.333531116642916459e-07,-7.530501112341880798e-03,-2.706134182517416775e-06,-2.408842419754364528e-06,-7.550775560360989402e-10,0.000000000000000000e+00,-2.867293951567262411e-04,1.000000000000000000e+00
2.830169916152954102e+00,6.419884033203125000e+02,4.866401672363281250e+01,4.866401672363281250e+01,-6.147169915493577719e-05,-2.243041805922985077e-02,6.257312634261325002e-06,4.407926024185826464e-09,-1.002082061773990063e-08,-5.658795707859098911e-04,5.865893371037600446e-08,-1.333531116642916459e-07,-7.530501112341880798e-03,-2.706134182517416775e-06,-2.408842419754364528e-06,-7.550775560360989402e-10,0.000000000000000000e+00,-2.867293951567262411e-04,1.000000000000000000e+00
2.830169916152954102e+00,6.419884033203125000e+02,4.866401672363281250e+01,4.866401672363281250e+01,-6.147169915493577719e-05,-2.243041805922985077e-02,6.257312634261325002e-06,4.407926024185826464e-09,-1.002082061773990063e-08,-5.658795707859098911e-04,5.865893371037600446e-08,-1.333531116642916459e-07,-7.530501112341880798e-03,-2.706134182517416775e-06,-2.408842419754364528e-06,-7.550775560360989402e-10,0.000000000000000000e+00,-2.867293951567262411e-04,1.000000000000000000e+00
2.917726278305053711e+00,6.419884033203125000e+02,4.866401672363281250e+01,4.866401672363281250e+01,-6.147169915493577719e-05,-2.243041805922985077e-02,6.257312634261325002e-06,-5.418415582880697912e-08,-1.428842999473545206e-08,2.089186309603974223e-04,-6.691927296742505860e-07,-4.874128123333321128e-08,8.849136531352996826e-03,-1.027401776809711009e-05,3.690901939989998937e-05,-1.001580152149017522e-08,0.000000000000000000e+00,-2.867293951567262411e-04,1.000000000000000000e+00
