# Time,X,Y,Z,Roll,Pitch,Yaw,Vx,Vy,Vz,Ax,Ay,Az,Wx,Wy,Wz,Throttle,Steer,Brake
0.000000000000000000e+00,-1.714776916503906250e+02,2.435607147216796875e+02,2.435607147216796875e+02,2.773056738078594208e-02,-1.170959398150444031e-01,-4.974365234375000000e-03,1.391950321197509766e+01,-2.682810649275779724e-02,-1.306349076912738383e-06,-7.663001418113708496e-01,5.641446914523839951e-03,-4.285498107492458075e-06,-7.975827320478856564e-04,-5.118113383650779724e-02,2.764497883617877960e-02,5.000000000000000000e-01,2.621022576931864023e-04,0.000000000000000000e+00
1.045818328857421875e-01,-1.714776916503906250e+02,2.435607147216796875e+02,2.435607147216796875e+02,2.773056738078594208e-02,-1.170959398150444031e-01,-4.974365234375000000e-03,1.391950321197509766e+01,-2.682810649275779724e-02,-1.306349076912738383e-06,-7.663001418113708496e-01,5.641446914523839951e-03,-4.285498107492458075e-06,-7.975827320478856564e-04,-5.118113383650779724e-02,2.764497883617877960e-02,5.000000000000000000e-01,2.621022576931864023e-04,0.000000000000000000e+00
1.045818328857421875e-01,-1.714776916503906250e+02,2.435607147216796875e+02,2.435607147216796875e+02,2.773056738078594208e-02,-1.170959398150444031e-01,-4.974365234375000000e-03,1.391950321197509766e+01,-2.682810649275779724e-02,-1.306349076912738383e-06,-7.663001418113708496e-01,5.641446914523839951e-03,-4.285498107492458075e-06,-7.975827320478856564e-04,-5.118113383650779724e-02,2.764497883617877960e-02,5.000000000000000000e-01,2.621022576931864023e-04,0.000000000000000000e+00
1.045818328857421875e-01,-1.714776916503906250e+02,2.435607147216796875e+02,2.435607147216796875e+02,2.773056738078594208e-02,-1.170959398150444031e-01,-4.974365234375000000e-03,1.391950321197509766e+01,-2.682810649275779724e-02,-1.306349076912738383e-06,-7.663001418113708496e-01,5.641446914523839951e-03,-4.285498107492458075e-06,-7.975827320478856564e-04,-5.118113383650779724e-02,2.764497883617877960e-02,5.000000000000000000e-01,2.621022576931864023e-04,0.000000000000000000e+00
1.045818328857421875e-01,-1.714776916503906250e+02,2.435607147216796875e+02,2.435607147216796875e+02,2.773056738078594208e-02,-1.170959398150444031e-01,-4.974365234375000000e-03,1.391950321197509766e+01,-2.682810649275779724e-02,-1.306349076912738383e-06,-7.663001418113708496e-01,5.641446914523839951e-03,-4.285498107492458075e-06,-7.975827320478856564e-04,-5.118113383650779724e-02,2.764497883617877960e-02,5.000000000000000000e-01,2.621022576931864023e-04,0.000000000000000000e+00
1.045818328857421875e-01,-1.714776916503906250e+02,2.435607147216796875e+02,2.435607147216796875e+02,2.773056738078594208e-02,-1.170959398150444031e-01,-4.974365234375000000e-03,1.391950321197509766e+01,-2.682810649275779724e-02,-1.306349076912738383e-06,-7.663001418113708496e-01,5.641446914523839951e-03,-4.285498107492458075e-06,-7.975827320478856564e-04,-5.118113383650779724e-02,2.764497883617877960e-02,5.000000000000000000e-01,2.621022576931864023e-04,0.000000000000000000e+00
1.045818328857421875e-01,-1.700914611816406250e+02,2.435580596923828125e+02,2.435580596923828125e+02,3.212237730622291565e-02,-1.133422479033470154e-01,-4.882812034338712692e-03,1.382044506072998047e+01,-2.592612430453300476e-02,-1.582835466251708567e-06,-9.460335969924926758e-01,8.614187128841876984e-03,-2.640523916852544062e-06,-7.433559512719511986e-04,-3.768318518996238708e-02,4.197478294372558594e-02,5.000000000000000000e-01,2.750337007455527782e-04,0.000000000000000000e+00
2.092907428741455078e-01,-1.700914611816406250e+02,2.435580596923828125e+02,2.435580596923828125e+02,3.212237730622291565e-02,-1.133422479033470154e-01,-4.882812034338712692e-03,1.382044506072998047e+01,-2.592612430453300476e-02,-1.582835466251708567e-06,-9.460335969924926758e-01,8.614187128841876984e-03,-2.640523916852544062e-06,-7.433559512719511986e-04,-3.768318518996238708e-02,4.197478294372558594e-02,5.000000000000000000e-01,2.750337007455527782e-04,0.000000000000000000e+00
2.092907428741455078e-01,-1.700914611816406250e+02,2.435580596923828125e+02,2.435580596923828125e+02,3.212237730622291565e-02,-1.133422479033470154e-01,-4.882812034338712692e-03,1.382044506072998047e+01,-2.592612430453300476e-02,-1.582835466251708567e-06,-9.460335969924926758e-01,8.614187128841876984e-03,-2.640523916852544062e-06,-7.433559512719511986e-04,-3.768318518996238708e-02,4.197478294372558594e-02,5.000000000000000000e-01,2.750337007455527782e-04,0.000000000000000000e+00
2.092907428741455078e-01,-1.700914611816406250e+02,2.435580596923828125e+02,2.435580596923828125e+02,3.212237730622291565e-02,-1.133422479033470154e-01,-4.882812034338712692e-03,1.382044506072998047e+01,-2.592612430453300476e-02,-1.582835466251708567e-06,-9.460335969924926758e-01,8.614187128841876984e-03,-2.640523916852544062e-06,-7.433559512719511986e-04,-3.768318518996238708e-02,4.197478294372558594e-02,5.000000000000000000e-01,2.750337007455527782e-04,0.000000000000000000e+00
2.092907428741455078e-01,-1.700914611816406250e+02,2.435580596923828125e+02,2.435580596923828125e+02,3.212237730622291565e-02,-1.133422479033470154e-01,-4.882812034338712692e-03,1.382044506072998047e+01,-2.592612430453300476e-02,-1.582835466251708567e-06,-9.460335969924926758e-01,8.614187128841876984e-03,-2.640523916852544062e-06,-7.433559512719511986e-04,-3.768318518996238708e-02,4.197478294372558594e-02,5.000000000000000000e-01,2.750337007455527782e-04,0.000000000000000000e+00
2.092907428741455078e-01,-1.687142944335937500e+02,2.435554809570312500e+02,2.435554809570312500e+02,3.437634184956550598e-02,-1.091003268957138062e-01,-4.852294456213712692e-03,1.374836158752441406e+01,-2.516029030084609985e-02,-2.669843013336503645e-07,-9.660258293151855469e-01,1.026331540197134018e-02,1.763436375767923892e-05,-5.870965542271733284e-04,-3.367164637893438339e-03,4.889139533042907715e-02,1.000000000000000000e+00,2.281055931234732270e-04,0.000000000000000000e+00
2.839093208312988281e-01,-1.687142944335937500e+02,2.435554809570312500e+02,2.435554809570312500e+02,3.437634184956550598e-02,-1.091003268957138062e-01,-4.852294456213712692e-03,1.374836158752441406e+01,-2.516029030084609985e-02,-2.669843013336503645e-07,-9.660258293151855469e-01,1.026331540197134018e-02,1.763436375767923892e-05,-5.870965542271733284e-04,-3.367164637893438339e-03,4.889139533042907715e-02,1.000000000000000000e+00,2.281055931234732270e-04,0.000000000000000000e+00
2.839093208312988281e-01,-1.687142944335937500e+02,2.435554809570312500e+02,2.435554809570312500e+02,3.437634184956550598e-02,-1.091003268957138062e-01,-4.852294456213712692e-03,1.374836158752441406e+01,-2.516029030084609985e-02,-2.669843013336503645e-07,-9.660258293151855469e-01,1.026331540197134018e-02,1.763436375767923892e-05,-5.870965542271733284e-04,-3.367164637893438339e-03,4.889139533042907715e-02,1.000000000000000000e+00,2.281055931234732270e-04,0.000000000000000000e+00
2.839093208312988281e-01,-1.687142944335937500e+02,2.435554809570312500e+02,2.435554809570312500e+02,3.437634184956550598e-02,-1.091003268957138062e-01,-4.852294456213712692e-03,1.374836158752441406e+01,-2.516029030084609985e-02,-2.669843013336503645e-07,-9.660258293151855469e-01,1.026331540197134018e-02,1.763436375767923892e-05,-5.870965542271733284e-04,-3.367164637893438339e-03,4.889139533042907715e-02,1.000000000000000000e+00,2.281055931234732270e-04,0.000000000000000000e+00
2.839093208312988281e-01,-1.687142944335937500e+02,2.435554809570312500e+02,2.435554809570312500e+02,3.437634184956550598e-02,-1.091003268957138062e-01,-4.852294456213712692e-03,1.374836158752441406e+01,-2.516029030084609985e-02,-2.669843013336503645e-07,-9.660258293151855469e-01,1.026331540197134018e-02,1.763436375767923892e-05,-5.870965542271733284e-04,-3.367164637893438339e-03,4.889139533042907715e-02,1.000000000000000000e+00,2.281055931234732270e-04,0.000000000000000000e+00
3.569011688232421875e-01,-1.676879119873046875e+02,2.435536041259765625e+02,2.435536041259765625e+02,3.227947279810905457e-02,-1.041870042681694031e-01,-4.791259765625000000e-03,1.376769256591796875e+01,-2.443850226700305939e-02,-7.628255502822867129e-07,2.648375034332275391e-01,9.888611733913421631e-03,-6.793105058022774756e-06,-1.084886491298675537e-03,4.875301569700241089e-02,7.858144491910934448e-02,1.000000000000000000e+00,2.269503311254084110e-04,0.000000000000000000e+00
3.569011688232421875e-01,-1.676879119873046875e+02,2.435536041259765625e+02,2.435536041259765625e+02,3.227947279810905457e-02,-1.041870042681694031e-01,-4.791259765625000000e-03,1.376769256591796875e+01,-2.443850226700305939e-02,-7.628255502822867129e-07,2.648375034332275391e-01,9.888611733913421631e-03,-6.793105058022774756e-06,-1.084886491298675537e-03,4.875301569700241089e-02,7.858144491910934448e-02,1.000000000000000000e+00,2.269503311254084110e-04,0.000000000000000000e+00
3.569011688232421875e-01,-1.676879119873046875e+02,2.435536041259765625e+02,2.435536041259765625e+02,3.227947279810905457e-02,-1.041870042681694031e-01,-4.791259765625000000e-03,1.376769256591796875e+01,-2.443850226700305939e-02,-7.628255502822867129e-07,2.648375034332275391e-01,9.888611733913421631e-03,-6.793105058022774756e-06,-1.084886491298675537e-03,4.875301569700241089e-02,7.858144491910934448e-02,1.000000000000000000e+00,2.269503311254084110e-04,0.000000000000000000e+00
3.569011688232421875e-01,-1.676879119873046875e+02,2.435536041259765625e+02,2.435536041259765625e+02,3.227947279810905457e-02,-1.041870042681694031e-01,-4.791259765625000000e-03,1.376769256591796875e+01,-2.443850226700305939e-02,-7.628255502822867129e-07,2.648375034332275391e-01,9.888611733913421631e-03,-6.793105058022774756e-06,-1.084886491298675537e-03,4.875301569700241089e-02,7.858144491910934448e-02,1.000000000000000000e+00,2.269503311254084110e-04,0.000000000000000000e+00
4.765405654907226562e-01,-1.666803283691406250e+02,2.435518035888671875e+02,2.435518035888671875e+02,2.693143486976623535e-02,-9.817505627870559692e-02,-4.730224609375000000e-03,1.383422088623046875e+01,-2.408154681324958801e-02,-1.973817688849521801e-06,5.560737252235412598e-01,2.983594546094536781e-03,-1.012201846606330946e-05,-7.642526179552078247e-04,8.718011528253555298e-02,8.692508935928344727e-02,1.000000000000000000e+00,9.599231998436152935e-05,0.000000000000000000e+00
4.765405654907226562e-01,-1.666803283691406250e+02,2.435518035888671875e+02,2.435518035888671875e+02,2.693143486976623535e-02,-9.817505627870559692e-02,-4.730224609375000000e-03,1.383422088623046875e+01,-2.408154681324958801e-02,-1.973817688849521801e-06,5.560737252235412598e-01,2.983594546094536781e-03,-1.012201846606330946e-05,-7.642526179552078247e-04,8.718011528253555298e-02,8.692508935928344727e-02,1.000000000000000000e+00,9.599231998436152935e-05,0.000000000000000000e+00
4.765405654907226562e-01,-1.666803283691406250e+02,2.435518035888671875e+02,2.435518035888671875e+02,2.693143486976623535e-02,-9.817505627870559692e-02,-4.730224609375000000e-03,1.383422088623046875e+01,-2.408154681324958801e-02,-1.973817688849521801e-06,5.560737252235412598e-01,2.983594546094536781e-03,-1.012201846606330946e-05,-7.642526179552078247e-04,8.718011528253555298e-02,8.692508935928344727e-02,1.000000000000000000e+00,9.599231998436152935e-05,0.000000000000000000e+00
4.765405654907226562e-01,-1.666803283691406250e+02,2.435518035888671875e+02,2.435518035888671875e+02,2.693143486976623535e-02,-9.817505627870559692e-02,-4.730224609375000000e-03,1.383422088623046875e+01,-2.408154681324958801e-02,-1.973817688849521801e-06,5.560737252235412598e-01,2.983594546094536781e-03,-1.012201846606330946e-05,-7.642526179552078247e-04,8.718011528253555298e-02,8.692508935928344727e-02,1.000000000000000000e+00,9.599231998436152935e-05,0.000000000000000000e+00
4.765405654907226562e-01,-1.666803283691406250e+02,2.435518035888671875e+02,2.435518035888671875e+02,2.693143486976623535e-02,-9.817505627870559692e-02,-4.730224609375000000e-03,1.383422088623046875e+01,-2.408154681324958801e-02,-1.973817688849521801e-06,5.560737252235412598e-01,2.983594546094536781e-03,-1.012201846606330946e-05,-7.642526179552078247e-04,8.718011528253555298e-02,8.692508935928344727e-02,1.000000000000000000e+00,9.599231998436152935e-05,0.000000000000000000e+00
4.765405654907226562e-01,-1.666803283691406250e+02,2.435518035888671875e+02,2.435518035888671875e+02,2.693143486976623535e-02,-9.817505627870559692e-02,-4.730224609375000000e-03,1.383422088623046875e+01,-2.408154681324958801e-02,-1.973817688849521801e-06,5.560737252235412598e-01,2.983594546094536781e-03,-1.012201846606330946e-05,-7.642526179552078247e-04,8.718011528253555298e-02,8.692508935928344727e-02,1.000000000000000000e+00,9.599231998436152935e-05,0.000000000000000000e+00
4.765405654907226562e-01,-1.666803283691406250e+02,2.435518035888671875e+02,2.435518035888671875e+02,2.693143486976623535e-02,-9.817505627870559692e-02,-4.730224609375000000e-03,1.383422088623046875e+01,-2.408154681324958801e-02,-1.973817688849521801e-06,5.560737252235412598e-01,2.983594546094536781e-03,-1.012201846606330946e-05,-7.642526179552078247e-04,8.718011528253555298e-02,8.692508935928344727e-02,1.000000000000000000e+00,9.599231998436152935e-05,0.000000000000000000e+00
6.200885772705078125e-01,-1.652979888916015625e+02,2.435494537353515625e+02,2.435494537353515625e+02,2.244400046765804291e-02,-9.332275390625000000e-02,-4.669188987463712692e-03,1.381461906433105469e+01,-2.331627532839775085e-02,-1.029796635521051940e-06,-1.365523785352706909e-01,5.331118591129779816e-03,6.576343821507180110e-06,-4.391287511680275202e-04,2.214745432138442993e-02,2.909381687641143799e-02,1.000000000000000000e+00,-3.804904963544686325e-06,0.000000000000000000e+00
6.200885772705078125e-01,-1.652979888916015625e+02,2.435494537353515625e+02,2.435494537353515625e+02,2.244400046765804291e-02,-9.332275390625000000e-02,-4.669188987463712692e-03,1.381461906433105469e+01,-2.331627532839775085e-02,-1.029796635521051940e-06,-1.365523785352706909e-01,5.331118591129779816e-03,6.576343821507180110e-06,-4.391287511680275202e-04,2.214745432138442993e-02,2.909381687641143799e-02,1.000000000000000000e+00,-3.804904963544686325e-06,0.000000000000000000e+00
6.200885772705078125e-01,-1.652979888916015625e+02,2.435494537353515625e+02,2.435494537353515625e+02,2.244400046765804291e-02,-9.332275390625000000e-02,-4.669188987463712692e-03,1.381461906433105469e+01,-2.331627532839775085e-02,-1.029796635521051940e-06,-1.365523785352706909e-01,5.331118591129779816e-03,6.576343821507180110e-06,-4.391287511680275202e-04,2.214745432138442993e-02,2.909381687641143799e-02,1.000000000000000000e+00,-3.804904963544686325e-06,0.000000000000000000e+00
6.200885772705078125e-01,-1.652979888916015625e+02,2.435494537353515625e+02,2.435494537353515625e+02,2.244400046765804291e-02,-9.332275390625000000e-02,-4.669188987463712692e-03,1.381461906433105469e+01,-2.331627532839775085e-02,-1.029796635521051940e-06,-1.365523785352706909e-01,5.331118591129779816e-03,6.576343821507180110e-06,-4.391287511680275202e-04,2.214745432138442993e-02,2.909381687641143799e-02,1.000000000000000000e+00,-3.804904963544686325e-06,0.000000000000000000e+00
6.200885772705078125e-01,-1.652979888916015625e+02,2.435494537353515625e+02,2.435494537353515625e+02,2.244400046765804291e-02,-9.332275390625000000e-02,-4.669188987463712692e-03,1.381461906433105469e+01,-2.331627532839775085e-02,-1.029796635521051940e-06,-1.365523785352706909e-01,5.331118591129779816e-03,6.576343821507180110e-06,-4.391287511680275202e-04,2.214745432138442993e-02,2.909381687641143799e-02,1.000000000000000000e+00,-3.804904963544686325e-06,0.000000000000000000e+00
6.200885772705078125e-01,-1.652979888916015625e+02,2.435494537353515625e+02,2.435494537353515625e+02,2.244400046765804291e-02,-9.332275390625000000e-02,-4.669188987463712692e-03,1.381461906433105469e+01,-2.331627532839775085e-02,-1.029796635521051940e-06,-1.365523785352706909e-01,5.331118591129779816e-03,6.576343821507180110e-06,-4.391287511680275202e-04,2.214745432138442993e-02,2.909381687641143799e-02,1.000000000000000000e+00,-3.804904963544686325e-06,0.000000000000000000e+00
7.946169376373291016e-01,-1.639176940917968750e+02,2.435471038818359375e+02,2.435471038818359375e+02,2.168584987521171570e-02,-9.399413317441940308e-02,-4.760742187500000000e-03,1.379408454895019531e+01,-2.355776168406009674e-02,3.814061599882734299e-08,-1.176571846008300781e-01,-1.383651047945022583e-03,6.118989404058083892e-06,6.787813617847859859e-04,8.501661359332501888e-04,-2.500820904970169067e-02,1.000000000000000000e+00,-1.534213952254503965e-04,0.000000000000000000e+00
7.946169376373291016e-01,-1.639176940917968750e+02,2.435471038818359375e+02,2.435471038818359375e+02,2.168584987521171570e-02,-9.399413317441940308e-02,-4.760742187500000000e-03,1.379408454895019531e+01,-2.355776168406009674e-02,3.814061599882734299e-08,-1.176571846008300781e-01,-1.383651047945022583e-03,6.118989404058083892e-06,6.787813617847859859e-04,8.501661359332501888e-04,-2.500820904970169067e-02,1.000000000000000000e+00,-1.534213952254503965e-04,0.000000000000000000e+00
7.946169376373291016e-01,-1.639176940917968750e+02,2.435471038818359375e+02,2.435471038818359375e+02,2.168584987521171570e-02,-9.399413317441940308e-02,-4.760742187500000000e-03,1.379408454895019531e+01,-2.355776168406009674e-02,3.814061599882734299e-08,-1.176571846008300781e-01,-1.383651047945022583e-03,6.118989404058083892e-06,6.787813617847859859e-04,8.501661359332501888e-04,-2.500820904970169067e-02,1.000000000000000000e+00,-1.534213952254503965e-04,0.000000000000000000e+00
7.946169376373291016e-01,-1.639176940917968750e+02,2.435471038818359375e+02,2.435471038818359375e+02,2.168584987521171570e-02,-9.399413317441940308e-02,-4.760742187500000000e-03,1.379408454895019531e+01,-2.355776168406009674e-02,3.814061599882734299e-08,-1.176571846008300781e-01,-1.383651047945022583e-03,6.118989404058083892e-06,6.787813617847859859e-04,8.501661359332501888e-04,-2.500820904970169067e-02,1.000000000000000000e+00,-1.534213952254503965e-04,0.000000000000000000e+00
8.783230781555175781e-01,-1.625394592285156250e+02,2.435447387695312500e+02,2.435447387695312500e+02,2.195905707776546478e-02,-9.805297851562500000e-02,-4.821777343750000000e-03,1.377358627319335938e+01,-2.415252849459648132e-02,1.239569996869249735e-06,-2.448837757110595703e-01,-7.105414289981126785e-03,1.435294325347058475e-05,9.072947432287037373e-04,-4.152137786149978638e-03,-4.820262268185615540e-02,1.000000000000000000e+00,-1.719615247566252947e-04,0.000000000000000000e+00
8.783230781555175781e-01,-1.625394592285156250e+02,2.435447387695312500e+02,2.435447387695312500e+02,2.195905707776546478e-02,-9.805297851562500000e-02,-4.821777343750000000e-03,1.377358627319335938e+01,-2.415252849459648132e-02,1.239569996869249735e-06,-2.448837757110595703e-01,-7.105414289981126785e-03,1.435294325347058475e-05,9.072947432287037373e-04,-4.152137786149978638e-03,-4.820262268185615540e-02,1.000000000000000000e+00,-1.719615247566252947e-04,0.000000000000000000e+00
9.483780860900878906e-01,-1.613873596191406250e+02,2.435427093505859375e+02,2.435427093505859375e+02,2.231422625482082367e-02,-1.022949293255805969e-01,-4.913330078125000000e-03,1.375645446777343750e+01,-2.483674697577953339e-02,-1.239603619751505903e-07,-2.445479035377502441e-01,-9.766874834895133972e-03,-1.946371048688888550e-05,9.702043607831001282e-04,-4.223715048283338547e-03,-5.181283876299858093e-02,1.000000000000000000e+00,-1.536937634227797389e-04,0.000000000000000000e+00
9.483780860900878906e-01,-1.613873596191406250e+02,2.435427093505859375e+02,2.435427093505859375e+02,2.231422625482082367e-02,-1.022949293255805969e-01,-4.913330078125000000e-03,1.375645446777343750e+01,-2.483674697577953339e-02,-1.239603619751505903e-07,-2.445479035377502441e-01,-9.766874834895133972e-03,-1.946371048688888550e-05,9.702043607831001282e-04,-4.223715048283338547e-03,-5.181283876299858093e-02,1.000000000000000000e+00,-1.536937634227797389e-04,0.000000000000000000e+00
9.483780860900878906e-01,-1.613873596191406250e+02,2.435427093505859375e+02,2.435427093505859375e+02,2.231422625482082367e-02,-1.022949293255805969e-01,-4.913330078125000000e-03,1.375645446777343750e+01,-2.483674697577953339e-02,-1.239603619751505903e-07,-2.445479035377502441e-01,-9.766874834895133972e-03,-1.946371048688888550e-05,9.702043607831001282e-04,-4.223715048283338547e-03,-5.181283876299858093e-02,1.000000000000000000e+00,-1.536937634227797389e-04,0.000000000000000000e+00
9.483780860900878906e-01,-1.613873596191406250e+02,2.435427093505859375e+02,2.435427093505859375e+02,2.231422625482082367e-02,-1.022949293255805969e-01,-4.913330078125000000e-03,1.375645446777343750e+01,-2.483674697577953339e-02,-1.239603619751505903e-07,-2.445479035377502441e-01,-9.766874834895133972e-03,-1.946371048688888550e-05,9.702043607831001282e-04,-4.223715048283338547e-03,-5.181283876299858093e-02,1.000000000000000000e+00,-1.536937634227797389e-04,0.000000000000000000e+00
9.483780860900878906e-01,-1.604242553710937500e+02,2.435409698486328125e+02,2.435409698486328125e+02,2.258743345737457275e-02,-1.052246093750000000e-01,-4.943847190588712692e-03,1.374213790893554688e+01,-2.513203583657741547e-02,2.383851551712723449e-07,-1.816844940185546875e-01,-3.747367532923817635e-03,4.598351097229169682e-06,3.683553950395435095e-04,-3.616876900196075439e-03,-3.712756931781768799e-02,1.000000000000000000e+00,-6.299710366874933243e-05,0.000000000000000000e+00
1.027177095413208008e+00,-1.604242553710937500e+02,2.435409698486328125e+02,2.435409698486328125e+02,2.258743345737457275e-02,-1.052246093750000000e-01,-4.943847190588712692e-03,1.374213790893554688e+01,-2.513203583657741547e-02,2.383851551712723449e-07,-1.816844940185546875e-01,-3.747367532923817635e-03,4.598351097229169682e-06,3.683553950395435095e-04,-3.616876900196075439e-03,-3.712756931781768799e-02,1.000000000000000000e+00,-6.299710366874933243e-05,0.000000000000000000e+00
1.027177095413208008e+00,-1.604242553710937500e+02,2.435409698486328125e+02,2.435409698486328125e+02,2.258743345737457275e-02,-1.052246093750000000e-01,-4.943847190588712692e-03,1.374213790893554688e+01,-2.513203583657741547e-02,2.383851551712723449e-07,-1.816844940185546875e-01,-3.747367532923817635e-03,4.598351097229169682e-06,3.683553950395435095e-04,-3.616876900196075439e-03,-3.712756931781768799e-02,1.000000000000000000e+00,-6.299710366874933243e-05,0.000000000000000000e+00
1.095043420791625977e+00,-1.593414916992187500e+02,2.435390014648437500e+02,2.435390014648437500e+02,2.219128422439098358e-02,-1.069030761718750000e-01,-4.943847656250000000e-03,1.376785945892333984e+01,-2.545481175184249878e-02,-4.195505596271686954e-07,3.790031373500823975e-01,-4.756053909659385681e-03,-9.694583241071086377e-06,2.747538092080503702e-04,3.746925666928291321e-02,1.502536470070481300e-03,1.000000000000000000e+00,-1.185642850032309070e-05,0.000000000000000000e+00
1.095043420791625977e+00,-1.593414916992187500e+02,2.435390014648437500e+02,2.435390014648437500e+02,2.219128422439098358e-02,-1.069030761718750000e-01,-4.943847656250000000e-03,1.376785945892333984e+01,-2.545481175184249878e-02,-4.195505596271686954e-07,3.790031373500823975e-01,-4.756053909659385681e-03,-9.694583241071086377e-06,2.747538092080503702e-04,3.746925666928291321e-02,1.502536470070481300e-03,1.000000000000000000e+00,-1.185642850032309070e-05,0.000000000000000000e+00
1.095043420791625977e+00,-1.593414916992187500e+02,2.435390014648437500e+02,2.435390014648437500e+02,2.219128422439098358e-02,-1.069030761718750000e-01,-4.943847656250000000e-03,1.376785945892333984e+01,-2.545481175184249878e-02,-4.195505596271686954e-07,3.790031373500823975e-01,-4.756053909659385681e-03,-9.694583241071086377e-06,2.747538092080503702e-04,3.746925666928291321e-02,1.502536470070481300e-03,1.000000000000000000e+00,-1.185642850032309070e-05,0.000000000000000000e+00
1.095043420791625977e+00,-1.593414916992187500e+02,2.435390014648437500e+02,2.435390014648437500e+02,2.219128422439098358e-02,-1.069030761718750000e-01,-4.943847656250000000e-03,1.376785945892333984e+01,-2.545481175184249878e-02,-4.195505596271686954e-07,3.790031373500823975e-01,-4.756053909659385681e-03,-9.694583241071086377e-06,2.747538092080503702e-04,3.746925666928291321e-02,1.502536470070481300e-03,1.000000000000000000e+00,-1.185642850032309070e-05,0.000000000000000000e+00
1.168572425842285156e+00,-1.584002380371093750e+02,2.435372467041015625e+02,2.435372467041015625e+02,1.538158487528562546e-02,-1.049804612994194031e-01,-4.974365234375000000e-03,1.393754482269287109e+01,-2.659689076244831085e-02,4.767724348653246125e-08,2.307733535766601562e+00,-1.553235948085784912e-02,6.354332981572952121e-06,-1.434835285181179643e-04,1.281263232231140137e-01,4.257228970527648926e-02,1.000000000000000000e+00,-1.807298976927995682e-04,0.000000000000000000e+00
1.168572425842285156e+00,-1.584002380371093750e+02,2.435372467041015625e+02,2.435372467041015625e+02,1.538158487528562546e-02,-1.049804612994194031e-01,-4.974365234375000000e-03,1.393754482269287109e+01,-2.659689076244831085e-02,4.767724348653246125e-08,2.307733535766601562e+00,-1.553235948085784912e-02,6.354332981572952121e-06,-1.434835285181179643e-04,1.281263232231140137e-01,4.257228970527648926e-02,1.000000000000000000e+00,-1.807298976927995682e-04,0.000000000000000000e+00
1.168572425842285156e+00,-1.584002380371093750e+02,2.435372467041015625e+02,2.435372467041015625e+02,1.538158487528562546e-02,-1.049804612994194031e-01,-4.974365234375000000e-03,1.393754482269287109e+01,-2.659689076244831085e-02,4.767724348653246125e-08,2.307733535766601562e+00,-1.553235948085784912e-02,6.354332981572952121e-06,-1.434835285181179643e-04,1.281263232231140137e-01,4.257228970527648926e-02,1.000000000000000000e+00,-1.807298976927995682e-04,0.000000000000000000e+00
1.168572425842285156e+00,-1.584002380371093750e+02,2.435372467041015625e+02,2.435372467041015625e+02,1.538158487528562546e-02,-1.049804612994194031e-01,-4.974365234375000000e-03,1.393754482269287109e+01,-2.659689076244831085e-02,4.767724348653246125e-08,2.307733535766601562e+00,-1.553235948085784912e-02,6.354332981572952121e-06,-1.434835285181179643e-04,1.281263232231140137e-01,4.257228970527648926e-02,1.000000000000000000e+00,-1.807298976927995682e-04,0.000000000000000000e+00
1.168572425842285156e+00,-1.573678894042968750e+02,2.435352020263671875e+02,2.435352020263671875e+02,5.279736127704381943e-03,-1.019897460937500000e-01,-4.943846724927425385e-03,1.410374259948730469e+01,-2.747976034879684448e-02,-3.528076035763660911e-07,2.214539766311645508e+00,-1.176399551331996918e-02,-5.336351023288443685e-06,-8.658057195134460926e-04,1.302494257688522339e-01,3.694159537553787231e-02,5.000000000000000000e-01,-2.963460865430533886e-04,0.000000000000000000e+00
1.243620872497558594e+00,-1.573678894042968750e+02,2.435352020263671875e+02,2.435352020263671875e+02,5.279736127704381943e-03,-1.019897460937500000e-01,-4.943846724927425385e-03,1.410374259948730469e+01,-2.747976034879684448e-02,-3.528076035763660911e-07,2.214539766311645508e+00,-1.176399551331996918e-02,-5.336351023288443685e-06,-8.658057195134460926e-04,1.302494257688522339e-01,3.694159537553787231e-02,5.000000000000000000e-01,-2.963460865430533886e-04,0.000000000000000000e+00
1.243620872497558594e+00,-1.573678894042968750e+02,2.435352020263671875e+02,2.435352020263671875e+02,5.279736127704381943e-03,-1.019897460937500000e-01,-4.943846724927425385e-03,1.410374259948730469e+01,-2.747976034879684448e-02,-3.528076035763660911e-07,2.214539766311645508e+00,-1.176399551331996918e-02,-5.336351023288443685e-06,-8.658057195134460926e-04,1.302494257688522339e-01,3.694159537553787231e-02,5.000000000000000000e-01,-2.963460865430533886e-04,0.000000000000000000e+00
1.243620872497558594e+00,-1.573678894042968750e+02,2.435352020263671875e+02,2.435352020263671875e+02,5.279736127704381943e-03,-1.019897460937500000e-01,-4.943846724927425385e-03,1.410374259948730469e+01,-2.747976034879684448e-02,-3.528076035763660911e-07,2.214539766311645508e+00,-1.176399551331996918e-02,-5.336351023288443685e-06,-8.658057195134460926e-04,1.302494257688522339e-01,3.694159537553787231e-02,5.000000000000000000e-01,-2.963460865430533886e-04,0.000000000000000000e+00
1.312042951583862305e+00,-1.563041229248046875e+02,2.435329895019531250e+02,2.435329895019531250e+02,-1.987584866583347321e-03,-1.078186035156250000e-01,-5.249023437500000000e-03,1.421483898162841797e+01,-3.176932781934738159e-02,4.195537144369154703e-07,1.623692035675048828e+00,-6.269273906946182251e-02,1.128818894358118996e-05,2.997755771502852440e-03,7.079833000898361206e-02,-1.404337733983993530e-01,5.000000000000000000e-01,-1.109153847210109234e-03,0.000000000000000000e+00
1.312042951583862305e+00,-1.563041229248046875e+02,2.435329895019531250e+02,2.435329895019531250e+02,-1.987584866583347321e-03,-1.078186035156250000e-01,-5.249023437500000000e-03,1.421483898162841797e+01,-3.176932781934738159e-02,4.195537144369154703e-07,1.623692035675048828e+00,-6.269273906946182251e-02,1.128818894358118996e-05,2.997755771502852440e-03,7.079833000898361206e-02,-1.404337733983993530e-01,5.000000000000000000e-01,-1.109153847210109234e-03,0.000000000000000000e+00
1.312042951583862305e+00,-1.553288879394531250e+02,2.435307006835937500e+02,2.435307006835937500e+02,-4.425962455570697784e-03,-1.242675781250000000e-01,-5.554198753088712692e-03,1.427517414093017578e+01,-3.649424389004707336e-02,1.449386559215781745e-06,8.487580418586730957e-01,-6.646721810102462769e-02,1.448705734219402075e-05,4.416986368596553802e-03,1.474616117775440216e-02,-2.957307100296020508e-01,5.000000000000000000e-01,-1.451797666959464550e-03,0.000000000000000000e+00
1.383129358291625977e+00,-1.553288879394531250e+02,2.435307006835937500e+02,2.435307006835937500e+02,-4.425962455570697784e-03,-1.242675781250000000e-01,-5.554198753088712692e-03,1.427517414093017578e+01,-3.649424389004707336e-02,1.449386559215781745e-06,8.487580418586730957e-01,-6.646721810102462769e-02,1.448705734219402075e-05,4.416986368596553802e-03,1.474616117775440216e-02,-2.957307100296020508e-01,5.000000000000000000e-01,-1.451797666959464550e-03,0.000000000000000000e+00
1.383129358291625977e+00,-1.553288879394531250e+02,2.435307006835937500e+02,2.435307006835937500e+02,-4.425962455570697784e-03,-1.242675781250000000e-01,-5.554198753088712692e-03,1.427517414093017578e+01,-3.649424389004707336e-02,1.449386559215781745e-06,8.487580418586730957e-01,-6.646721810102462769e-02,1.448705734219402075e-05,4.416986368596553802e-03,1.474616117775440216e-02,-2.957307100296020508e-01,5.000000000000000000e-01,-1.451797666959464550e-03,0.000000000000000000e+00
1.450951814651489258e+00,-1.543124847412109375e+02,2.435280456542968750e+02,2.435280456542968750e+02,-3.633660497143864632e-03,-1.490478664636611938e-01,-5.828856956213712692e-03,1.431014633178710938e+01,-4.136008024215698242e-02,9.535386880088481121e-08,5.156432390213012695e-01,-7.174373418092727661e-02,-1.996437276829965413e-05,4.297100007534027100e-03,-2.561397477984428406e-02,-3.783663809299468994e-01,5.000000000000000000e-01,-1.394195598550140858e-03,0.000000000000000000e+00
1.450951814651489258e+00,-1.543124847412109375e+02,2.435280456542968750e+02,2.435280456542968750e+02,-3.633660497143864632e-03,-1.490478664636611938e-01,-5.828856956213712692e-03,1.431014633178710938e+01,-4.136008024215698242e-02,9.535386880088481121e-08,5.156432390213012695e-01,-7.174373418092727661e-02,-1.996437276829965413e-05,4.297100007534027100e-03,-2.561397477984428406e-02,-3.783663809299468994e-01,5.000000000000000000e-01,-1.394195598550140858e-03,0.000000000000000000e+00
1.450951814651489258e+00,-1.543124847412109375e+02,2.435280456542968750e+02,2.435280456542968750e+02,-3.633660497143864632e-03,-1.490478664636611938e-01,-5.828856956213712692e-03,1.431014633178710938e+01,-4.136008024215698242e-02,9.535386880088481121e-08,5.156432390213012695e-01,-7.174373418092727661e-02,-1.996437276829965413e-05,4.297100007534027100e-03,-2.561397477984428406e-02,-3.783663809299468994e-01,5.000000000000000000e-01,-1.394195598550140858e-03,0.000000000000000000e+00
1.527701377868652344e+00,-1.533412017822265625e+02,2.435251464843750000e+02,2.435251464843750000e+02,-9.493962279520928860e-04,-1.765136569738388062e-01,-6.134032271802425385e-03,1.432584953308105469e+01,-4.683078080415725708e-02,9.535449407849228010e-07,2.046031355857849121e-01,-7.127989083528518677e-02,1.118170621339231730e-05,4.659171681851148605e-03,-4.681358858942985535e-02,-4.197614192962646484e-01,5.000000000000000000e-01,-1.364215975627303123e-03,0.000000000000000000e+00
1.527701377868652344e+00,-1.533412017822265625e+02,2.435251464843750000e+02,2.435251464843750000e+02,-9.493962279520928860e-04,-1.765136569738388062e-01,-6.134032271802425385e-03,1.432584953308105469e+01,-4.683078080415725708e-02,9.535449407849228010e-07,2.046031355857849121e-01,-7.127989083528518677e-02,1.118170621339231730e-05,4.659171681851148605e-03,-4.681358858942985535e-02,-4.197614192962646484e-01,5.000000000000000000e-01,-1.364215975627303123e-03,0.000000000000000000e+00
1.527701377868652344e+00,-1.533412017822265625e+02,2.435251464843750000e+02,2.435251464843750000e+02,-9.493962279520928860e-04,-1.765136569738388062e-01,-6.134032271802425385e-03,1.432584953308105469e+01,-4.683078080415725708e-02,9.535449407849228010e-07,2.046031355857849121e-01,-7.127989083528518677e-02,1.118170621339231730e-05,4.659171681851148605e-03,-4.681358858942985535e-02,-4.197614192962646484e-01,5.000000000000000000e-01,-1.364215975627303123e-03,0.000000000000000000e+00
1.600134611129760742e+00,-1.522414093017578125e+02,2.435215606689453125e+02,2.435215606689453125e+02,3.182868007570505142e-03,-2.042236179113388062e-01,-6.225585006177425385e-03,1.433028125762939453e+01,-5.083108320832252502e-02,2.860583769859204040e-08,6.118357926607131958e-02,-5.522744357585906982e-02,-1.276954117201967165e-05,1.974768005311489105e-03,-5.602585896849632263e-02,-3.318005502223968506e-01,5.000000000000000000e-01,-7.517927442677319050e-04,0.000000000000000000e+00
1.600134611129760742e+00,-1.522414093017578125e+02,2.435215606689453125e+02,2.435215606689453125e+02,3.182868007570505142e-03,-2.042236179113388062e-01,-6.225585006177425385e-03,1.433028125762939453e+01,-5.083108320832252502e-02,2.860583769859204040e-08,6.118357926607131958e-02,-5.522744357585906982e-02,-1.276954117201967165e-05,1.974768005311489105e-03,-5.602585896849632263e-02,-3.318005502223968506e-01,5.000000000000000000e-01,-7.517927442677319050e-04,0.000000000000000000e+00
1.600134611129760742e+00,-1.522414093017578125e+02,2.435215606689453125e+02,2.435215606689453125e+02,3.182868007570505142e-03,-2.042236179113388062e-01,-6.225585006177425385e-03,1.433028125762939453e+01,-5.083108320832252502e-02,2.860583769859204040e-08,6.118357926607131958e-02,-5.522744357585906982e-02,-1.276954117201967165e-05,1.974768005311489105e-03,-5.602585896849632263e-02,-3.318005502223968506e-01,5.000000000000000000e-01,-7.517927442677319050e-04,0.000000000000000000e+00
1.600134611129760742e+00,-1.522414093017578125e+02,2.435215606689453125e+02,2.435215606689453125e+02,3.182868007570505142e-03,-2.042236179113388062e-01,-6.225585006177425385e-03,1.433028125762939453e+01,-5.083108320832252502e-02,2.860583769859204040e-08,6.118357926607131958e-02,-5.522744357585906982e-02,-1.276954117201967165e-05,1.974768005311489105e-03,-5.602585896849632263e-02,-3.318005502223968506e-01,5.000000000000000000e-01,-7.517927442677319050e-04,0.000000000000000000e+00
1.600134611129760742e+00,-1.522414093017578125e+02,2.435215606689453125e+02,2.435215606689453125e+02,3.182868007570505142e-03,-2.042236179113388062e-01,-6.225585006177425385e-03,1.433028125762939453e+01,-5.083108320832252502e-02,2.860583769859204040e-08,6.118357926607131958e-02,-5.522744357585906982e-02,-1.276954117201967165e-05,1.974768005311489105e-03,-5.602585896849632263e-02,-3.318005502223968506e-01,5.000000000000000000e-01,-7.517927442677319050e-04,0.000000000000000000e+00
1.600134611129760742e+00,-1.512035217285156250e+02,2.435178833007812500e+02,2.435178833007812500e+02,7.164868060499429703e-03,-2.215576171875000000e-01,-6.164550781250000000e-03,1.432614612579345703e+01,-5.300493910908699036e-02,-1.010748405860795174e-06,-3.583959862589836121e-02,-1.884102448821067810e-02,-9.008186680148355663e-06,-8.180264267139136791e-04,-5.394136160612106323e-02,-1.913340687751770020e-01,5.000000000000000000e-01,-1.801680191420018673e-04,0.000000000000000000e+00
1.715513467788696289e+00,-1.512035217285156250e+02,2.435178833007812500e+02,2.435178833007812500e+02,7.164868060499429703e-03,-2.215576171875000000e-01,-6.164550781250000000e-03,1.432614612579345703e+01,-5.300493910908699036e-02,-1.010748405860795174e-06,-3.583959862589836121e-02,-1.884102448821067810e-02,-9.008186680148355663e-06,-8.180264267139136791e-04,-5.394136160612106323e-02,-1.913340687751770020e-01,5.000000000000000000e-01,-1.801680191420018673e-04,0.000000000000000000e+00
1.715513467788696289e+00,-1.512035217285156250e+02,2.435178833007812500e+02,2.435178833007812500e+02,7.164868060499429703e-03,-2.215576171875000000e-01,-6.164550781250000000e-03,1.432614612579345703e+01,-5.300493910908699036e-02,-1.010748405860795174e-06,-3.583959862589836121e-02,-1.884102448821067810e-02,-9.008186680148355663e-06,-8.180264267139136791e-04,-5.394136160612106323e-02,-1.913340687751770020e-01,5.000000000000000000e-01,-1.801680191420018673e-04,0.000000000000000000e+00
1.715513467788696289e+00,-1.512035217285156250e+02,2.435178833007812500e+02,2.435178833007812500e+02,7.164868060499429703e-03,-2.215576171875000000e-01,-6.164550781250000000e-03,1.432614612579345703e+01,-5.300493910908699036e-02,-1.010748405860795174e-06,-3.583959862589836121e-02,-1.884102448821067810e-02,-9.008186680148355663e-06,-8.180264267139136791e-04,-5.394136160612106323e-02,-1.913340687751770020e-01,5.000000000000000000e-01,-1.801680191420018673e-04,0.000000000000000000e+00
1.813115119934082031e+00,-1.497715911865234375e+02,2.435125274658203125e+02,2.435125274658203125e+02,1.215773634612560272e-02,-2.308044284582138062e-01,-5.950927268713712692e-03,1.431266593933105469e+01,-5.491587147116661072e-02,9.153747555501468014e-07,-1.381143331527709961e-01,-1.957889460027217865e-02,1.973453436221461743e-05,-1.827326253987848759e-03,-4.520985484123229980e-02,-4.291285574436187744e-02,5.000000000000000000e-01,1.140585954999551177e-04,0.000000000000000000e+00
1.813115119934082031e+00,-1.497715911865234375e+02,2.435125274658203125e+02,2.435125274658203125e+02,1.215773634612560272e-02,-2.308044284582138062e-01,-5.950927268713712692e-03,1.431266593933105469e+01,-5.491587147116661072e-02,9.153747555501468014e-07,-1.381143331527709961e-01,-1.957889460027217865e-02,1.973453436221461743e-05,-1.827326253987848759e-03,-4.520985484123229980e-02,-4.291285574436187744e-02,5.000000000000000000e-01,1.140585954999551177e-04,0.000000000000000000e+00
1.813115119934082031e+00,-1.497715911865234375e+02,2.435125274658203125e+02,2.435125274658203125e+02,1.215773634612560272e-02,-2.308044284582138062e-01,-5.950927268713712692e-03,1.431266593933105469e+01,-5.491587147116661072e-02,9.153747555501468014e-07,-1.381143331527709961e-01,-1.957889460027217865e-02,1.973453436221461743e-05,-1.827326253987848759e-03,-4.520985484123229980e-02,-4.291285574436187744e-02,5.000000000000000000e-01,1.140585954999551177e-04,0.000000000000000000e+00
1.813115119934082031e+00,-1.497715911865234375e+02,2.435125274658203125e+02,2.435125274658203125e+02,1.215773634612560272e-02,-2.308044284582138062e-01,-5.950927268713712692e-03,1.431266593933105469e+01,-5.491587147116661072e-02,9.153747555501468014e-07,-1.381143331527709961e-01,-1.957889460027217865e-02,1.973453436221461743e-05,-1.827326253987848759e-03,-4.520985484123229980e-02,-4.291285574436187744e-02,5.000000000000000000e-01,1.140585954999551177e-04,0.000000000000000000e+00
1.896134853363037109e+00,-1.483756103515625000e+02,2.435071868896484375e+02,2.435071868896484375e+02,1.589384861290454865e-02,-2.272949218750000000e-01,-5.584716796875000000e-03,1.429466056823730469e+01,-5.422172322869300842e-02,-7.818857170605042484e-07,-2.168806195259094238e-01,8.361243642866611481e-03,-2.044406028289813548e-05,-3.731707343831658363e-03,-3.370220214128494263e-02,7.599043846130371094e-02,5.000000000000000000e-01,4.161144897807389498e-04,0.000000000000000000e+00
1.896134853363037109e+00,-1.483756103515625000e+02,2.435071868896484375e+02,2.435071868896484375e+02,1.589384861290454865e-02,-2.272949218750000000e-01,-5.584716796875000000e-03,1.429466056823730469e+01,-5.422172322869300842e-02,-7.818857170605042484e-07,-2.168806195259094238e-01,8.361243642866611481e-03,-2.044406028289813548e-05,-3.731707343831658363e-03,-3.370220214128494263e-02,7.599043846130371094e-02,5.000000000000000000e-01,4.161144897807389498e-04,0.000000000000000000e+00
1.896134853363037109e+00,-1.483756103515625000e+02,2.435071868896484375e+02,2.435071868896484375e+02,1.589384861290454865e-02,-2.272949218750000000e-01,-5.584716796875000000e-03,1.429466056823730469e+01,-5.422172322869300842e-02,-7.818857170605042484e-07,-2.168806195259094238e-01,8.361243642866611481e-03,-2.044406028289813548e-05,-3.731707343831658363e-03,-3.370220214128494263e-02,7.599043846130371094e-02,5.000000000000000000e-01,4.161144897807389498e-04,0.000000000000000000e+00
1.896134853363037109e+00,-1.483756103515625000e+02,2.435071868896484375e+02,2.435071868896484375e+02,1.589384861290454865e-02,-2.272949218750000000e-01,-5.584716796875000000e-03,1.429466056823730469e+01,-5.422172322869300842e-02,-7.818857170605042484e-07,-2.168806195259094238e-01,8.361243642866611481e-03,-2.044406028289813548e-05,-3.731707343831658363e-03,-3.370220214128494263e-02,7.599043846130371094e-02,5.000000000000000000e-01,4.161144897807389498e-04,0.000000000000000000e+00
1.896134853363037109e+00,-1.483756103515625000e+02,2.435071868896484375e+02,2.435071868896484375e+02,1.589384861290454865e-02,-2.272949218750000000e-01,-5.584716796875000000e-03,1.429466056823730469e+01,-5.422172322869300842e-02,-7.818857170605042484e-07,-2.168806195259094238e-01,8.361243642866611481e-03,-2.044406028289813548e-05,-3.731707343831658363e-03,-3.370220214128494263e-02,7.599043846130371094e-02,5.000000000000000000e-01,4.161144897807389498e-04,0.000000000000000000e+00
1.896134853363037109e+00,-1.483756103515625000e+02,2.435071868896484375e+02,2.435071868896484375e+02,1.589384861290454865e-02,-2.272949218750000000e-01,-5.584716796875000000e-03,1.429466056823730469e+01,-5.422172322869300842e-02,-7.818857170605042484e-07,-2.168806195259094238e-01,8.361243642866611481e-03,-2.044406028289813548e-05,-3.731707343831658363e-03,-3.370220214128494263e-02,7.599043846130371094e-02,5.000000000000000000e-01,4.161144897807389498e-04,0.000000000000000000e+00
1.896134853363037109e+00,-1.483756103515625000e+02,2.435071868896484375e+02,2.435071868896484375e+02,1.589384861290454865e-02,-2.272949218750000000e-01,-5.584716796875000000e-03,1.429466056823730469e+01,-5.422172322869300842e-02,-7.818857170605042484e-07,-2.168806195259094238e-01,8.361243642866611481e-03,-2.044406028289813548e-05,-3.731707343831658363e-03,-3.370220214128494263e-02,7.599043846130371094e-02,5.000000000000000000e-01,4.161144897807389498e-04,0.000000000000000000e+00
2.195794820785522461e+00,-1.445147857666015625e+02,2.434931335449218750e+02,2.434931335449218750e+02,2.146045304834842682e-02,-1.942748874425888062e-01,-4.760742653161287308e-03,1.423555469512939453e+01,-4.870769754052162170e-02,-1.687756821411312558e-06,-3.732731938362121582e-01,2.660362608730792999e-02,-1.455393976357299834e-05,-2.016184618696570396e-03,-1.146420557051897049e-02,9.324884414672851562e-02,5.000000000000000000e-01,1.782117178663611412e-04,0.000000000000000000e+00
2.195794820785522461e+00,-1.445147857666015625e+02,2.434931335449218750e+02,2.434931335449218750e+02,2.146045304834842682e-02,-1.942748874425888062e-01,-4.760742653161287308e-03,1.423555469512939453e+01,-4.870769754052162170e-02,-1.687756821411312558e-06,-3.732731938362121582e-01,2.660362608730792999e-02,-1.455393976357299834e-05,-2.016184618696570396e-03,-1.146420557051897049e-02,9.324884414672851562e-02,5.000000000000000000e-01,1.782117178663611412e-04,0.000000000000000000e+00
2.195794820785522461e+00,-1.445147857666015625e+02,2.434931335449218750e+02,2.434931335449218750e+02,2.146045304834842682e-02,-1.942748874425888062e-01,-4.760742653161287308e-03,1.423555469512939453e+01,-4.870769754052162170e-02,-1.687756821411312558e-06,-3.732731938362121582e-01,2.660362608730792999e-02,-1.455393976357299834e-05,-2.016184618696570396e-03,-1.146420557051897049e-02,9.324884414672851562e-02,5.000000000000000000e-01,1.782117178663611412e-04,0.000000000000000000e+00
2.195794820785522461e+00,-1.445147857666015625e+02,2.434931335449218750e+02,2.434931335449218750e+02,2.146045304834842682e-02,-1.942748874425888062e-01,-4.760742653161287308e-03,1.423555469512939453e+01,-4.870769754052162170e-02,-1.687756821411312558e-06,-3.732731938362121582e-01,2.660362608730792999e-02,-1.455393976357299834e-05,-2.016184618696570396e-03,-1.146420557051897049e-02,9.324884414672851562e-02,5.000000000000000000e-01,1.782117178663611412e-04,0.000000000000000000e+00
2.195794820785522461e+00,-1.445147857666015625e+02,2.434931335449218750e+02,2.434931335449218750e+02,2.146045304834842682e-02,-1.942748874425888062e-01,-4.760742653161287308e-03,1.423555469512939453e+01,-4.870769754052162170e-02,-1.687756821411312558e-06,-3.732731938362121582e-01,2.660362608730792999e-02,-1.455393976357299834e-05,-2.016184618696570396e-03,-1.146420557051897049e-02,9.324884414672851562e-02,5.000000000000000000e-01,1.782117178663611412e-04,0.000000000000000000e+00
2.195794820785522461e+00,-1.445147857666015625e+02,2.434931335449218750e+02,2.434931335449218750e+02,2.146045304834842682e-02,-1.942748874425888062e-01,-4.760742653161287308e-03,1.423555469512939453e+01,-4.870769754052162170e-02,-1.687756821411312558e-06,-3.732731938362121582e-01,2.660362608730792999e-02,-1.455393976357299834e-05,-2.016184618696570396e-03,-1.146420557051897049e-02,9.324884414672851562e-02,5.000000000000000000e-01,1.782117178663611412e-04,0.000000000000000000e+00
2.195794820785522461e+00,-1.445147857666015625e+02,2.434931335449218750e+02,2.434931335449218750e+02,2.146045304834842682e-02,-1.942748874425888062e-01,-4.760742653161287308e-03,1.423555469512939453e+01,-4.870769754052162170e-02,-1.687756821411312558e-06,-3.732731938362121582e-01,2.660362608730792999e-02,-1.455393976357299834e-05,-2.016184618696570396e-03,-1.146420557051897049e-02,9.324884414672851562e-02,5.000000000000000000e-01,1.782117178663611412e-04,0.000000000000000000e+00
2.195794820785522461e+00,-1.445147857666015625e+02,2.434931335449218750e+02,2.434931335449218750e+02,2.146045304834842682e-02,-1.942748874425888062e-01,-4.760742653161287308e-03,1.423555469512939453e+01,-4.870769754052162170e-02,-1.687756821411312558e-06,-3.732731938362121582e-01,2.660362608730792999e-02,-1.455393976357299834e-05,-2.016184618696570396e-03,-1.146420557051897049e-02,9.324884414672851562e-02,5.000000000000000000e-01,1.782117178663611412e-04,0.000000000000000000e+00
2.195794820785522461e+00,-1.445147857666015625e+02,2.434931335449218750e+02,2.434931335449218750e+02,2.146045304834842682e-02,-1.942748874425888062e-01,-4.760742653161287308e-03,1.423555469512939453e+01,-4.870769754052162170e-02,-1.687756821411312558e-06,-3.732731938362121582e-01,2.660362608730792999e-02,-1.455393976357299834e-05,-2.016184618696570396e-03,-1.146420557051897049e-02,9.324884414672851562e-02,5.000000000000000000e-01,1.782117178663611412e-04,0.000000000000000000e+00
2.195794820785522461e+00,-1.445147857666015625e+02,2.434931335449218750e+02,2.434931335449218750e+02,2.146045304834842682e-02,-1.942748874425888062e-01,-4.760742653161287308e-03,1.423555469512939453e+01,-4.870769754052162170e-02,-1.687756821411312558e-06,-3.732731938362121582e-01,2.660362608730792999e-02,-1.455393976357299834e-05,-2.016184618696570396e-03,-1.146420557051897049e-02,9.324884414672851562e-02,5.000000000000000000e-01,1.782117178663611412e-04,0.000000000000000000e+00
2.374083757400512695e+00,-1.437597045898437500e+02,2.434905395507812500e+02,2.434905395507812500e+02,2.198637835681438446e-02,-1.905212253332138062e-01,-4.699707496911287308e-03,1.422346687316894531e+01,-4.813547804951667786e-02,8.867994552019808907e-07,-6.779905408620834351e-02,3.209506394341588020e-03,1.444035842723678797e-05,-8.602472371421754360e-04,-8.974518626928329468e-03,5.949327349662780762e-02,5.000000000000000000e-01,3.788279718719422817e-05,0.000000000000000000e+00
2.374083757400512695e+00,-1.437597045898437500e+02,2.434905395507812500e+02,2.434905395507812500e+02,2.198637835681438446e-02,-1.905212253332138062e-01,-4.699707496911287308e-03,1.422346687316894531e+01,-4.813547804951667786e-02,8.867994552019808907e-07,-6.779905408620834351e-02,3.209506394341588020e-03,1.444035842723678797e-05,-8.602472371421754360e-04,-8.974518626928329468e-03,5.949327349662780762e-02,5.000000000000000000e-01,3.788279718719422817e-05,0.000000000000000000e+00
2.374083757400512695e+00,-1.437597045898437500e+02,2.434905395507812500e+02,2.434905395507812500e+02,2.198637835681438446e-02,-1.905212253332138062e-01,-4.699707496911287308e-03,1.422346687316894531e+01,-4.813547804951667786e-02,8.867994552019808907e-07,-6.779905408620834351e-02,3.209506394341588020e-03,1.444035842723678797e-05,-8.602472371421754360e-04,-8.974518626928329468e-03,5.949327349662780762e-02,5.000000000000000000e-01,3.788279718719422817e-05,0.000000000000000000e+00
2.447860002517700195e+00,-1.423386535644531250e+02,2.434857177734375000e+02,2.434857177734375000e+02,2.270354703068733215e-02,-1.884765475988388062e-01,-4.730224143713712692e-03,1.420064926147460938e+01,-4.771274328231811523e-02,-1.125148060054925736e-06,-3.092812895774841309e-01,5.729957949370145798e-03,-2.727094033616594970e-05,1.210107730003073812e-04,-5.729404278099536896e-03,7.088655256666243076e-04,5.000000000000000000e-01,-8.577214612159878016e-05,0.000000000000000000e+00
2.447860002517700195e+00,-1.423386535644531250e+02,2.434857177734375000e+02,2.434857177734375000e+02,2.270354703068733215e-02,-1.884765475988388062e-01,-4.730224143713712692e-03,1.420064926147460938e+01,-4.771274328231811523e-02,-1.125148060054925736e-06,-3.092812895774841309e-01,5.729957949370145798e-03,-2.727094033616594970e-05,1.210107730003073812e-04,-5.729404278099536896e-03,7.088655256666243076e-04,5.000000000000000000e-01,-8.577214612159878016e-05,0.000000000000000000e+00
2.500878810882568359e+00,-1.412917327880859375e+02,2.434822235107421875e+02,2.434822235107421875e+02,2.301773615181446075e-02,-1.898803412914276123e-01,-4.760741721838712692e-03,1.418386077880859375e+01,-4.787651821970939636e-02,8.105035362859780435e-07,-3.166514337062835693e-01,-3.088996978476643562e-03,3.650877260952256620e-05,6.083693006075918674e-04,-3.830273170024156570e-03,-2.950449474155902863e-02,5.000000000000000000e-01,-1.545014092698693275e-04,0.000000000000000000e+00
2.500878810882568359e+00,-1.412917327880859375e+02,2.434822235107421875e+02,2.434822235107421875e+02,2.301773615181446075e-02,-1.898803412914276123e-01,-4.760741721838712692e-03,1.418386077880859375e+01,-4.787651821970939636e-02,8.105035362859780435e-07,-3.166514337062835693e-01,-3.088996978476643562e-03,3.650877260952256620e-05,6.083693006075918674e-04,-3.830273170024156570e-03,-2.950449474155902863e-02,5.000000000000000000e-01,-1.545014092698693275e-04,0.000000000000000000e+00
2.500878810882568359e+00,-1.412917327880859375e+02,2.434822235107421875e+02,2.434822235107421875e+02,2.301773615181446075e-02,-1.898803412914276123e-01,-4.760741721838712692e-03,1.418386077880859375e+01,-4.787651821970939636e-02,8.105035362859780435e-07,-3.166514337062835693e-01,-3.088996978476643562e-03,3.650877260952256620e-05,6.083693006075918674e-04,-3.830273170024156570e-03,-2.950449474155902863e-02,5.000000000000000000e-01,-1.545014092698693275e-04,0.000000000000000000e+00
2.560195446014404297e+00,-1.405401306152343750e+02,2.434796447753906250e+02,2.434796447753906250e+02,2.319532074034214020e-02,-1.918945014476776123e-01,-4.821776412427425385e-03,1.417184448242187500e+01,-4.813026264309883118e-02,8.677286018610175233e-07,-2.025788575410842896e-01,-4.277795087546110153e-03,9.647388878875062801e-07,9.399848058819770813e-04,-2.843848429620265961e-03,-4.184354096651077271e-02,5.000000000000000000e-01,-1.618553505977615714e-04,0.000000000000000000e+00
2.560195446014404297e+00,-1.405401306152343750e+02,2.434796447753906250e+02,2.434796447753906250e+02,2.319532074034214020e-02,-1.918945014476776123e-01,-4.821776412427425385e-03,1.417184448242187500e+01,-4.813026264309883118e-02,8.677286018610175233e-07,-2.025788575410842896e-01,-4.277795087546110153e-03,9.647388878875062801e-07,9.399848058819770813e-04,-2.843848429620265961e-03,-4.184354096651077271e-02,5.000000000000000000e-01,-1.618553505977615714e-04,0.000000000000000000e+00
2.618730545043945312e+00,-1.396999969482421875e+02,2.434767761230468750e+02,2.434767761230468750e+02,2.333875559270381927e-02,-1.945800930261611938e-01,-4.852294456213712692e-03,1.415846252441406250e+01,-4.848749563097953796e-02,-8.772502724241348915e-07,-2.286142557859420776e-01,-6.102885119616985321e-03,-2.981081161124166101e-05,7.575802737846970558e-04,-2.077857265248894691e-03,-4.747997969388961792e-02,5.000000000000000000e-01,-1.473952579544857144e-04,0.000000000000000000e+00
2.618730545043945312e+00,-1.396999969482421875e+02,2.434767761230468750e+02,2.434767761230468750e+02,2.333875559270381927e-02,-1.945800930261611938e-01,-4.852294456213712692e-03,1.415846252441406250e+01,-4.848749563097953796e-02,-8.772502724241348915e-07,-2.286142557859420776e-01,-6.102885119616985321e-03,-2.981081161124166101e-05,7.575802737846970558e-04,-2.077857265248894691e-03,-4.747997969388961792e-02,5.000000000000000000e-01,-1.473952579544857144e-04,0.000000000000000000e+00
2.677334070205688477e+00,-1.388716888427734375e+02,2.434739532470703125e+02,2.434739532470703125e+02,2.343437820672988892e-02,-1.971435546875000000e-01,-4.882812500000000000e-03,1.414533042907714844e+01,-4.874912649393081665e-02,-1.325413336417113896e-06,-2.240837067365646362e-01,-4.464421886950731277e-03,-7.647373422514647245e-06,5.683903582394123077e-04,-1.429586089216172695e-03,-4.188351333141326904e-02,5.000000000000000000e-01,-9.225777466781437397e-05,0.000000000000000000e+00
2.677334070205688477e+00,-1.388716888427734375e+02,2.434739532470703125e+02,2.434739532470703125e+02,2.343437820672988892e-02,-1.971435546875000000e-01,-4.882812500000000000e-03,1.414533042907714844e+01,-4.874912649393081665e-02,-1.325413336417113896e-06,-2.240837067365646362e-01,-4.464421886950731277e-03,-7.647373422514647245e-06,5.683903582394123077e-04,-1.429586089216172695e-03,-4.188351333141326904e-02,5.000000000000000000e-01,-9.225777466781437397e-05,0.000000000000000000e+00
2.677334070205688477e+00,-1.388716888427734375e+02,2.434739532470703125e+02,2.434739532470703125e+02,2.343437820672988892e-02,-1.971435546875000000e-01,-4.882812500000000000e-03,1.414533042907714844e+01,-4.874912649393081665e-02,-1.325413336417113896e-06,-2.240837067365646362e-01,-4.464421886950731277e-03,-7.647373422514647245e-06,5.683903582394123077e-04,-1.429586089216172695e-03,-4.188351333141326904e-02,5.000000000000000000e-01,-9.225777466781437397e-05,0.000000000000000000e+00
2.677334070205688477e+00,-1.388716888427734375e+02,2.434739532470703125e+02,2.434739532470703125e+02,2.343437820672988892e-02,-1.971435546875000000e-01,-4.882812500000000000e-03,1.414533042907714844e+01,-4.874912649393081665e-02,-1.325413336417113896e-06,-2.240837067365646362e-01,-4.464421886950731277e-03,-7.647373422514647245e-06,5.683903582394123077e-04,-1.429586089216172695e-03,-4.188351333141326904e-02,5.000000000000000000e-01,-9.225777466781437397e-05,0.000000000000000000e+00
2.755024909973144531e+00,-1.380431976318359375e+02,2.434710693359375000e+02,2.434710693359375000e+02,2.349584922194480896e-02,-1.993408203125000000e-01,-4.913330543786287308e-03,1.413242721557617188e+01,-4.906280711293220520e-02,-1.878463081084191799e-06,-1.660841107368469238e-01,-4.037549719214439392e-03,-7.118596840882673860e-06,4.874075821135193110e-04,-8.152799564413726330e-04,-3.516876697540283203e-02,5.000000000000000000e-01,-7.009485125308856368e-05,0.000000000000000000e+00
2.755024909973144531e+00,-1.380431976318359375e+02,2.434710693359375000e+02,2.434710693359375000e+02,2.349584922194480896e-02,-1.993408203125000000e-01,-4.913330543786287308e-03,1.413242721557617188e+01,-4.906280711293220520e-02,-1.878463081084191799e-06,-1.660841107368469238e-01,-4.037549719214439392e-03,-7.118596840882673860e-06,4.874075821135193110e-04,-8.152799564413726330e-04,-3.516876697540283203e-02,5.000000000000000000e-01,-7.009485125308856368e-05,0.000000000000000000e+00
2.755024909973144531e+00,-1.380431976318359375e+02,2.434710693359375000e+02,2.434710693359375000e+02,2.349584922194480896e-02,-1.993408203125000000e-01,-4.913330543786287308e-03,1.413242721557617188e+01,-4.906280711293220520e-02,-1.878463081084191799e-06,-1.660841107368469238e-01,-4.037549719214439392e-03,-7.118596840882673860e-06,4.874075821135193110e-04,-8.152799564413726330e-04,-3.516876697540283203e-02,5.000000000000000000e-01,-7.009485125308856368e-05,0.000000000000000000e+00
2.830169916152954102e+00,-1.369459991455078125e+02,2.434672851562500000e+02,2.434672851562500000e+02,2.351634018123149872e-02,-2.012023776769638062e-01,-4.943847656250000000e-03,1.411603736877441406e+01,-4.924248903989791870e-02,-4.195514975435798988e-07,-2.181095927953720093e-01,-2.391135785728693008e-03,1.941461778187658638e-05,1.915093453135341406e-04,2.357982884859666228e-05,-1.822282187640666962e-02,5.000000000000000000e-01,-6.644427685387199745e-06,0.000000000000000000e+00
2.830169916152954102e+00,-1.369459991455078125e+02,2.434672851562500000e+02,2.434672851562500000e+02,2.351634018123149872e-02,-2.012023776769638062e-01,-4.943847656250000000e-03,1.411603736877441406e+01,-4.924248903989791870e-02,-4.195514975435798988e-07,-2.181095927953720093e-01,-2.391135785728693008e-03,1.941461778187658638e-05,1.915093453135341406e-04,2.357982884859666228e-05,-1.822282187640666962e-02,5.000000000000000000e-01,-6.644427685387199745e-06,0.000000000000000000e+00
2.830169916152954102e+00,-1.369459991455078125e+02,2.434672851562500000e+02,2.434672851562500000e+02,2.351634018123149872e-02,-2.012023776769638062e-01,-4.943847656250000000e-03,1.411603736877441406e+01,-4.924248903989791870e-02,-4.195514975435798988e-07,-2.181095927953720093e-01,-2.391135785728693008e-03,1.941461778187658638e-05,1.915093453135341406e-04,2.357982884859666228e-05,-1.822282187640666962e-02,5.000000000000000000e-01,-6.644427685387199745e-06,0.000000000000000000e+00
2.830169916152954102e+00,-1.369459991455078125e+02,2.434672851562500000e+02,2.434672851562500000e+02,2.351634018123149872e-02,-2.012023776769638062e-01,-4.943847656250000000e-03,1.411603736877441406e+01,-4.924248903989791870e-02,-4.195514975435798988e-07,-2.181095927953720093e-01,-2.391135785728693008e-03,1.941461778187658638e-05,1.915093453135341406e-04,2.357982884859666228e-05,-1.822282187640666962e-02,5.000000000000000000e-01,-6.644427685387199745e-06,0.000000000000000000e+00
2.830169916152954102e+00,-1.369459991455078125e+02,2.434672851562500000e+02,2.434672851562500000e+02,2.351634018123149872e-02,-2.012023776769638062e-01,-4.943847656250000000e-03,1.411603736877441406e+01,-4.924248903989791870e-02,-4.195514975435798988e-07,-2.181095927953720093e-01,-2.391135785728693008e-03,1.941461778187658638e-05,1.915093453135341406e-04,2.357982884859666228e-05,-1.822282187640666962e-02,5.000000000000000000e-01,-6.644427685387199745e-06,0.000000000000000000e+00
