# Time,X,Y,Z,Roll,Pitch,Yaw,Vx,Vy,Vz,Ax,Ay,Az,Wx,Wy,Wz,Throttle,Steer,Brake
0.000000000000000000e+00,3.628614044189453125e+01,-2.306913185119628906e+01,-2.306913185119628906e+01,-3.738708794116973877e-01,1.797855834960937500e+02,7.127973367460072041e-04,-5.344850540161132812e+00,1.949620060622692108e-02,1.617202942725270987e-04,-8.479053974151611328e-01,2.528223209083080292e-03,6.699863588437438011e-04,5.054115783423185349e-03,2.106707334518432617e+00,6.538245081901550293e-02,1.000000000000000000e+00,1.420084590790793300e-04,0.000000000000000000e+00
1.045818328857421875e-01,3.628614044189453125e+01,-2.306913185119628906e+01,-2.306913185119628906e+01,-3.738708794116973877e-01,1.797855834960937500e+02,7.127973367460072041e-04,-5.344850540161132812e+00,1.949620060622692108e-02,1.617202942725270987e-04,-8.479053974151611328e-01,2.528223209083080292e-03,6.699863588437438011e-04,5.054115783423185349e-03,2.106707334518432617e+00,6.538245081901550293e-02,1.000000000000000000e+00,1.420084590790793300e-04,0.000000000000000000e+00
1.045818328857421875e-01,3.628614044189453125e+01,-2.306913185119628906e+01,-2.306913185119628906e+01,-3.738708794116973877e-01,1.797855834960937500e+02,7.127973367460072041e-04,-5.344850540161132812e+00,1.949620060622692108e-02,1.617202942725270987e-04,-8.479053974151611328e-01,2.528223209083080292e-03,6.699863588437438011e-04,5.054115783423185349e-03,2.106707334518432617e+00,6.538245081901550293e-02,1.000000000000000000e+00,1.420084590790793300e-04,0.000000000000000000e+00
1.045818328857421875e-01,3.628614044189453125e+01,-2.306913185119628906e+01,-2.306913185119628906e+01,-3.738708794116973877e-01,1.797855834960937500e+02,7.127973367460072041e-04,-5.344850540161132812e+00,1.949620060622692108e-02,1.617202942725270987e-04,-8.479053974151611328e-01,2.528223209083080292e-03,6.699863588437438011e-04,5.054115783423185349e-03,2.106707334518432617e+00,6.538245081901550293e-02,1.000000000000000000e+00,1.420084590790793300e-04,0.000000000000000000e+00
1.045818328857421875e-01,3.628614044189453125e+01,-2.306913185119628906e+01,-2.306913185119628906e+01,-3.738708794116973877e-01,1.797855834960937500e+02,7.127973367460072041e-04,-5.344850540161132812e+00,1.949620060622692108e-02,1.617202942725270987e-04,-8.479053974151611328e-01,2.528223209083080292e-03,6.699863588437438011e-04,5.054115783423185349e-03,2.106707334518432617e+00,6.538245081901550293e-02,1.000000000000000000e+00,1.420084590790793300e-04,0.000000000000000000e+00
1.045818328857421875e-01,3.628614044189453125e+01,-2.306913185119628906e+01,-2.306913185119628906e+01,-3.738708794116973877e-01,1.797855834960937500e+02,7.127973367460072041e-04,-5.344850540161132812e+00,1.949620060622692108e-02,1.617202942725270987e-04,-8.479053974151611328e-01,2.528223209083080292e-03,6.699863588437438011e-04,5.054115783423185349e-03,2.106707334518432617e+00,6.538245081901550293e-02,1.000000000000000000e+00,1.420084590790793300e-04,0.000000000000000000e+00
1.045818328857421875e-01,3.574964141845703125e+01,-2.306714630126953125e+01,-2.306714630126953125e+01,-2.093179672956466675e-01,1.797886352539062500e+02,4.034453886561095715e-04,-5.343804836273193359e+00,1.948572508990764618e-02,1.191894189105369151e-04,9.986770339310169220e-03,-1.000441698124632239e-04,-4.061819927301257849e-04,3.567135194316506386e-03,1.259361624717712402e+00,1.472438275814056396e-01,0.000000000000000000e+00,1.222737628268077970e-04,1.000000000000000000e+00
2.092907428741455078e-01,3.574964141845703125e+01,-2.306714630126953125e+01,-2.306714630126953125e+01,-2.093179672956466675e-01,1.797886352539062500e+02,4.034453886561095715e-04,-5.343804836273193359e+00,1.948572508990764618e-02,1.191894189105369151e-04,9.986770339310169220e-03,-1.000441698124632239e-04,-4.061819927301257849e-04,3.567135194316506386e-03,1.259361624717712402e+00,1.472438275814056396e-01,0.000000000000000000e+00,1.222737628268077970e-04,1.000000000000000000e+00
2.092907428741455078e-01,3.574964141845703125e+01,-2.306714630126953125e+01,-2.306714630126953125e+01,-2.093179672956466675e-01,1.797886352539062500e+02,4.034453886561095715e-04,-5.343804836273193359e+00,1.948572508990764618e-02,1.191894189105369151e-04,9.986770339310169220e-03,-1.000441698124632239e-04,-4.061819927301257849e-04,3.567135194316506386e-03,1.259361624717712402e+00,1.472438275814056396e-01,0.000000000000000000e+00,1.222737628268077970e-04,1.000000000000000000e+00
2.092907428741455078e-01,3.574964141845703125e+01,-2.306714630126953125e+01,-2.306714630126953125e+01,-2.093179672956466675e-01,1.797886352539062500e+02,4.034453886561095715e-04,-5.343804836273193359e+00,1.948572508990764618e-02,1.191894189105369151e-04,9.986770339310169220e-03,-1.000441698124632239e-04,-4.061819927301257849e-04,3.567135194316506386e-03,1.259361624717712402e+00,1.472438275814056396e-01,0.000000000000000000e+00,1.222737628268077970e-04,1.000000000000000000e+00
2.092907428741455078e-01,3.574964141845703125e+01,-2.306714630126953125e+01,-2.306714630126953125e+01,-2.093179672956466675e-01,1.797886352539062500e+02,4.034453886561095715e-04,-5.343804836273193359e+00,1.948572508990764618e-02,1.191894189105369151e-04,9.986770339310169220e-03,-1.000441698124632239e-04,-4.061819927301257849e-04,3.567135194316506386e-03,1.259361624717712402e+00,1.472438275814056396e-01,0.000000000000000000e+00,1.222737628268077970e-04,1.000000000000000000e+00
2.092907428741455078e-01,3.524792480468750000e+01,-2.306513214111328125e+01,-2.306513214111328125e+01,-2.377861887216567993e-01,1.798027191162109375e+02,3.931324172299355268e-04,-4.755607604980468750e+00,1.721583865582942963e-02,-1.028568483889102936e-02,7.882718086242675781e+00,-3.041985630989074707e-02,-1.394408047199249268e-01,-1.471083611249923706e-02,-1.055911660194396973e+00,2.323398180305957794e-02,0.000000000000000000e+00,5.737304672948084772e-05,1.000000000000000000e+00
2.839093208312988281e-01,3.524792480468750000e+01,-2.306513214111328125e+01,-2.306513214111328125e+01,-2.377861887216567993e-01,1.798027191162109375e+02,3.931324172299355268e-04,-4.755607604980468750e+00,1.721583865582942963e-02,-1.028568483889102936e-02,7.882718086242675781e+00,-3.041985630989074707e-02,-1.394408047199249268e-01,-1.471083611249923706e-02,-1.055911660194396973e+00,2.323398180305957794e-02,0.000000000000000000e+00,5.737304672948084772e-05,1.000000000000000000e+00
2.839093208312988281e-01,3.524792480468750000e+01,-2.306513214111328125e+01,-2.306513214111328125e+01,-2.377861887216567993e-01,1.798027191162109375e+02,3.931324172299355268e-04,-4.755607604980468750e+00,1.721583865582942963e-02,-1.028568483889102936e-02,7.882718086242675781e+00,-3.041985630989074707e-02,-1.394408047199249268e-01,-1.471083611249923706e-02,-1.055911660194396973e+00,2.323398180305957794e-02,0.000000000000000000e+00,5.737304672948084772e-05,1.000000000000000000e+00
2.839093208312988281e-01,3.524792480468750000e+01,-2.306513214111328125e+01,-2.306513214111328125e+01,-2.377861887216567993e-01,1.798027191162109375e+02,3.931324172299355268e-04,-4.755607604980468750e+00,1.721583865582942963e-02,-1.028568483889102936e-02,7.882718086242675781e+00,-3.041985630989074707e-02,-1.394408047199249268e-01,-1.471083611249923706e-02,-1.055911660194396973e+00,2.323398180305957794e-02,0.000000000000000000e+00,5.737304672948084772e-05,1.000000000000000000e+00
2.839093208312988281e-01,3.524792480468750000e+01,-2.306513214111328125e+01,-2.306513214111328125e+01,-2.377861887216567993e-01,1.798027191162109375e+02,3.931324172299355268e-04,-4.755607604980468750e+00,1.721583865582942963e-02,-1.028568483889102936e-02,7.882718086242675781e+00,-3.041985630989074707e-02,-1.394408047199249268e-01,-1.471083611249923706e-02,-1.055911660194396973e+00,2.323398180305957794e-02,0.000000000000000000e+00,5.737304672948084772e-05,1.000000000000000000e+00
3.569011688232421875e-01,3.491824722290039062e+01,-2.306394767761230469e+01,-2.306394767761230469e+01,-3.487835824489593506e-01,1.798017425537109375e+02,2.449046005494892597e-04,-4.206706047058105469e+00,1.521532051265239716e-02,-2.201895928010344505e-03,7.520039081573486328e+00,-2.740741893649101257e-02,1.107491999864578247e-01,-5.873532500118017197e-03,-1.689499616622924805e+00,-2.765487134456634521e-02,0.000000000000000000e+00,-1.790364622138440609e-04,1.000000000000000000e+00
3.569011688232421875e-01,3.491824722290039062e+01,-2.306394767761230469e+01,-2.306394767761230469e+01,-3.487835824489593506e-01,1.798017425537109375e+02,2.449046005494892597e-04,-4.206706047058105469e+00,1.521532051265239716e-02,-2.201895928010344505e-03,7.520039081573486328e+00,-2.740741893649101257e-02,1.107491999864578247e-01,-5.873532500118017197e-03,-1.689499616622924805e+00,-2.765487134456634521e-02,0.000000000000000000e+00,-1.790364622138440609e-04,1.000000000000000000e+00
3.569011688232421875e-01,3.491824722290039062e+01,-2.306394767761230469e+01,-2.306394767761230469e+01,-3.487835824489593506e-01,1.798017425537109375e+02,2.449046005494892597e-04,-4.206706047058105469e+00,1.521532051265239716e-02,-2.201895928010344505e-03,7.520039081573486328e+00,-2.740741893649101257e-02,1.107491999864578247e-01,-5.873532500118017197e-03,-1.689499616622924805e+00,-2.765487134456634521e-02,0.000000000000000000e+00,-1.790364622138440609e-04,1.000000000000000000e+00
3.569011688232421875e-01,3.491824722290039062e+01,-2.306394767761230469e+01,-2.306394767761230469e+01,-3.487835824489593506e-01,1.798017425537109375e+02,2.449046005494892597e-04,-4.206706047058105469e+00,1.521532051265239716e-02,-2.201895928010344505e-03,7.520039081573486328e+00,-2.740741893649101257e-02,1.107491999864578247e-01,-5.873532500118017197e-03,-1.689499616622924805e+00,-2.765487134456634521e-02,0.000000000000000000e+00,-1.790364622138440609e-04,1.000000000000000000e+00
4.765405654907226562e-01,3.463745498657226562e+01,-2.306296539306640625e+01,-2.306296539306640625e+01,-4.792470335960388184e-01,1.797991180419921875e+02,3.492179093882441521e-04,-3.627272367477416992e+00,1.309306453913450241e-02,1.764993430697359145e-05,4.843167781829833984e+00,-1.773877255618572235e-02,1.855196617543697357e-02,-3.946252167224884033e-03,-1.804314374923706055e+00,-3.966115415096282959e-02,0.000000000000000000e+00,-1.704915339360013604e-04,1.000000000000000000e+00
4.765405654907226562e-01,3.463745498657226562e+01,-2.306296539306640625e+01,-2.306296539306640625e+01,-4.792470335960388184e-01,1.797991180419921875e+02,3.492179093882441521e-04,-3.627272367477416992e+00,1.309306453913450241e-02,1.764993430697359145e-05,4.843167781829833984e+00,-1.773877255618572235e-02,1.855196617543697357e-02,-3.946252167224884033e-03,-1.804314374923706055e+00,-3.966115415096282959e-02,0.000000000000000000e+00,-1.704915339360013604e-04,1.000000000000000000e+00
4.765405654907226562e-01,3.463745498657226562e+01,-2.306296539306640625e+01,-2.306296539306640625e+01,-4.792470335960388184e-01,1.797991180419921875e+02,3.492179093882441521e-04,-3.627272367477416992e+00,1.309306453913450241e-02,1.764993430697359145e-05,4.843167781829833984e+00,-1.773877255618572235e-02,1.855196617543697357e-02,-3.946252167224884033e-03,-1.804314374923706055e+00,-3.966115415096282959e-02,0.000000000000000000e+00,-1.704915339360013604e-04,1.000000000000000000e+00
4.765405654907226562e-01,3.463745498657226562e+01,-2.306296539306640625e+01,-2.306296539306640625e+01,-4.792470335960388184e-01,1.797991180419921875e+02,3.492179093882441521e-04,-3.627272367477416992e+00,1.309306453913450241e-02,1.764993430697359145e-05,4.843167781829833984e+00,-1.773877255618572235e-02,1.855196617543697357e-02,-3.946252167224884033e-03,-1.804314374923706055e+00,-3.966115415096282959e-02,0.000000000000000000e+00,-1.704915339360013604e-04,1.000000000000000000e+00
4.765405654907226562e-01,3.463745498657226562e+01,-2.306296539306640625e+01,-2.306296539306640625e+01,-4.792470335960388184e-01,1.797991180419921875e+02,3.492179093882441521e-04,-3.627272367477416992e+00,1.309306453913450241e-02,1.764993430697359145e-05,4.843167781829833984e+00,-1.773877255618572235e-02,1.855196617543697357e-02,-3.946252167224884033e-03,-1.804314374923706055e+00,-3.966115415096282959e-02,0.000000000000000000e+00,-1.704915339360013604e-04,1.000000000000000000e+00
4.765405654907226562e-01,3.463745498657226562e+01,-2.306296539306640625e+01,-2.306296539306640625e+01,-4.792470335960388184e-01,1.797991180419921875e+02,3.492179093882441521e-04,-3.627272367477416992e+00,1.309306453913450241e-02,1.764993430697359145e-05,4.843167781829833984e+00,-1.773877255618572235e-02,1.855196617543697357e-02,-3.946252167224884033e-03,-1.804314374923706055e+00,-3.966115415096282959e-02,0.000000000000000000e+00,-1.704915339360013604e-04,1.000000000000000000e+00
4.765405654907226562e-01,3.463745498657226562e+01,-2.306296539306640625e+01,-2.306296539306640625e+01,-4.792470335960388184e-01,1.797991180419921875e+02,3.492179093882441521e-04,-3.627272367477416992e+00,1.309306453913450241e-02,1.764993430697359145e-05,4.843167781829833984e+00,-1.773877255618572235e-02,1.855196617543697357e-02,-3.946252167224884033e-03,-1.804314374923706055e+00,-3.966115415096282959e-02,0.000000000000000000e+00,-1.704915339360013604e-04,1.000000000000000000e+00
6.200885772705078125e-01,3.432421493530273438e+01,-2.306187629699707031e+01,-2.306187629699707031e+01,-6.475496888160705566e-01,1.797953338623046875e+02,6.128262029960751534e-04,-2.798770427703857422e+00,1.010973472148180008e-02,-3.132869896944612265e-04,5.771601676940917969e+00,-2.078280225396156311e-02,-2.305409405380487442e-03,-2.238774904981255531e-03,-1.543108582496643066e+00,-3.611500933766365051e-02,0.000000000000000000e+00,-1.304117904510349035e-04,1.000000000000000000e+00
6.200885772705078125e-01,3.432421493530273438e+01,-2.306187629699707031e+01,-2.306187629699707031e+01,-6.475496888160705566e-01,1.797953338623046875e+02,6.128262029960751534e-04,-2.798770427703857422e+00,1.010973472148180008e-02,-3.132869896944612265e-04,5.771601676940917969e+00,-2.078280225396156311e-02,-2.305409405380487442e-03,-2.238774904981255531e-03,-1.543108582496643066e+00,-3.611500933766365051e-02,0.000000000000000000e+00,-1.304117904510349035e-04,1.000000000000000000e+00
6.200885772705078125e-01,3.432421493530273438e+01,-2.306187629699707031e+01,-2.306187629699707031e+01,-6.475496888160705566e-01,1.797953338623046875e+02,6.128262029960751534e-04,-2.798770427703857422e+00,1.010973472148180008e-02,-3.132869896944612265e-04,5.771601676940917969e+00,-2.078280225396156311e-02,-2.305409405380487442e-03,-2.238774904981255531e-03,-1.543108582496643066e+00,-3.611500933766365051e-02,0.000000000000000000e+00,-1.304117904510349035e-04,1.000000000000000000e+00
6.200885772705078125e-01,3.432421493530273438e+01,-2.306187629699707031e+01,-2.306187629699707031e+01,-6.475496888160705566e-01,1.797953338623046875e+02,6.128262029960751534e-04,-2.798770427703857422e+00,1.010973472148180008e-02,-3.132869896944612265e-04,5.771601676940917969e+00,-2.078280225396156311e-02,-2.305409405380487442e-03,-2.238774904981255531e-03,-1.543108582496643066e+00,-3.611500933766365051e-02,0.000000000000000000e+00,-1.304117904510349035e-04,1.000000000000000000e+00
6.200885772705078125e-01,3.432421493530273438e+01,-2.306187629699707031e+01,-2.306187629699707031e+01,-6.475496888160705566e-01,1.797953338623046875e+02,6.128262029960751534e-04,-2.798770427703857422e+00,1.010973472148180008e-02,-3.132869896944612265e-04,5.771601676940917969e+00,-2.078280225396156311e-02,-2.305409405380487442e-03,-2.238774904981255531e-03,-1.543108582496643066e+00,-3.611500933766365051e-02,0.000000000000000000e+00,-1.304117904510349035e-04,1.000000000000000000e+00
6.200885772705078125e-01,3.432421493530273438e+01,-2.306187629699707031e+01,-2.306187629699707031e+01,-6.475496888160705566e-01,1.797953338623046875e+02,6.128262029960751534e-04,-2.798770427703857422e+00,1.010973472148180008e-02,-3.132869896944612265e-04,5.771601676940917969e+00,-2.078280225396156311e-02,-2.305409405380487442e-03,-2.238774904981255531e-03,-1.543108582496643066e+00,-3.611500933766365051e-02,0.000000000000000000e+00,-1.304117904510349035e-04,1.000000000000000000e+00
7.946169376373291016e-01,3.407643127441406250e+01,-2.306100273132324219e+01,-2.306100273132324219e+01,-7.118832468986511230e-01,1.797933044433593750e+02,8.763562072999775410e-04,-2.376034975051879883e+00,8.669429458677768707e-03,6.942545296624302864e-04,2.422158956527709961e+00,-8.252557367086410522e-03,5.772938951849937439e-03,3.500323742628097534e-03,3.181826472282409668e-01,-8.682576939463615417e-03,1.000000000000000000e+00,-6.774902431061491370e-05,0.000000000000000000e+00
7.946169376373291016e-01,3.407643127441406250e+01,-2.306100273132324219e+01,-2.306100273132324219e+01,-7.118832468986511230e-01,1.797933044433593750e+02,8.763562072999775410e-04,-2.376034975051879883e+00,8.669429458677768707e-03,6.942545296624302864e-04,2.422158956527709961e+00,-8.252557367086410522e-03,5.772938951849937439e-03,3.500323742628097534e-03,3.181826472282409668e-01,-8.682576939463615417e-03,1.000000000000000000e+00,-6.774902431061491370e-05,0.000000000000000000e+00
7.946169376373291016e-01,3.407643127441406250e+01,-2.306100273132324219e+01,-2.306100273132324219e+01,-7.118832468986511230e-01,1.797933044433593750e+02,8.763562072999775410e-04,-2.376034975051879883e+00,8.669429458677768707e-03,6.942545296624302864e-04,2.422158956527709961e+00,-8.252557367086410522e-03,5.772938951849937439e-03,3.500323742628097534e-03,3.181826472282409668e-01,-8.682576939463615417e-03,1.000000000000000000e+00,-6.774902431061491370e-05,0.000000000000000000e+00
7.946169376373291016e-01,3.407643127441406250e+01,-2.306100273132324219e+01,-2.306100273132324219e+01,-7.118832468986511230e-01,1.797933044433593750e+02,8.763562072999775410e-04,-2.376034975051879883e+00,8.669429458677768707e-03,6.942545296624302864e-04,2.422158956527709961e+00,-8.252557367086410522e-03,5.772938951849937439e-03,3.500323742628097534e-03,3.181826472282409668e-01,-8.682576939463615417e-03,1.000000000000000000e+00,-6.774902431061491370e-05,0.000000000000000000e+00
8.783230781555175781e-01,3.383500289916992188e+01,-2.306012725830078125e+01,-2.306012725830078125e+01,-5.701841711997985840e-01,1.797930908203125000e+02,8.253814885392785072e-04,-2.452546834945678711e+00,8.926439099013805389e-03,9.561470942571759224e-04,-9.140531420707702637e-01,3.070379840210080147e-03,3.128713928163051605e-03,5.635301582515239716e-03,2.005109786987304688e+00,6.348296301439404488e-04,1.000000000000000000e+00,-2.827962271112482995e-05,0.000000000000000000e+00
8.783230781555175781e-01,3.383500289916992188e+01,-2.306012725830078125e+01,-2.306012725830078125e+01,-5.701841711997985840e-01,1.797930908203125000e+02,8.253814885392785072e-04,-2.452546834945678711e+00,8.926439099013805389e-03,9.561470942571759224e-04,-9.140531420707702637e-01,3.070379840210080147e-03,3.128713928163051605e-03,5.635301582515239716e-03,2.005109786987304688e+00,6.348296301439404488e-04,1.000000000000000000e+00,-2.827962271112482995e-05,0.000000000000000000e+00
9.483780860900878906e-01,3.362561035156250000e+01,-2.305936622619628906e+01,-2.305936622619628906e+01,-4.018541574478149414e-01,1.797930603027343750e+02,6.174066802486777306e-04,-2.468616008758544922e+00,8.994811214506626129e-03,2.432741224765777588e-03,-2.293793708086013794e-01,9.759775712154805660e-04,2.107763849198818207e-02,3.604936879128217697e-03,1.770775198936462402e+00,-2.523039933294057846e-03,0.000000000000000000e+00,-2.522786417102906853e-05,1.000000000000000000e+00
9.483780860900878906e-01,3.362561035156250000e+01,-2.305936622619628906e+01,-2.305936622619628906e+01,-4.018541574478149414e-01,1.797930603027343750e+02,6.174066802486777306e-04,-2.468616008758544922e+00,8.994811214506626129e-03,2.432741224765777588e-03,-2.293793708086013794e-01,9.759775712154805660e-04,2.107763849198818207e-02,3.604936879128217697e-03,1.770775198936462402e+00,-2.523039933294057846e-03,0.000000000000000000e+00,-2.522786417102906853e-05,1.000000000000000000e+00
9.483780860900878906e-01,3.362561035156250000e+01,-2.305936622619628906e+01,-2.305936622619628906e+01,-4.018541574478149414e-01,1.797930603027343750e+02,6.174066802486777306e-04,-2.468616008758544922e+00,8.994811214506626129e-03,2.432741224765777588e-03,-2.293793708086013794e-01,9.759775712154805660e-04,2.107763849198818207e-02,3.604936879128217697e-03,1.770775198936462402e+00,-2.523039933294057846e-03,0.000000000000000000e+00,-2.522786417102906853e-05,1.000000000000000000e+00
9.483780860900878906e-01,3.362561035156250000e+01,-2.305936622619628906e+01,-2.305936622619628906e+01,-4.018541574478149414e-01,1.797930603027343750e+02,6.174066802486777306e-04,-2.468616008758544922e+00,8.994811214506626129e-03,2.432741224765777588e-03,-2.293793708086013794e-01,9.759775712154805660e-04,2.107763849198818207e-02,3.604936879128217697e-03,1.770775198936462402e+00,-2.523039933294057846e-03,0.000000000000000000e+00,-2.522786417102906853e-05,1.000000000000000000e+00
9.483780860900878906e-01,3.346155929565429688e+01,-2.305877304077148438e+01,-2.305877304077148438e+01,-3.292492628097534180e-01,1.797926177978515625e+02,4.594888596329838037e-04,-2.205364704132080078e+00,8.031771518290042877e-03,9.907478233799338341e-04,3.340794563293457031e+00,-1.222146954387426376e-02,-1.829963736236095428e-02,-7.238339458126574755e-05,4.659879803657531738e-01,-9.437423199415206909e-03,0.000000000000000000e+00,-2.543131449783686548e-05,1.000000000000000000e+00
1.027177095413208008e+00,3.346155929565429688e+01,-2.305877304077148438e+01,-2.305877304077148438e+01,-3.292492628097534180e-01,1.797926177978515625e+02,4.594888596329838037e-04,-2.205364704132080078e+00,8.031771518290042877e-03,9.907478233799338341e-04,3.340794563293457031e+00,-1.222146954387426376e-02,-1.829963736236095428e-02,-7.238339458126574755e-05,4.659879803657531738e-01,-9.437423199415206909e-03,0.000000000000000000e+00,-2.543131449783686548e-05,1.000000000000000000e+00
1.027177095413208008e+00,3.346155929565429688e+01,-2.305877304077148438e+01,-2.305877304077148438e+01,-3.292492628097534180e-01,1.797926177978515625e+02,4.594888596329838037e-04,-2.205364704132080078e+00,8.031771518290042877e-03,9.907478233799338341e-04,3.340794563293457031e+00,-1.222146954387426376e-02,-1.829963736236095428e-02,-7.238339458126574755e-05,4.659879803657531738e-01,-9.437423199415206909e-03,0.000000000000000000e+00,-2.543131449783686548e-05,1.000000000000000000e+00
1.095043420791625977e+00,3.331157302856445312e+01,-2.305823898315429688e+01,-2.305823898315429688e+01,-3.587351739406585693e-01,1.797916259765625000e+02,4.087125998921692371e-04,-1.700223803520202637e+00,6.154409144073724747e-03,-8.417232893407344818e-04,7.443174362182617188e+00,-2.766264975070953369e-02,-2.700118348002433777e-02,-2.551245735958218575e-03,-7.895835638046264648e-01,-1.295697502791881561e-02,0.000000000000000000e+00,-1.810709545679856092e-05,1.000000000000000000e+00
1.095043420791625977e+00,3.331157302856445312e+01,-2.305823898315429688e+01,-2.305823898315429688e+01,-3.587351739406585693e-01,1.797916259765625000e+02,4.087125998921692371e-04,-1.700223803520202637e+00,6.154409144073724747e-03,-8.417232893407344818e-04,7.443174362182617188e+00,-2.766264975070953369e-02,-2.700118348002433777e-02,-2.551245735958218575e-03,-7.895835638046264648e-01,-1.295697502791881561e-02,0.000000000000000000e+00,-1.810709545679856092e-05,1.000000000000000000e+00
1.095043420791625977e+00,3.331157302856445312e+01,-2.305823898315429688e+01,-2.305823898315429688e+01,-3.587351739406585693e-01,1.797916259765625000e+02,4.087125998921692371e-04,-1.700223803520202637e+00,6.154409144073724747e-03,-8.417232893407344818e-04,7.443174362182617188e+00,-2.766264975070953369e-02,-2.700118348002433777e-02,-2.551245735958218575e-03,-7.895835638046264648e-01,-1.295697502791881561e-02,0.000000000000000000e+00,-1.810709545679856092e-05,1.000000000000000000e+00
1.095043420791625977e+00,3.331157302856445312e+01,-2.305823898315429688e+01,-2.305823898315429688e+01,-3.587351739406585693e-01,1.797916259765625000e+02,4.087125998921692371e-04,-1.700223803520202637e+00,6.154409144073724747e-03,-8.417232893407344818e-04,7.443174362182617188e+00,-2.766264975070953369e-02,-2.700118348002433777e-02,-2.551245735958218575e-03,-7.895835638046264648e-01,-1.295697502791881561e-02,0.000000000000000000e+00,-1.810709545679856092e-05,1.000000000000000000e+00
1.168572425842285156e+00,3.321530532836914062e+01,-2.305792999267578125e+01,-2.305792999267578125e+01,-4.295300841331481934e-01,1.797884368896484375e+02,4.436107992660254240e-04,-1.244607329368591309e+00,4.576866049319505692e-03,1.159348408691585064e-03,6.196418285369873047e+00,-2.145470492541790009e-02,2.721472643315792084e-02,-5.448663141578435898e-03,-1.147790789604187012e+00,-2.076639980077743530e-01,0.000000000000000000e+00,-1.424153651896631345e-06,1.000000000000000000e+00
1.168572425842285156e+00,3.321530532836914062e+01,-2.305792999267578125e+01,-2.305792999267578125e+01,-4.295300841331481934e-01,1.797884368896484375e+02,4.436107992660254240e-04,-1.244607329368591309e+00,4.576866049319505692e-03,1.159348408691585064e-03,6.196418285369873047e+00,-2.145470492541790009e-02,2.721472643315792084e-02,-5.448663141578435898e-03,-1.147790789604187012e+00,-2.076639980077743530e-01,0.000000000000000000e+00,-1.424153651896631345e-06,1.000000000000000000e+00
1.168572425842285156e+00,3.321530532836914062e+01,-2.305792999267578125e+01,-2.305792999267578125e+01,-4.295300841331481934e-01,1.797884368896484375e+02,4.436107992660254240e-04,-1.244607329368591309e+00,4.576866049319505692e-03,1.159348408691585064e-03,6.196418285369873047e+00,-2.145470492541790009e-02,2.721472643315792084e-02,-5.448663141578435898e-03,-1.147790789604187012e+00,-2.076639980077743530e-01,0.000000000000000000e+00,-1.424153651896631345e-06,1.000000000000000000e+00
1.168572425842285156e+00,3.321530532836914062e+01,-2.305792999267578125e+01,-2.305792999267578125e+01,-4.295300841331481934e-01,1.797884368896484375e+02,4.436107992660254240e-04,-1.244607329368591309e+00,4.576866049319505692e-03,1.159348408691585064e-03,6.196418285369873047e+00,-2.145470492541790009e-02,2.721472643315792084e-02,-5.448663141578435898e-03,-1.147790789604187012e+00,-2.076639980077743530e-01,0.000000000000000000e+00,-1.424153651896631345e-06,1.000000000000000000e+00
1.168572425842285156e+00,3.316562652587890625e+01,-2.305758476257324219e+01,-2.305758476257324219e+01,-5.971087813377380371e-01,1.798020629882812500e+02,1.159796840511262417e-03,-2.566418051719665527e-01,1.027871039696037769e-03,-5.208775401115417480e-04,1.316436958312988281e+01,-4.728938639163970947e-02,-2.238855138421058655e-02,-7.851546630263328552e-03,-3.055555582046508789e+00,1.348891109228134155e-02,0.000000000000000000e+00,4.211425766698084772e-05,1.000000000000000000e+00
1.243620872497558594e+00,3.316562652587890625e+01,-2.305758476257324219e+01,-2.305758476257324219e+01,-5.971087813377380371e-01,1.798020629882812500e+02,1.159796840511262417e-03,-2.566418051719665527e-01,1.027871039696037769e-03,-5.208775401115417480e-04,1.316436958312988281e+01,-4.728938639163970947e-02,-2.238855138421058655e-02,-7.851546630263328552e-03,-3.055555582046508789e+00,1.348891109228134155e-02,0.000000000000000000e+00,4.211425766698084772e-05,1.000000000000000000e+00
1.243620872497558594e+00,3.316562652587890625e+01,-2.305758476257324219e+01,-2.305758476257324219e+01,-5.971087813377380371e-01,1.798020629882812500e+02,1.159796840511262417e-03,-2.566418051719665527e-01,1.027871039696037769e-03,-5.208775401115417480e-04,1.316436958312988281e+01,-4.728938639163970947e-02,-2.238855138421058655e-02,-7.851546630263328552e-03,-3.055555582046508789e+00,1.348891109228134155e-02,0.000000000000000000e+00,4.211425766698084772e-05,1.000000000000000000e+00
1.243620872497558594e+00,3.316562652587890625e+01,-2.305758476257324219e+01,-2.305758476257324219e+01,-5.971087813377380371e-01,1.798020629882812500e+02,1.159796840511262417e-03,-2.566418051719665527e-01,1.027871039696037769e-03,-5.208775401115417480e-04,1.316436958312988281e+01,-4.728938639163970947e-02,-2.238855138421058655e-02,-7.851546630263328552e-03,-3.055555582046508789e+00,1.348891109228134155e-02,0.000000000000000000e+00,4.211425766698084772e-05,1.000000000000000000e+00
1.312042951583862305e+00,3.316352462768554688e+01,-2.305757331848144531e+01,-2.305757331848144531e+01,-7.194511294364929199e-01,1.798025054931640625e+02,1.298881135880947113e-03,-1.152149983681738377e-03,-1.170169798569986597e-05,-5.942215793766081333e-04,3.734023571014404297e+00,-1.519352849572896957e-02,-1.071935286745429039e-03,1.086951233446598053e-04,-3.937615752220153809e-01,1.943452516570687294e-04,0.000000000000000000e+00,-1.790364622138440609e-04,1.000000000000000000e+00
1.312042951583862305e+00,3.316352462768554688e+01,-2.305757331848144531e+01,-2.305757331848144531e+01,-7.194511294364929199e-01,1.798025054931640625e+02,1.298881135880947113e-03,-1.152149983681738377e-03,-1.170169798569986597e-05,-5.942215793766081333e-04,3.734023571014404297e+00,-1.519352849572896957e-02,-1.071935286745429039e-03,1.086951233446598053e-04,-3.937615752220153809e-01,1.943452516570687294e-04,0.000000000000000000e+00,-1.790364622138440609e-04,1.000000000000000000e+00
1.312042951583862305e+00,3.316328430175781250e+01,-2.305756950378417969e+01,-2.305756950378417969e+01,-6.728214025497436523e-01,1.798025054931640625e+02,1.288609346374869347e-03,3.603229764848947525e-03,-2.991448809552821331e-06,6.961441831663250923e-04,6.689576059579849243e-02,1.225304440595209599e-04,1.815207488834857941e-02,2.961956895887851715e-03,1.199546813964843750e+00,2.819352666847407818e-04,0.000000000000000000e+00,-1.879882765933871269e-04,1.000000000000000000e+00
1.383129358291625977e+00,3.316328430175781250e+01,-2.305756950378417969e+01,-2.305756950378417969e+01,-6.728214025497436523e-01,1.798025054931640625e+02,1.288609346374869347e-03,3.603229764848947525e-03,-2.991448809552821331e-06,6.961441831663250923e-04,6.689576059579849243e-02,1.225304440595209599e-04,1.815207488834857941e-02,2.961956895887851715e-03,1.199546813964843750e+00,2.819352666847407818e-04,0.000000000000000000e+00,-1.879882765933871269e-04,1.000000000000000000e+00
1.383129358291625977e+00,3.316328430175781250e+01,-2.305756950378417969e+01,-2.305756950378417969e+01,-6.728214025497436523e-01,1.798025054931640625e+02,1.288609346374869347e-03,3.603229764848947525e-03,-2.991448809552821331e-06,6.961441831663250923e-04,6.689576059579849243e-02,1.225304440595209599e-04,1.815207488834857941e-02,2.961956895887851715e-03,1.199546813964843750e+00,2.819352666847407818e-04,0.000000000000000000e+00,-1.879882765933871269e-04,1.000000000000000000e+00
1.450951814651489258e+00,3.316270065307617188e+01,-2.305756759643554688e+01,-2.305756759643554688e+01,-5.610316991806030273e-01,1.798025207519531250e+02,1.126460265368223190e-03,5.199702922254800797e-03,8.206899110518861562e-06,-3.846575054922141135e-05,2.353900484740734100e-02,1.651126949582248926e-04,-1.083136722445487976e-02,3.085411386564373970e-03,1.713419079780578613e+00,2.098619443131610751e-04,0.000000000000000000e+00,-1.873779256129637361e-04,1.000000000000000000e+00
1.450951814651489258e+00,3.316270065307617188e+01,-2.305756759643554688e+01,-2.305756759643554688e+01,-5.610316991806030273e-01,1.798025207519531250e+02,1.126460265368223190e-03,5.199702922254800797e-03,8.206899110518861562e-06,-3.846575054922141135e-05,2.353900484740734100e-02,1.651126949582248926e-04,-1.083136722445487976e-02,3.085411386564373970e-03,1.713419079780578613e+00,2.098619443131610751e-04,0.000000000000000000e+00,-1.873779256129637361e-04,1.000000000000000000e+00
1.450951814651489258e+00,3.316270065307617188e+01,-2.305756759643554688e+01,-2.305756759643554688e+01,-5.610316991806030273e-01,1.798025207519531250e+02,1.126460265368223190e-03,5.199702922254800797e-03,8.206899110518861562e-06,-3.846575054922141135e-05,2.353900484740734100e-02,1.651126949582248926e-04,-1.083136722445487976e-02,3.085411386564373970e-03,1.713419079780578613e+00,2.098619443131610751e-04,0.000000000000000000e+00,-1.873779256129637361e-04,1.000000000000000000e+00
1.527701377868652344e+00,3.316209793090820312e+01,-2.305756759643554688e+01,-2.305756759643554688e+01,-4.441535174846649170e-01,1.798025207519531250e+02,9.153780993074178696e-04,5.216580349951982498e-03,1.311216328758746386e-05,4.498348280321806669e-04,2.199025911977514625e-04,6.391260103555396199e-05,6.362258922308683395e-03,2.689662156626582146e-03,1.691509962081909180e+00,2.015695354202762246e-04,0.000000000000000000e+00,-1.883951772470027208e-04,1.000000000000000000e+00
1.527701377868652344e+00,3.316209793090820312e+01,-2.305756759643554688e+01,-2.305756759643554688e+01,-4.441535174846649170e-01,1.798025207519531250e+02,9.153780993074178696e-04,5.216580349951982498e-03,1.311216328758746386e-05,4.498348280321806669e-04,2.199025911977514625e-04,6.391260103555396199e-05,6.362258922308683395e-03,2.689662156626582146e-03,1.691509962081909180e+00,2.015695354202762246e-04,0.000000000000000000e+00,-1.883951772470027208e-04,1.000000000000000000e+00
1.527701377868652344e+00,3.316209793090820312e+01,-2.305756759643554688e+01,-2.305756759643554688e+01,-4.441535174846649170e-01,1.798025207519531250e+02,9.153780993074178696e-04,5.216580349951982498e-03,1.311216328758746386e-05,4.498348280321806669e-04,2.199025911977514625e-04,6.391260103555396199e-05,6.362258922308683395e-03,2.689662156626582146e-03,1.691509962081909180e+00,2.015695354202762246e-04,0.000000000000000000e+00,-1.883951772470027208e-04,1.000000000000000000e+00
1.600134611129760742e+00,3.316147994995117188e+01,-2.305756568908691406e+01,-2.305756568908691406e+01,-3.246115446090698242e-01,1.798025054931640625e+02,6.756151560693979263e-04,4.497453570365905762e-03,1.418622650817269459e-05,-9.499331354163587093e-04,-9.928133338689804077e-03,1.482832067267736420e-05,-1.932494156062602997e-02,2.016820479184389114e-03,1.441626071929931641e+00,2.286986727995099500e-06,0.000000000000000000e+00,-1.875813759397715330e-04,1.000000000000000000e+00
1.600134611129760742e+00,3.316147994995117188e+01,-2.305756568908691406e+01,-2.305756568908691406e+01,-3.246115446090698242e-01,1.798025054931640625e+02,6.756151560693979263e-04,4.497453570365905762e-03,1.418622650817269459e-05,-9.499331354163587093e-04,-9.928133338689804077e-03,1.482832067267736420e-05,-1.932494156062602997e-02,2.016820479184389114e-03,1.441626071929931641e+00,2.286986727995099500e-06,0.000000000000000000e+00,-1.875813759397715330e-04,1.000000000000000000e+00
1.600134611129760742e+00,3.316147994995117188e+01,-2.305756568908691406e+01,-2.305756568908691406e+01,-3.246115446090698242e-01,1.798025054931640625e+02,6.756151560693979263e-04,4.497453570365905762e-03,1.418622650817269459e-05,-9.499331354163587093e-04,-9.928133338689804077e-03,1.482832067267736420e-05,-1.932494156062602997e-02,2.016820479184389114e-03,1.441626071929931641e+00,2.286986727995099500e-06,0.000000000000000000e+00,-1.875813759397715330e-04,1.000000000000000000e+00
1.600134611129760742e+00,3.316147994995117188e+01,-2.305756568908691406e+01,-2.305756568908691406e+01,-3.246115446090698242e-01,1.798025054931640625e+02,6.756151560693979263e-04,4.497453570365905762e-03,1.418622650817269459e-05,-9.499331354163587093e-04,-9.928133338689804077e-03,1.482832067267736420e-05,-1.932494156062602997e-02,2.016820479184389114e-03,1.441626071929931641e+00,2.286986727995099500e-06,0.000000000000000000e+00,-1.875813759397715330e-04,1.000000000000000000e+00
1.600134611129760742e+00,3.316147994995117188e+01,-2.305756568908691406e+01,-2.305756568908691406e+01,-3.246115446090698242e-01,1.798025054931640625e+02,6.756151560693979263e-04,4.497453570365905762e-03,1.418622650817269459e-05,-9.499331354163587093e-04,-9.928133338689804077e-03,1.482832067267736420e-05,-1.932494156062602997e-02,2.016820479184389114e-03,1.441626071929931641e+00,2.286986727995099500e-06,0.000000000000000000e+00,-1.875813759397715330e-04,1.000000000000000000e+00
1.600134611129760742e+00,3.316101074218750000e+01,-2.305756568908691406e+01,-2.305756568908691406e+01,-2.336129546165466309e-01,1.798025054931640625e+02,4.841307527385652065e-04,3.588170045986771584e-03,1.194356718769995496e-05,3.113772254437208176e-04,-7.880850695073604584e-03,-1.943734969245269895e-05,1.093190256506204605e-02,1.539746066555380821e-03,1.134881138801574707e+00,2.003178815357387066e-05,0.000000000000000000e+00,-1.873779256129637361e-04,1.000000000000000000e+00
1.715513467788696289e+00,3.316101074218750000e+01,-2.305756568908691406e+01,-2.305756568908691406e+01,-2.336129546165466309e-01,1.798025054931640625e+02,4.841307527385652065e-04,3.588170045986771584e-03,1.194356718769995496e-05,3.113772254437208176e-04,-7.880850695073604584e-03,-1.943734969245269895e-05,1.093190256506204605e-02,1.539746066555380821e-03,1.134881138801574707e+00,2.003178815357387066e-05,0.000000000000000000e+00,-1.873779256129637361e-04,1.000000000000000000e+00
1.715513467788696289e+00,3.316101074218750000e+01,-2.305756568908691406e+01,-2.305756568908691406e+01,-2.336129546165466309e-01,1.798025054931640625e+02,4.841307527385652065e-04,3.588170045986771584e-03,1.194356718769995496e-05,3.113772254437208176e-04,-7.880850695073604584e-03,-1.943734969245269895e-05,1.093190256506204605e-02,1.539746066555380821e-03,1.134881138801574707e+00,2.003178815357387066e-05,0.000000000000000000e+00,-1.873779256129637361e-04,1.000000000000000000e+00
1.715513467788696289e+00,3.316101074218750000e+01,-2.305756568908691406e+01,-2.305756568908691406e+01,-2.336129546165466309e-01,1.798025054931640625e+02,4.841307527385652065e-04,3.588170045986771584e-03,1.194356718769995496e-05,3.113772254437208176e-04,-7.880850695073604584e-03,-1.943734969245269895e-05,1.093190256506204605e-02,1.539746066555380821e-03,1.134881138801574707e+00,2.003178815357387066e-05,0.000000000000000000e+00,-1.873779256129637361e-04,1.000000000000000000e+00
1.813115119934082031e+00,3.316054534912109375e+01,-2.305756378173828125e+01,-2.305756378173828125e+01,-1.421498954296112061e-01,1.798024902343750000e+02,2.854677150025963783e-04,2.434521913528442383e-03,8.311619239975698292e-06,-8.883521659299731255e-04,-1.181996520608663559e-02,-3.721195389516651630e-05,-1.229210197925567627e-02,9.704510448500514030e-04,7.623665928840637207e-01,-3.853438829537481070e-05,0.000000000000000000e+00,-1.873779256129637361e-04,1.000000000000000000e+00
1.813115119934082031e+00,3.316054534912109375e+01,-2.305756378173828125e+01,-2.305756378173828125e+01,-1.421498954296112061e-01,1.798024902343750000e+02,2.854677150025963783e-04,2.434521913528442383e-03,8.311619239975698292e-06,-8.883521659299731255e-04,-1.181996520608663559e-02,-3.721195389516651630e-05,-1.229210197925567627e-02,9.704510448500514030e-04,7.623665928840637207e-01,-3.853438829537481070e-05,0.000000000000000000e+00,-1.873779256129637361e-04,1.000000000000000000e+00
1.813115119934082031e+00,3.316054534912109375e+01,-2.305756378173828125e+01,-2.305756378173828125e+01,-1.421498954296112061e-01,1.798024902343750000e+02,2.854677150025963783e-04,2.434521913528442383e-03,8.311619239975698292e-06,-8.883521659299731255e-04,-1.181996520608663559e-02,-3.721195389516651630e-05,-1.229210197925567627e-02,9.704510448500514030e-04,7.623665928840637207e-01,-3.853438829537481070e-05,0.000000000000000000e+00,-1.873779256129637361e-04,1.000000000000000000e+00
1.813115119934082031e+00,3.316054534912109375e+01,-2.305756378173828125e+01,-2.305756378173828125e+01,-1.421498954296112061e-01,1.798024902343750000e+02,2.854677150025963783e-04,2.434521913528442383e-03,8.311619239975698292e-06,-8.883521659299731255e-04,-1.181996520608663559e-02,-3.721195389516651630e-05,-1.229210197925567627e-02,9.704510448500514030e-04,7.623665928840637207e-01,-3.853438829537481070e-05,0.000000000000000000e+00,-1.873779256129637361e-04,1.000000000000000000e+00
1.896134853363037109e+00,3.316024780273437500e+01,-2.305756378173828125e+01,-2.305756378173828125e+01,-8.444162458181381226e-02,1.798024902343750000e+02,1.624298893148079515e-04,1.555569469928741455e-03,5.230552687862655148e-06,2.396670461166650057e-04,-1.058727130293846130e-02,-3.711245881277136505e-05,1.358736213296651840e-02,6.642055232077836990e-04,4.830799996852874756e-01,-2.072296229016501456e-05,0.000000000000000000e+00,-1.867675746325403452e-04,1.000000000000000000e+00
1.896134853363037109e+00,3.316024780273437500e+01,-2.305756378173828125e+01,-2.305756378173828125e+01,-8.444162458181381226e-02,1.798024902343750000e+02,1.624298893148079515e-04,1.555569469928741455e-03,5.230552687862655148e-06,2.396670461166650057e-04,-1.058727130293846130e-02,-3.711245881277136505e-05,1.358736213296651840e-02,6.642055232077836990e-04,4.830799996852874756e-01,-2.072296229016501456e-05,0.000000000000000000e+00,-1.867675746325403452e-04,1.000000000000000000e+00
1.896134853363037109e+00,3.316024780273437500e+01,-2.305756378173828125e+01,-2.305756378173828125e+01,-8.444162458181381226e-02,1.798024902343750000e+02,1.624298893148079515e-04,1.555569469928741455e-03,5.230552687862655148e-06,2.396670461166650057e-04,-1.058727130293846130e-02,-3.711245881277136505e-05,1.358736213296651840e-02,6.642055232077836990e-04,4.830799996852874756e-01,-2.072296229016501456e-05,0.000000000000000000e+00,-1.867675746325403452e-04,1.000000000000000000e+00
1.896134853363037109e+00,3.316024780273437500e+01,-2.305756378173828125e+01,-2.305756378173828125e+01,-8.444162458181381226e-02,1.798024902343750000e+02,1.624298893148079515e-04,1.555569469928741455e-03,5.230552687862655148e-06,2.396670461166650057e-04,-1.058727130293846130e-02,-3.711245881277136505e-05,1.358736213296651840e-02,6.642055232077836990e-04,4.830799996852874756e-01,-2.072296229016501456e-05,0.000000000000000000e+00,-1.867675746325403452e-04,1.000000000000000000e+00
1.896134853363037109e+00,3.316024780273437500e+01,-2.305756378173828125e+01,-2.305756378173828125e+01,-8.444162458181381226e-02,1.798024902343750000e+02,1.624298893148079515e-04,1.555569469928741455e-03,5.230552687862655148e-06,2.396670461166650057e-04,-1.058727130293846130e-02,-3.711245881277136505e-05,1.358736213296651840e-02,6.642055232077836990e-04,4.830799996852874756e-01,-2.072296229016501456e-05,0.000000000000000000e+00,-1.867675746325403452e-04,1.000000000000000000e+00
1.896134853363037109e+00,3.316024780273437500e+01,-2.305756378173828125e+01,-2.305756378173828125e+01,-8.444162458181381226e-02,1.798024902343750000e+02,1.624298893148079515e-04,1.555569469928741455e-03,5.230552687862655148e-06,2.396670461166650057e-04,-1.058727130293846130e-02,-3.711245881277136505e-05,1.358736213296651840e-02,6.642055232077836990e-04,4.830799996852874756e-01,-2.072296229016501456e-05,0.000000000000000000e+00,-1.867675746325403452e-04,1.000000000000000000e+00
1.896134853363037109e+00,3.316024780273437500e+01,-2.305756378173828125e+01,-2.305756378173828125e+01,-8.444162458181381226e-02,1.798024902343750000e+02,1.624298893148079515e-04,1.555569469928741455e-03,5.230552687862655148e-06,2.396670461166650057e-04,-1.058727130293846130e-02,-3.711245881277136505e-05,1.358736213296651840e-02,6.642055232077836990e-04,4.830799996852874756e-01,-2.072296229016501456e-05,0.000000000000000000e+00,-1.867675746325403452e-04,1.000000000000000000e+00
2.195794820785522461e+00,3.315993499755859375e+01,-2.305756378173828125e+01,-2.305756378173828125e+01,-2.294943481683731079e-02,1.798024902343750000e+02,3.721068060258403420e-05,1.515835756435990334e-04,-4.552852601591439452e-07,3.487840294837951660e-04,-8.465815335512161255e-03,1.583741141075734049e-05,3.316847607493400574e-03,1.252629735972732306e-04,4.655928164720535278e-02,1.292047954848385416e-06,0.000000000000000000e+00,-1.867675746325403452e-04,1.000000000000000000e+00
2.195794820785522461e+00,3.315993499755859375e+01,-2.305756378173828125e+01,-2.305756378173828125e+01,-2.294943481683731079e-02,1.798024902343750000e+02,3.721068060258403420e-05,1.515835756435990334e-04,-4.552852601591439452e-07,3.487840294837951660e-04,-8.465815335512161255e-03,1.583741141075734049e-05,3.316847607493400574e-03,1.252629735972732306e-04,4.655928164720535278e-02,1.292047954848385416e-06,0.000000000000000000e+00,-1.867675746325403452e-04,1.000000000000000000e+00
2.195794820785522461e+00,3.315993499755859375e+01,-2.305756378173828125e+01,-2.305756378173828125e+01,-2.294943481683731079e-02,1.798024902343750000e+02,3.721068060258403420e-05,1.515835756435990334e-04,-4.552852601591439452e-07,3.487840294837951660e-04,-8.465815335512161255e-03,1.583741141075734049e-05,3.316847607493400574e-03,1.252629735972732306e-04,4.655928164720535278e-02,1.292047954848385416e-06,0.000000000000000000e+00,-1.867675746325403452e-04,1.000000000000000000e+00
2.195794820785522461e+00,3.315993499755859375e+01,-2.305756378173828125e+01,-2.305756378173828125e+01,-2.294943481683731079e-02,1.798024902343750000e+02,3.721068060258403420e-05,1.515835756435990334e-04,-4.552852601591439452e-07,3.487840294837951660e-04,-8.465815335512161255e-03,1.583741141075734049e-05,3.316847607493400574e-03,1.252629735972732306e-04,4.655928164720535278e-02,1.292047954848385416e-06,0.000000000000000000e+00,-1.867675746325403452e-04,1.000000000000000000e+00
2.195794820785522461e+00,3.315993499755859375e+01,-2.305756378173828125e+01,-2.305756378173828125e+01,-2.294943481683731079e-02,1.798024902343750000e+02,3.721068060258403420e-05,1.515835756435990334e-04,-4.552852601591439452e-07,3.487840294837951660e-04,-8.465815335512161255e-03,1.583741141075734049e-05,3.316847607493400574e-03,1.252629735972732306e-04,4.655928164720535278e-02,1.292047954848385416e-06,0.000000000000000000e+00,-1.867675746325403452e-04,1.000000000000000000e+00
2.195794820785522461e+00,3.315993499755859375e+01,-2.305756378173828125e+01,-2.305756378173828125e+01,-2.294943481683731079e-02,1.798024902343750000e+02,3.721068060258403420e-05,1.515835756435990334e-04,-4.552852601591439452e-07,3.487840294837951660e-04,-8.465815335512161255e-03,1.583741141075734049e-05,3.316847607493400574e-03,1.252629735972732306e-04,4.655928164720535278e-02,1.292047954848385416e-06,0.000000000000000000e+00,-1.867675746325403452e-04,1.000000000000000000e+00
2.195794820785522461e+00,3.315993499755859375e+01,-2.305756378173828125e+01,-2.305756378173828125e+01,-2.294943481683731079e-02,1.798024902343750000e+02,3.721068060258403420e-05,1.515835756435990334e-04,-4.552852601591439452e-07,3.487840294837951660e-04,-8.465815335512161255e-03,1.583741141075734049e-05,3.316847607493400574e-03,1.252629735972732306e-04,4.655928164720535278e-02,1.292047954848385416e-06,0.000000000000000000e+00,-1.867675746325403452e-04,1.000000000000000000e+00
2.195794820785522461e+00,3.315993499755859375e+01,-2.305756378173828125e+01,-2.305756378173828125e+01,-2.294943481683731079e-02,1.798024902343750000e+02,3.721068060258403420e-05,1.515835756435990334e-04,-4.552852601591439452e-07,3.487840294837951660e-04,-8.465815335512161255e-03,1.583741141075734049e-05,3.316847607493400574e-03,1.252629735972732306e-04,4.655928164720535278e-02,1.292047954848385416e-06,0.000000000000000000e+00,-1.867675746325403452e-04,1.000000000000000000e+00
2.195794820785522461e+00,3.315993499755859375e+01,-2.305756378173828125e+01,-2.305756378173828125e+01,-2.294943481683731079e-02,1.798024902343750000e+02,3.721068060258403420e-05,1.515835756435990334e-04,-4.552852601591439452e-07,3.487840294837951660e-04,-8.465815335512161255e-03,1.583741141075734049e-05,3.316847607493400574e-03,1.252629735972732306e-04,4.655928164720535278e-02,1.292047954848385416e-06,0.000000000000000000e+00,-1.867675746325403452e-04,1.000000000000000000e+00
2.195794820785522461e+00,3.315993499755859375e+01,-2.305756378173828125e+01,-2.305756378173828125e+01,-2.294943481683731079e-02,1.798024902343750000e+02,3.721068060258403420e-05,1.515835756435990334e-04,-4.552852601591439452e-07,3.487840294837951660e-04,-8.465815335512161255e-03,1.583741141075734049e-05,3.316847607493400574e-03,1.252629735972732306e-04,4.655928164720535278e-02,1.292047954848385416e-06,0.000000000000000000e+00,-1.867675746325403452e-04,1.000000000000000000e+00
2.374083757400512695e+00,3.315991973876953125e+01,-2.305756378173828125e+01,-2.305756378173828125e+01,-1.999196223914623260e-02,1.798024902343750000e+02,3.370193735463544726e-05,1.933137682499364018e-04,-4.783894951287948061e-07,1.380746602080762386e-03,2.340593491680920124e-04,-1.295887130936534959e-07,5.788146983832120895e-03,1.282683515455573797e-04,5.940567329525947571e-02,3.230848335533664795e-07,0.000000000000000000e+00,-1.867675746325403452e-04,1.000000000000000000e+00
2.374083757400512695e+00,3.315991973876953125e+01,-2.305756378173828125e+01,-2.305756378173828125e+01,-1.999196223914623260e-02,1.798024902343750000e+02,3.370193735463544726e-05,1.933137682499364018e-04,-4.783894951287948061e-07,1.380746602080762386e-03,2.340593491680920124e-04,-1.295887130936534959e-07,5.788146983832120895e-03,1.282683515455573797e-04,5.940567329525947571e-02,3.230848335533664795e-07,0.000000000000000000e+00,-1.867675746325403452e-04,1.000000000000000000e+00
2.374083757400512695e+00,3.315991973876953125e+01,-2.305756378173828125e+01,-2.305756378173828125e+01,-1.999196223914623260e-02,1.798024902343750000e+02,3.370193735463544726e-05,1.933137682499364018e-04,-4.783894951287948061e-07,1.380746602080762386e-03,2.340593491680920124e-04,-1.295887130936534959e-07,5.788146983832120895e-03,1.282683515455573797e-04,5.940567329525947571e-02,3.230848335533664795e-07,0.000000000000000000e+00,-1.867675746325403452e-04,1.000000000000000000e+00
2.447860002517700195e+00,3.315988540649414062e+01,-2.305756378173828125e+01,-2.305756378173828125e+01,-1.394724566489458084e-02,1.798024902343750000e+02,2.690176006581168622e-05,1.870432461146265268e-04,-5.140116172697162256e-07,-1.132604549638926983e-03,-8.499378600390627980e-05,-4.828399937650829088e-07,-3.406721353530883789e-02,1.368927332805469632e-04,5.748022720217704773e-02,-3.574149332052911632e-07,0.000000000000000000e+00,-1.867675746325403452e-04,1.000000000000000000e+00
2.447860002517700195e+00,3.315988540649414062e+01,-2.305756378173828125e+01,-2.305756378173828125e+01,-1.394724566489458084e-02,1.798024902343750000e+02,2.690176006581168622e-05,1.870432461146265268e-04,-5.140116172697162256e-07,-1.132604549638926983e-03,-8.499378600390627980e-05,-4.828399937650829088e-07,-3.406721353530883789e-02,1.368927332805469632e-04,5.748022720217704773e-02,-3.574149332052911632e-07,0.000000000000000000e+00,-1.867675746325403452e-04,1.000000000000000000e+00
2.500878810882568359e+00,3.315986633300781250e+01,-2.305756378173828125e+01,-2.305756378173828125e+01,-1.016332115978002548e-02,1.798024902343750000e+02,2.086419408442452550e-05,1.532288006274029613e-04,-5.070838824394741096e-07,1.190009876154363155e-03,-6.377820391207933426e-04,1.306656116639715037e-07,4.380736500024795532e-02,1.332269603153690696e-04,4.706259071826934814e-02,-4.540072211511869682e-07,0.000000000000000000e+00,-1.873779256129637361e-04,1.000000000000000000e+00
2.500878810882568359e+00,3.315986633300781250e+01,-2.305756378173828125e+01,-2.305756378173828125e+01,-1.016332115978002548e-02,1.798024902343750000e+02,2.086419408442452550e-05,1.532288006274029613e-04,-5.070838824394741096e-07,1.190009876154363155e-03,-6.377820391207933426e-04,1.306656116639715037e-07,4.380736500024795532e-02,1.332269603153690696e-04,4.706259071826934814e-02,-4.540072211511869682e-07,0.000000000000000000e+00,-1.873779256129637361e-04,1.000000000000000000e+00
2.500878810882568359e+00,3.315985870361328125e+01,-2.305756378173828125e+01,-2.305756378173828125e+01,-7.964000105857849121e-03,1.798024902343750000e+02,1.785567656042985618e-05,1.270410139113664627e-04,-3.698900457038689638e-07,1.913093612529337406e-03,-4.414914292283356190e-04,2.312906644874601625e-06,1.219023484736680984e-02,9.424488962395116687e-05,3.900187090039253235e-02,-4.485177669266704470e-07,0.000000000000000000e+00,-1.873779256129637361e-04,1.000000000000000000e+00
2.560195446014404297e+00,3.315985870361328125e+01,-2.305756378173828125e+01,-2.305756378173828125e+01,-7.964000105857849121e-03,1.798024902343750000e+02,1.785567656042985618e-05,1.270410139113664627e-04,-3.698900457038689638e-07,1.913093612529337406e-03,-4.414914292283356190e-04,2.312906644874601625e-06,1.219023484736680984e-02,9.424488962395116687e-05,3.900187090039253235e-02,-4.485177669266704470e-07,0.000000000000000000e+00,-1.873779256129637361e-04,1.000000000000000000e+00
2.560195446014404297e+00,3.315985870361328125e+01,-2.305756378173828125e+01,-2.305756378173828125e+01,-7.964000105857849121e-03,1.798024902343750000e+02,1.785567656042985618e-05,1.270410139113664627e-04,-3.698900457038689638e-07,1.913093612529337406e-03,-4.414914292283356190e-04,2.312906644874601625e-06,1.219023484736680984e-02,9.424488962395116687e-05,3.900187090039253235e-02,-4.485177669266704470e-07,0.000000000000000000e+00,-1.873779256129637361e-04,1.000000000000000000e+00
2.618730545043945312e+00,3.315985107421875000e+01,-2.305756378173828125e+01,-2.305756378173828125e+01,-5.921773612499237061e-03,1.798024902343750000e+02,1.495776996307540685e-05,1.009651823551394045e-04,-9.324725169790326618e-08,-3.421848232392221689e-04,-4.454734153114259243e-04,4.726100996776949614e-06,-3.852865099906921387e-02,2.698922980925999582e-05,3.099830076098442078e-02,-3.512396631322189933e-07,0.000000000000000000e+00,-1.873779256129637361e-04,1.000000000000000000e+00
2.618730545043945312e+00,3.315985107421875000e+01,-2.305756378173828125e+01,-2.305756378173828125e+01,-5.921773612499237061e-03,1.798024902343750000e+02,1.495776996307540685e-05,1.009651823551394045e-04,-9.324725169790326618e-08,-3.421848232392221689e-04,-4.454734153114259243e-04,4.726100996776949614e-06,-3.852865099906921387e-02,2.698922980925999582e-05,3.099830076098442078e-02,-3.512396631322189933e-07,0.000000000000000000e+00,-1.873779256129637361e-04,1.000000000000000000e+00
2.677334070205688477e+00,3.315984725952148438e+01,-2.305756378173828125e+01,-2.305756378173828125e+01,-5.033849272876977921e-03,1.798024902343750000e+02,1.384458028041990474e-05,1.972722020582295954e-05,-1.020753188640810549e-07,-9.192074685415718704e-06,-1.386229880154132843e-03,-1.506405453710613074e-07,5.682128481566905975e-03,3.141510023851878941e-05,6.006999872624874115e-03,1.134978788286389317e-06,0.000000000000000000e+00,-1.873779256129637361e-04,1.000000000000000000e+00
2.677334070205688477e+00,3.315984725952148438e+01,-2.305756378173828125e+01,-2.305756378173828125e+01,-5.033849272876977921e-03,1.798024902343750000e+02,1.384458028041990474e-05,1.972722020582295954e-05,-1.020753188640810549e-07,-9.192074685415718704e-06,-1.386229880154132843e-03,-1.506405453710613074e-07,5.682128481566905975e-03,3.141510023851878941e-05,6.006999872624874115e-03,1.134978788286389317e-06,0.000000000000000000e+00,-1.873779256129637361e-04,1.000000000000000000e+00
2.677334070205688477e+00,3.315984725952148438e+01,-2.305756378173828125e+01,-2.305756378173828125e+01,-5.033849272876977921e-03,1.798024902343750000e+02,1.384458028041990474e-05,1.972722020582295954e-05,-1.020753188640810549e-07,-9.192074685415718704e-06,-1.386229880154132843e-03,-1.506405453710613074e-07,5.682128481566905975e-03,3.141510023851878941e-05,6.006999872624874115e-03,1.134978788286389317e-06,0.000000000000000000e+00,-1.873779256129637361e-04,1.000000000000000000e+00
2.677334070205688477e+00,3.315984725952148438e+01,-2.305756378173828125e+01,-2.305756378173828125e+01,-5.033849272876977921e-03,1.798024902343750000e+02,1.384458028041990474e-05,1.972722020582295954e-05,-1.020753188640810549e-07,-9.192074685415718704e-06,-1.386229880154132843e-03,-1.506405453710613074e-07,5.682128481566905975e-03,3.141510023851878941e-05,6.006999872624874115e-03,1.134978788286389317e-06,0.000000000000000000e+00,-1.873779256129637361e-04,1.000000000000000000e+00
2.755024909973144531e+00,3.315984344482421875e+01,-2.305756378173828125e+01,-2.305756378173828125e+01,-4.460113123059272766e-03,1.798024902343750000e+02,1.263651211047545075e-05,3.687424396048299968e-05,6.391279327999654924e-08,-3.450841541052795947e-05,2.207084326073527336e-04,2.136521061402163468e-06,-3.258600772824138403e-04,-1.882213473436422646e-05,1.130604557693004608e-02,2.112442842872042092e-07,0.000000000000000000e+00,-1.873779256129637361e-04,1.000000000000000000e+00
2.755024909973144531e+00,3.315984344482421875e+01,-2.305756378173828125e+01,-2.305756378173828125e+01,-4.460113123059272766e-03,1.798024902343750000e+02,1.263651211047545075e-05,3.687424396048299968e-05,6.391279327999654924e-08,-3.450841541052795947e-05,2.207084326073527336e-04,2.136521061402163468e-06,-3.258600772824138403e-04,-1.882213473436422646e-05,1.130604557693004608e-02,2.112442842872042092e-07,0.000000000000000000e+00,-1.873779256129637361e-04,1.000000000000000000e+00
2.755024909973144531e+00,3.315984344482421875e+01,-2.305756378173828125e+01,-2.305756378173828125e+01,-4.460113123059272766e-03,1.798024902343750000e+02,1.263651211047545075e-05,3.687424396048299968e-05,6.391279327999654924e-08,-3.450841541052795947e-05,2.207084326073527336e-04,2.136521061402163468e-06,-3.258600772824138403e-04,-1.882213473436422646e-05,1.130604557693004608e-02,2.112442842872042092e-07,0.000000000000000000e+00,-1.873779256129637361e-04,1.000000000000000000e+00
2.830169916152954102e+00,3.315983581542968750e+01,-2.305756378173828125e+01,-2.305756378173828125e+01,-3.483396256342530251e-03,1.798024902343750000e+02,1.220490958075970411e-05,4.114601324545219541e-05,-6.613445346914659240e-09,-5.905950092710554600e-04,5.684701318386942148e-05,-9.385352655044698622e-07,-7.400180213153362274e-03,5.220514140091836452e-06,1.262261532247066498e-02,2.158795275875036168e-08,0.000000000000000000e+00,-1.873779256129637361e-04,1.000000000000000000e+00
2.830169916152954102e+00,3.315983581542968750e+01,-2.305756378173828125e+01,-2.305756378173828125e+01,-3.483396256342530251e-03,1.798024902343750000e+02,1.220490958075970411e-05,4.114601324545219541e-05,-6.613445346914659240e-09,-5.905950092710554600e-04,5.684701318386942148e-05,-9.385352655044698622e-07,-7.400180213153362274e-03,5.220514140091836452e-06,1.262261532247066498e-02,2.158795275875036168e-08,0.000000000000000000e+00,-1.873779256129637361e-04,1.000000000000000000e+00
2.830169916152954102e+00,3.315983581542968750e+01,-2.305756378173828125e+01,-2.305756378173828125e+01,-3.483396256342530251e-03,1.798024902343750000e+02,1.220490958075970411e-05,4.114601324545219541e-05,-6.613445346914659240e-09,-5.905950092710554600e-04,5.684701318386942148e-05,-9.385352655044698622e-07,-7.400180213153362274e-03,5.220514140091836452e-06,1.262261532247066498e-02,2.158795275875036168e-08,0.000000000000000000e+00,-1.873779256129637361e-04,1.000000000000000000e+00
2.830169916152954102e+00,3.315983581542968750e+01,-2.305756378173828125e+01,-2.305756378173828125e+01,-3.483396256342530251e-03,1.798024902343750000e+02,1.220490958075970411e-05,4.114601324545219541e-05,-6.613445346914659240e-09,-5.905950092710554600e-04,5.684701318386942148e-05,-9.385352655044698622e-07,-7.400180213153362274e-03,5.220514140091836452e-06,1.262261532247066498e-02,2.158795275875036168e-08,0.000000000000000000e+00,-1.873779256129637361e-04,1.000000000000000000e+00
2.830169916152954102e+00,3.315983581542968750e+01,-2.305756378173828125e+01,-2.305756378173828125e+01,-3.483396256342530251e-03,1.798024902343750000e+02,1.220490958075970411e-05,4.114601324545219541e-05,-6.613445346914659240e-09,-5.905950092710554600e-04,5.684701318386942148e-05,-9.385352655044698622e-07,-7.400180213153362274e-03,5.220514140091836452e-06,1.262261532247066498e-02,2.158795275875036168e-08,0.000000000000000000e+00,-1.873779256129637361e-04,1.000000000000000000e+00
2.917726278305053711e+00,3.315982818603515625e+01,-2.305756378173828125e+01,-2.305756378173828125e+01,-2.588641596958041191e-03,1.798024902343750000e+02,1.063429681380512193e-05,3.631677100202068686e-05,-8.525350381205498707e-08,1.908015547087416053e-04,-5.515581142390146852e-05,-8.981648988992674276e-07,8.924497291445732117e-03,2.005996248044539243e-05,1.114270463585853577e-02,-6.090485271670331713e-08,0.000000000000000000e+00,-1.873779256129637361e-04,1.000000000000000000e+00
