# Time,X,Y,Z,Roll,Pitch,Yaw,Vx,Vy,Vz,Ax,Ay,Az,Wx,Wy,Wz,Throttle,Steer,Brake
0.000000000000000000e+00,-2.870833129882812500e+02,2.437666320800781250e+02,2.437666320800781250e+02,-6.500290334224700928e-02,-1.076354756951332092e-01,-3.356933360919356346e-03,1.239999771118164062e+01,-2.376182749867439270e-02,4.071613602718571201e-06,8.343729376792907715e-01,-6.153478752821683884e-03,-1.595447793079074472e-05,-4.555656574666500092e-03,2.528832256793975830e-01,-5.778990685939788818e-02,1.000000000000000000e+00,-1.536081981612369418e-04,0.000000000000000000e+00
1.045818328857421875e-01,-2.870833129882812500e+02,2.437666320800781250e+02,2.437666320800781250e+02,-6.500290334224700928e-02,-1.076354756951332092e-01,-3.356933360919356346e-03,1.239999771118164062e+01,-2.376182749867439270e-02,4.071613602718571201e-06,8.343729376792907715e-01,-6.153478752821683884e-03,-1.595447793079074472e-05,-4.555656574666500092e-03,2.528832256793975830e-01,-5.778990685939788818e-02,1.000000000000000000e+00,-1.536081981612369418e-04,0.000000000000000000e+00
1.045818328857421875e-01,-2.870833129882812500e+02,2.437666320800781250e+02,2.437666320800781250e+02,-6.500290334224700928e-02,-1.076354756951332092e-01,-3.356933360919356346e-03,1.239999771118164062e+01,-2.376182749867439270e-02,4.071613602718571201e-06,8.343729376792907715e-01,-6.153478752821683884e-03,-1.595447793079074472e-05,-4.555656574666500092e-03,2.528832256793975830e-01,-5.778990685939788818e-02,1.000000000000000000e+00,-1.536081981612369418e-04,0.000000000000000000e+00
1.045818328857421875e-01,-2.870833129882812500e+02,2.437666320800781250e+02,2.437666320800781250e+02,-6.500290334224700928e-02,-1.076354756951332092e-01,-3.356933360919356346e-03,1.239999771118164062e+01,-2.376182749867439270e-02,4.071613602718571201e-06,8.343729376792907715e-01,-6.153478752821683884e-03,-1.595447793079074472e-05,-4.555656574666500092e-03,2.528832256793975830e-01,-5.778990685939788818e-02,1.000000000000000000e+00,-1.536081981612369418e-04,0.000000000000000000e+00
1.045818328857421875e-01,-2.870833129882812500e+02,2.437666320800781250e+02,2.437666320800781250e+02,-6.500290334224700928e-02,-1.076354756951332092e-01,-3.356933360919356346e-03,1.239999771118164062e+01,-2.376182749867439270e-02,4.071613602718571201e-06,8.343729376792907715e-01,-6.153478752821683884e-03,-1.595447793079074472e-05,-4.555656574666500092e-03,2.528832256793975830e-01,-5.778990685939788818e-02,1.000000000000000000e+00,-1.536081981612369418e-04,0.000000000000000000e+00
1.045818328857421875e-01,-2.870833129882812500e+02,2.437666320800781250e+02,2.437666320800781250e+02,-6.500290334224700928e-02,-1.076354756951332092e-01,-3.356933360919356346e-03,1.239999771118164062e+01,-2.376182749867439270e-02,4.071613602718571201e-06,8.343729376792907715e-01,-6.153478752821683884e-03,-1.595447793079074472e-05,-4.555656574666500092e-03,2.528832256793975830e-01,-5.778990685939788818e-02,1.000000000000000000e+00,-1.536081981612369418e-04,0.000000000000000000e+00
1.045818328857421875e-01,-2.858376464843750000e+02,2.437643127441406250e+02,2.437643127441406250e+02,-8.401132375001907349e-02,-1.102294623851776123e-01,-2.166747814044356346e-03,1.249716663360595703e+01,-2.373129874467849731e-02,3.775920731641235761e-06,9.279909133911132812e-01,2.915583027061074972e-04,-2.823951263053459115e-06,-9.351727552711963654e-03,1.430642753839492798e-01,-1.116090267896652222e-02,1.000000000000000000e+00,1.989443444472271949e-05,0.000000000000000000e+00
2.092907428741455078e-01,-2.858376464843750000e+02,2.437643127441406250e+02,2.437643127441406250e+02,-8.401132375001907349e-02,-1.102294623851776123e-01,-2.166747814044356346e-03,1.249716663360595703e+01,-2.373129874467849731e-02,3.775920731641235761e-06,9.279909133911132812e-01,2.915583027061074972e-04,-2.823951263053459115e-06,-9.351727552711963654e-03,1.430642753839492798e-01,-1.116090267896652222e-02,1.000000000000000000e+00,1.989443444472271949e-05,0.000000000000000000e+00
2.092907428741455078e-01,-2.858376464843750000e+02,2.437643127441406250e+02,2.437643127441406250e+02,-8.401132375001907349e-02,-1.102294623851776123e-01,-2.166747814044356346e-03,1.249716663360595703e+01,-2.373129874467849731e-02,3.775920731641235761e-06,9.279909133911132812e-01,2.915583027061074972e-04,-2.823951263053459115e-06,-9.351727552711963654e-03,1.430642753839492798e-01,-1.116090267896652222e-02,1.000000000000000000e+00,1.989443444472271949e-05,0.000000000000000000e+00
2.092907428741455078e-01,-2.858376464843750000e+02,2.437643127441406250e+02,2.437643127441406250e+02,-8.401132375001907349e-02,-1.102294623851776123e-01,-2.166747814044356346e-03,1.249716663360595703e+01,-2.373129874467849731e-02,3.775920731641235761e-06,9.279909133911132812e-01,2.915583027061074972e-04,-2.823951263053459115e-06,-9.351727552711963654e-03,1.430642753839492798e-01,-1.116090267896652222e-02,1.000000000000000000e+00,1.989443444472271949e-05,0.000000000000000000e+00
2.092907428741455078e-01,-2.858376464843750000e+02,2.437643127441406250e+02,2.437643127441406250e+02,-8.401132375001907349e-02,-1.102294623851776123e-01,-2.166747814044356346e-03,1.249716663360595703e+01,-2.373129874467849731e-02,3.775920731641235761e-06,9.279909133911132812e-01,2.915583027061074972e-04,-2.823951263053459115e-06,-9.351727552711963654e-03,1.430642753839492798e-01,-1.116090267896652222e-02,1.000000000000000000e+00,1.989443444472271949e-05,0.000000000000000000e+00
2.092907428741455078e-01,-2.845825805664062500e+02,2.437619628906250000e+02,2.437619628906250000e+02,-9.340966492891311646e-02,-1.095886081457138062e-01,-1.098632696084678173e-03,1.258799457550048828e+01,-2.352553792297840118e-02,4.119186542084207758e-06,1.217229604721069336e+00,2.757501322776079178e-03,4.600272859534015879e-06,-8.731431327760219574e-03,6.431666016578674316e-02,1.467670127749443054e-02,1.000000000000000000e+00,9.001057333080098033e-05,0.000000000000000000e+00
2.839093208312988281e-01,-2.845825805664062500e+02,2.437619628906250000e+02,2.437619628906250000e+02,-9.340966492891311646e-02,-1.095886081457138062e-01,-1.098632696084678173e-03,1.258799457550048828e+01,-2.352553792297840118e-02,4.119186542084207758e-06,1.217229604721069336e+00,2.757501322776079178e-03,4.600272859534015879e-06,-8.731431327760219574e-03,6.431666016578674316e-02,1.467670127749443054e-02,1.000000000000000000e+00,9.001057333080098033e-05,0.000000000000000000e+00
2.839093208312988281e-01,-2.845825805664062500e+02,2.437619628906250000e+02,2.437619628906250000e+02,-9.340966492891311646e-02,-1.095886081457138062e-01,-1.098632696084678173e-03,1.258799457550048828e+01,-2.352553792297840118e-02,4.119186542084207758e-06,1.217229604721069336e+00,2.757501322776079178e-03,4.600272859534015879e-06,-8.731431327760219574e-03,6.431666016578674316e-02,1.467670127749443054e-02,1.000000000000000000e+00,9.001057333080098033e-05,0.000000000000000000e+00
2.839093208312988281e-01,-2.845825805664062500e+02,2.437619628906250000e+02,2.437619628906250000e+02,-9.340966492891311646e-02,-1.095886081457138062e-01,-1.098632696084678173e-03,1.258799457550048828e+01,-2.352553792297840118e-02,4.119186542084207758e-06,1.217229604721069336e+00,2.757501322776079178e-03,4.600272859534015879e-06,-8.731431327760219574e-03,6.431666016578674316e-02,1.467670127749443054e-02,1.000000000000000000e+00,9.001057333080098033e-05,0.000000000000000000e+00
2.839093208312988281e-01,-2.845825805664062500e+02,2.437619628906250000e+02,2.437619628906250000e+02,-9.340966492891311646e-02,-1.095886081457138062e-01,-1.098632696084678173e-03,1.258799457550048828e+01,-2.352553792297840118e-02,4.119186542084207758e-06,1.217229604721069336e+00,2.757501322776079178e-03,4.600272859534015879e-06,-8.731431327760219574e-03,6.431666016578674316e-02,1.467670127749443054e-02,1.000000000000000000e+00,9.001057333080098033e-05,0.000000000000000000e+00
3.569011688232421875e-01,-2.836404418945312500e+02,2.437601928710937500e+02,2.437601928710937500e+02,-9.631249308586120605e-02,-1.080932542681694031e-01,-5.187987699173390865e-04,1.265152454376220703e+01,-2.333103865385055542e-02,3.842733804049203172e-06,8.703707456588745117e-01,2.664671046659350395e-03,-3.787446757996804081e-06,-7.469687610864639282e-03,2.522277273237705231e-02,2.284970507025718689e-02,1.000000000000000000e+00,1.031694700941443443e-04,0.000000000000000000e+00
3.569011688232421875e-01,-2.836404418945312500e+02,2.437601928710937500e+02,2.437601928710937500e+02,-9.631249308586120605e-02,-1.080932542681694031e-01,-5.187987699173390865e-04,1.265152454376220703e+01,-2.333103865385055542e-02,3.842733804049203172e-06,8.703707456588745117e-01,2.664671046659350395e-03,-3.787446757996804081e-06,-7.469687610864639282e-03,2.522277273237705231e-02,2.284970507025718689e-02,1.000000000000000000e+00,1.031694700941443443e-04,0.000000000000000000e+00
3.569011688232421875e-01,-2.836404418945312500e+02,2.437601928710937500e+02,2.437601928710937500e+02,-9.631249308586120605e-02,-1.080932542681694031e-01,-5.187987699173390865e-04,1.265152454376220703e+01,-2.333103865385055542e-02,3.842733804049203172e-06,8.703707456588745117e-01,2.664671046659350395e-03,-3.787446757996804081e-06,-7.469687610864639282e-03,2.522277273237705231e-02,2.284970507025718689e-02,1.000000000000000000e+00,1.031694700941443443e-04,0.000000000000000000e+00
3.569011688232421875e-01,-2.836404418945312500e+02,2.437601928710937500e+02,2.437601928710937500e+02,-9.631249308586120605e-02,-1.080932542681694031e-01,-5.187987699173390865e-04,1.265152454376220703e+01,-2.333103865385055542e-02,3.842733804049203172e-06,8.703707456588745117e-01,2.664671046659350395e-03,-3.787446757996804081e-06,-7.469687610864639282e-03,2.522277273237705231e-02,2.284970507025718689e-02,1.000000000000000000e+00,1.031694700941443443e-04,0.000000000000000000e+00
4.765405654907226562e-01,-2.827176818847656250e+02,2.437585144042968750e+02,2.437585144042968750e+02,-8.429136127233505249e-02,-1.062927171587944031e-01,-3.051757812500000000e-05,1.263507461547851562e+01,-2.296041138470172882e-02,2.755716423052945174e-06,-1.374959200620651245e-01,3.097869921475648880e-03,-9.085781130124814808e-06,-6.526885554194450378e-03,-2.393480688333511353e-01,2.501467987895011902e-02,1.000000000000000000e+00,1.035332679748535156e-04,0.000000000000000000e+00
4.765405654907226562e-01,-2.827176818847656250e+02,2.437585144042968750e+02,2.437585144042968750e+02,-8.429136127233505249e-02,-1.062927171587944031e-01,-3.051757812500000000e-05,1.263507461547851562e+01,-2.296041138470172882e-02,2.755716423052945174e-06,-1.374959200620651245e-01,3.097869921475648880e-03,-9.085781130124814808e-06,-6.526885554194450378e-03,-2.393480688333511353e-01,2.501467987895011902e-02,1.000000000000000000e+00,1.035332679748535156e-04,0.000000000000000000e+00
4.765405654907226562e-01,-2.827176818847656250e+02,2.437585144042968750e+02,2.437585144042968750e+02,-8.429136127233505249e-02,-1.062927171587944031e-01,-3.051757812500000000e-05,1.263507461547851562e+01,-2.296041138470172882e-02,2.755716423052945174e-06,-1.374959200620651245e-01,3.097869921475648880e-03,-9.085781130124814808e-06,-6.526885554194450378e-03,-2.393480688333511353e-01,2.501467987895011902e-02,1.000000000000000000e+00,1.035332679748535156e-04,0.000000000000000000e+00
4.765405654907226562e-01,-2.827176818847656250e+02,2.437585144042968750e+02,2.437585144042968750e+02,-8.429136127233505249e-02,-1.062927171587944031e-01,-3.051757812500000000e-05,1.263507461547851562e+01,-2.296041138470172882e-02,2.755716423052945174e-06,-1.374959200620651245e-01,3.097869921475648880e-03,-9.085781130124814808e-06,-6.526885554194450378e-03,-2.393480688333511353e-01,2.501467987895011902e-02,1.000000000000000000e+00,1.035332679748535156e-04,0.000000000000000000e+00
4.765405654907226562e-01,-2.827176818847656250e+02,2.437585144042968750e+02,2.437585144042968750e+02,-8.429136127233505249e-02,-1.062927171587944031e-01,-3.051757812500000000e-05,1.263507461547851562e+01,-2.296041138470172882e-02,2.755716423052945174e-06,-1.374959200620651245e-01,3.097869921475648880e-03,-9.085781130124814808e-06,-6.526885554194450378e-03,-2.393480688333511353e-01,2.501467987895011902e-02,1.000000000000000000e+00,1.035332679748535156e-04,0.000000000000000000e+00
4.765405654907226562e-01,-2.827176818847656250e+02,2.437585144042968750e+02,2.437585144042968750e+02,-8.429136127233505249e-02,-1.062927171587944031e-01,-3.051757812500000000e-05,1.263507461547851562e+01,-2.296041138470172882e-02,2.755716423052945174e-06,-1.374959200620651245e-01,3.097869921475648880e-03,-9.085781130124814808e-06,-6.526885554194450378e-03,-2.393480688333511353e-01,2.501467987895011902e-02,1.000000000000000000e+00,1.035332679748535156e-04,0.000000000000000000e+00
4.765405654907226562e-01,-2.827176818847656250e+02,2.437585144042968750e+02,2.437585144042968750e+02,-8.429136127233505249e-02,-1.062927171587944031e-01,-3.051757812500000000e-05,1.263507461547851562e+01,-2.296041138470172882e-02,2.755716423052945174e-06,-1.374959200620651245e-01,3.097869921475648880e-03,-9.085781130124814808e-06,-6.526885554194450378e-03,-2.393480688333511353e-01,2.501467987895011902e-02,1.000000000000000000e+00,1.035332679748535156e-04,0.000000000000000000e+00
6.200885772705078125e-01,-2.814552917480468750e+02,2.437562103271484375e+02,2.437562103271484375e+02,-5.718917027115821838e-02,-1.042785570025444031e-01,2.612816460896283388e-04,1.261352920532226562e+01,-2.270317822694778442e-02,3.089389792876318097e-06,-1.500920206308364868e-01,1.791966031305491924e-03,2.324472234249697067e-06,-2.905676141381263733e-03,-2.610125541687011719e-01,1.822895929217338562e-02,1.000000000000000000e+00,6.129773828433826566e-05,0.000000000000000000e+00
6.200885772705078125e-01,-2.814552917480468750e+02,2.437562103271484375e+02,2.437562103271484375e+02,-5.718917027115821838e-02,-1.042785570025444031e-01,2.612816460896283388e-04,1.261352920532226562e+01,-2.270317822694778442e-02,3.089389792876318097e-06,-1.500920206308364868e-01,1.791966031305491924e-03,2.324472234249697067e-06,-2.905676141381263733e-03,-2.610125541687011719e-01,1.822895929217338562e-02,1.000000000000000000e+00,6.129773828433826566e-05,0.000000000000000000e+00
6.200885772705078125e-01,-2.814552917480468750e+02,2.437562103271484375e+02,2.437562103271484375e+02,-5.718917027115821838e-02,-1.042785570025444031e-01,2.612816460896283388e-04,1.261352920532226562e+01,-2.270317822694778442e-02,3.089389792876318097e-06,-1.500920206308364868e-01,1.791966031305491924e-03,2.324472234249697067e-06,-2.905676141381263733e-03,-2.610125541687011719e-01,1.822895929217338562e-02,1.000000000000000000e+00,6.129773828433826566e-05,0.000000000000000000e+00
6.200885772705078125e-01,-2.814552917480468750e+02,2.437562103271484375e+02,2.437562103271484375e+02,-5.718917027115821838e-02,-1.042785570025444031e-01,2.612816460896283388e-04,1.261352920532226562e+01,-2.270317822694778442e-02,3.089389792876318097e-06,-1.500920206308364868e-01,1.791966031305491924e-03,2.324472234249697067e-06,-2.905676141381263733e-03,-2.610125541687011719e-01,1.822895929217338562e-02,1.000000000000000000e+00,6.129773828433826566e-05,0.000000000000000000e+00
6.200885772705078125e-01,-2.814552917480468750e+02,2.437562103271484375e+02,2.437562103271484375e+02,-5.718917027115821838e-02,-1.042785570025444031e-01,2.612816460896283388e-04,1.261352920532226562e+01,-2.270317822694778442e-02,3.089389792876318097e-06,-1.500920206308364868e-01,1.791966031305491924e-03,2.324472234249697067e-06,-2.905676141381263733e-03,-2.610125541687011719e-01,1.822895929217338562e-02,1.000000000000000000e+00,6.129773828433826566e-05,0.000000000000000000e+00
6.200885772705078125e-01,-2.814552917480468750e+02,2.437562103271484375e+02,2.437562103271484375e+02,-5.718917027115821838e-02,-1.042785570025444031e-01,2.612816460896283388e-04,1.261352920532226562e+01,-2.270317822694778442e-02,3.089389792876318097e-06,-1.500920206308364868e-01,1.791966031305491924e-03,2.324472234249697067e-06,-2.905676141381263733e-03,-2.610125541687011719e-01,1.822895929217338562e-02,1.000000000000000000e+00,6.129773828433826566e-05,0.000000000000000000e+00
7.946169376373291016e-01,-2.801950988769531250e+02,2.437539520263671875e+02,2.437539520263671875e+02,-3.515498340129852295e-02,-1.029968187212944031e-01,3.058835573028773069e-04,1.259203338623046875e+01,-2.256251126527786255e-02,2.440999423924949951e-06,-1.231651902198791504e-01,8.059833780862390995e-04,-3.715100319823250175e-06,-8.138068369589745998e-04,-1.898371577262878418e-01,9.966936893761157990e-03,1.000000000000000000e+00,2.688094900804571807e-05,0.000000000000000000e+00
7.946169376373291016e-01,-2.801950988769531250e+02,2.437539520263671875e+02,2.437539520263671875e+02,-3.515498340129852295e-02,-1.029968187212944031e-01,3.058835573028773069e-04,1.259203338623046875e+01,-2.256251126527786255e-02,2.440999423924949951e-06,-1.231651902198791504e-01,8.059833780862390995e-04,-3.715100319823250175e-06,-8.138068369589745998e-04,-1.898371577262878418e-01,9.966936893761157990e-03,1.000000000000000000e+00,2.688094900804571807e-05,0.000000000000000000e+00
7.946169376373291016e-01,-2.801950988769531250e+02,2.437539520263671875e+02,2.437539520263671875e+02,-3.515498340129852295e-02,-1.029968187212944031e-01,3.058835573028773069e-04,1.259203338623046875e+01,-2.256251126527786255e-02,2.440999423924949951e-06,-1.231651902198791504e-01,8.059833780862390995e-04,-3.715100319823250175e-06,-8.138068369589745998e-04,-1.898371577262878418e-01,9.966936893761157990e-03,1.000000000000000000e+00,2.688094900804571807e-05,0.000000000000000000e+00
8.783230781555175781e-01,-2.789370727539062500e+02,2.437517395019531250e+02,2.437517395019531250e+02,-2.011490613222122192e-02,-1.026611328125000000e-01,1.628344762139022350e-04,1.257058334350585938e+01,-2.260969579219818115e-02,-1.487483928030997049e-06,-2.562541067600250244e-01,-5.636925343424081802e-04,-4.693184018833562732e-05,9.976370492950081825e-04,-1.242342740297317505e-01,6.663923268206417561e-04,1.000000000000000000e+00,-1.112563313654391095e-05,0.000000000000000000e+00
8.783230781555175781e-01,-2.789370727539062500e+02,2.437517395019531250e+02,2.437517395019531250e+02,-2.011490613222122192e-02,-1.026611328125000000e-01,1.628344762139022350e-04,1.257058334350585938e+01,-2.260969579219818115e-02,-1.487483928030997049e-06,-2.562541067600250244e-01,-5.636925343424081802e-04,-4.693184018833562732e-05,9.976370492950081825e-04,-1.242342740297317505e-01,6.663923268206417561e-04,1.000000000000000000e+00,-1.112563313654391095e-05,0.000000000000000000e+00
8.783230781555175781e-01,-2.789370727539062500e+02,2.437517395019531250e+02,2.437517395019531250e+02,-2.011490613222122192e-02,-1.026611328125000000e-01,1.628344762139022350e-04,1.257058334350585938e+01,-2.260969579219818115e-02,-1.487483928030997049e-06,-2.562541067600250244e-01,-5.636925343424081802e-04,-4.693184018833562732e-05,9.976370492950081825e-04,-1.242342740297317505e-01,6.663923268206417561e-04,1.000000000000000000e+00,-1.112563313654391095e-05,0.000000000000000000e+00
9.483780860900878906e-01,-2.778856811523437500e+02,2.437498626708984375e+02,2.437498626708984375e+02,-1.199381146579980850e-02,-1.027831956744194031e-01,7.298080163309350610e-05,1.255265712738037109e+01,-2.262241579592227936e-02,-2.155003130610566586e-06,-2.558877170085906982e-01,-1.815716532291844487e-04,-9.528501323075033724e-06,8.038576343096792698e-04,-8.319043368101119995e-02,-2.627051435410976410e-03,1.000000000000000000e+00,-1.690951830823905766e-05,0.000000000000000000e+00
9.483780860900878906e-01,-2.778856811523437500e+02,2.437498626708984375e+02,2.437498626708984375e+02,-1.199381146579980850e-02,-1.027831956744194031e-01,7.298080163309350610e-05,1.255265712738037109e+01,-2.262241579592227936e-02,-2.155003130610566586e-06,-2.558877170085906982e-01,-1.815716532291844487e-04,-9.528501323075033724e-06,8.038576343096792698e-04,-8.319043368101119995e-02,-2.627051435410976410e-03,1.000000000000000000e+00,-1.690951830823905766e-05,0.000000000000000000e+00
9.483780860900878906e-01,-2.778856811523437500e+02,2.437498626708984375e+02,2.437498626708984375e+02,-1.199381146579980850e-02,-1.027831956744194031e-01,7.298080163309350610e-05,1.255265712738037109e+01,-2.262241579592227936e-02,-2.155003130610566586e-06,-2.558877170085906982e-01,-1.815716532291844487e-04,-9.528501323075033724e-06,8.038576343096792698e-04,-8.319043368101119995e-02,-2.627051435410976410e-03,1.000000000000000000e+00,-1.690951830823905766e-05,0.000000000000000000e+00
9.483780860900878906e-01,-2.778856811523437500e+02,2.437498626708984375e+02,2.437498626708984375e+02,-1.199381146579980850e-02,-1.027831956744194031e-01,7.298080163309350610e-05,1.255265712738037109e+01,-2.262241579592227936e-02,-2.155003130610566586e-06,-2.558877170085906982e-01,-1.815716532291844487e-04,-9.528501323075033724e-06,8.038576343096792698e-04,-8.319043368101119995e-02,-2.627051435410976410e-03,1.000000000000000000e+00,-1.690951830823905766e-05,0.000000000000000000e+00
9.483780860900878906e-01,-2.770061950683593750e+02,2.437483215332031250e+02,2.437483215332031250e+02,-1.111271698027849197e-02,-1.030578538775444031e-01,-3.051757630601059645e-05,1.259089469909667969e+01,-2.278479002416133881e-02,-9.440052508580265567e-07,4.852544665336608887e-01,-2.060612430796027184e-03,1.536818672320805490e-05,1.769248396158218384e-03,2.208626568317413330e-01,-4.285011906176805496e-03,1.000000000000000000e+00,-2.704124381125438958e-05,0.000000000000000000e+00
1.027177095413208008e+00,-2.770061950683593750e+02,2.437483215332031250e+02,2.437483215332031250e+02,-1.111271698027849197e-02,-1.030578538775444031e-01,-3.051757630601059645e-05,1.259089469909667969e+01,-2.278479002416133881e-02,-9.440052508580265567e-07,4.852544665336608887e-01,-2.060612430796027184e-03,1.536818672320805490e-05,1.769248396158218384e-03,2.208626568317413330e-01,-4.285011906176805496e-03,1.000000000000000000e+00,-2.704124381125438958e-05,0.000000000000000000e+00
1.027177095413208008e+00,-2.770061950683593750e+02,2.437483215332031250e+02,2.437483215332031250e+02,-1.111271698027849197e-02,-1.030578538775444031e-01,-3.051757630601059645e-05,1.259089469909667969e+01,-2.278479002416133881e-02,-9.440052508580265567e-07,4.852544665336608887e-01,-2.060612430796027184e-03,1.536818672320805490e-05,1.769248396158218384e-03,2.208626568317413330e-01,-4.285011906176805496e-03,1.000000000000000000e+00,-2.704124381125438958e-05,0.000000000000000000e+00
1.095043420791625977e+00,-2.760005187988281250e+02,2.437464752197265625e+02,2.437464752197265625e+02,-7.129351049661636353e-02,-1.032409593462944031e-01,-6.103513806010596454e-05,1.288066101074218750e+01,-2.334083057940006256e-02,-4.262252332409843802e-06,4.269662380218505859e+00,-8.193173445761203766e-03,-4.889386764261871576e-05,1.708521507680416107e-03,9.512587785720825195e-01,-1.064931391738355160e-03,1.000000000000000000e+00,-1.883144977909978479e-05,0.000000000000000000e+00
1.095043420791625977e+00,-2.760005187988281250e+02,2.437464752197265625e+02,2.437464752197265625e+02,-7.129351049661636353e-02,-1.032409593462944031e-01,-6.103513806010596454e-05,1.288066101074218750e+01,-2.334083057940006256e-02,-4.262252332409843802e-06,4.269662380218505859e+00,-8.193173445761203766e-03,-4.889386764261871576e-05,1.708521507680416107e-03,9.512587785720825195e-01,-1.064931391738355160e-03,1.000000000000000000e+00,-1.883144977909978479e-05,0.000000000000000000e+00
1.095043420791625977e+00,-2.760005187988281250e+02,2.437464752197265625e+02,2.437464752197265625e+02,-7.129351049661636353e-02,-1.032409593462944031e-01,-6.103513806010596454e-05,1.288066101074218750e+01,-2.334083057940006256e-02,-4.262252332409843802e-06,4.269662380218505859e+00,-8.193173445761203766e-03,-4.889386764261871576e-05,1.708521507680416107e-03,9.512587785720825195e-01,-1.064931391738355160e-03,1.000000000000000000e+00,-1.883144977909978479e-05,0.000000000000000000e+00
1.095043420791625977e+00,-2.760005187988281250e+02,2.437464752197265625e+02,2.437464752197265625e+02,-7.129351049661636353e-02,-1.032409593462944031e-01,-6.103513806010596454e-05,1.288066101074218750e+01,-2.334083057940006256e-02,-4.262252332409843802e-06,4.269662380218505859e+00,-8.193173445761203766e-03,-4.889386764261871576e-05,1.708521507680416107e-03,9.512587785720825195e-01,-1.064931391738355160e-03,1.000000000000000000e+00,-1.883144977909978479e-05,0.000000000000000000e+00
1.168572425842285156e+00,-2.751166076660156250e+02,2.437449035644531250e+02,2.437449035644531250e+02,-1.353470236063003540e-01,-1.033019870519638062e-01,-6.103513442212715745e-05,1.312451744079589844e+01,-2.383355610072612762e-02,-4.367235305835492909e-06,3.316465616226196289e+00,-6.701103877276182175e-03,-1.427776282980630640e-06,1.617188798263669014e-03,9.236921072006225586e-01,-8.528380421921610832e-04,1.000000000000000000e+00,-2.483970274624880403e-05,0.000000000000000000e+00
1.168572425842285156e+00,-2.751166076660156250e+02,2.437449035644531250e+02,2.437449035644531250e+02,-1.353470236063003540e-01,-1.033019870519638062e-01,-6.103513442212715745e-05,1.312451744079589844e+01,-2.383355610072612762e-02,-4.367235305835492909e-06,3.316465616226196289e+00,-6.701103877276182175e-03,-1.427776282980630640e-06,1.617188798263669014e-03,9.236921072006225586e-01,-8.528380421921610832e-04,1.000000000000000000e+00,-2.483970274624880403e-05,0.000000000000000000e+00
1.168572425842285156e+00,-2.751166076660156250e+02,2.437449035644531250e+02,2.437449035644531250e+02,-1.353470236063003540e-01,-1.033019870519638062e-01,-6.103513442212715745e-05,1.312451744079589844e+01,-2.383355610072612762e-02,-4.367235305835492909e-06,3.316465616226196289e+00,-6.701103877276182175e-03,-1.427776282980630640e-06,1.617188798263669014e-03,9.236921072006225586e-01,-8.528380421921610832e-04,1.000000000000000000e+00,-2.483970274624880403e-05,0.000000000000000000e+00
1.168572425842285156e+00,-2.751166076660156250e+02,2.437449035644531250e+02,2.437449035644531250e+02,-1.353470236063003540e-01,-1.033019870519638062e-01,-6.103513442212715745e-05,1.312451744079589844e+01,-2.383355610072612762e-02,-4.367235305835492909e-06,3.316465616226196289e+00,-6.701103877276182175e-03,-1.427776282980630640e-06,1.617188798263669014e-03,9.236921072006225586e-01,-8.528380421921610832e-04,1.000000000000000000e+00,-2.483970274624880403e-05,0.000000000000000000e+00
1.168572425842285156e+00,-2.741404113769531250e+02,2.437431335449218750e+02,2.437431335449218750e+02,-1.963474303483963013e-01,-1.033019870519638062e-01,1.302762932253731520e-11,1.338277149200439453e+01,-2.429546043276786804e-02,-4.329044713813345879e-06,3.441164493560791016e+00,-6.154748611152172089e-03,5.088791681373550091e-07,6.365370354615151882e-04,7.437424063682556152e-01,2.111100329784676433e-04,1.000000000000000000e+00,-1.806744512578006834e-05,0.000000000000000000e+00
1.243620872497558594e+00,-2.741404113769531250e+02,2.437431335449218750e+02,2.437431335449218750e+02,-1.963474303483963013e-01,-1.033019870519638062e-01,1.302762932253731520e-11,1.338277149200439453e+01,-2.429546043276786804e-02,-4.329044713813345879e-06,3.441164493560791016e+00,-6.154748611152172089e-03,5.088791681373550091e-07,6.365370354615151882e-04,7.437424063682556152e-01,2.111100329784676433e-04,1.000000000000000000e+00,-1.806744512578006834e-05,0.000000000000000000e+00
1.243620872497558594e+00,-2.741404113769531250e+02,2.437431335449218750e+02,2.437431335449218750e+02,-1.963474303483963013e-01,-1.033019870519638062e-01,1.302762932253731520e-11,1.338277149200439453e+01,-2.429546043276786804e-02,-4.329044713813345879e-06,3.441164493560791016e+00,-6.154748611152172089e-03,5.088791681373550091e-07,6.365370354615151882e-04,7.437424063682556152e-01,2.111100329784676433e-04,1.000000000000000000e+00,-1.806744512578006834e-05,0.000000000000000000e+00
1.243620872497558594e+00,-2.741404113769531250e+02,2.437431335449218750e+02,2.437431335449218750e+02,-1.963474303483963013e-01,-1.033019870519638062e-01,1.302762932253731520e-11,1.338277149200439453e+01,-2.429546043276786804e-02,-4.329044713813345879e-06,3.441164493560791016e+00,-6.154748611152172089e-03,5.088791681373550091e-07,6.365370354615151882e-04,7.437424063682556152e-01,2.111100329784676433e-04,1.000000000000000000e+00,-1.806744512578006834e-05,0.000000000000000000e+00
1.312042951583862305e+00,-2.731245727539062500e+02,2.437412872314453125e+02,2.437412872314453125e+02,-2.422804534435272217e-01,-1.032409593462944031e-01,5.190829688217490911e-05,1.364043426513671875e+01,-2.474006637930870056e-02,-3.003623305630753748e-06,3.765784025192260742e+00,-6.497989408671855927e-03,1.937125307449605316e-05,1.434096193406730890e-04,5.249823331832885742e-01,1.073728664778172970e-03,1.000000000000000000e+00,-1.512414655735483393e-05,0.000000000000000000e+00
1.312042951583862305e+00,-2.731245727539062500e+02,2.437412872314453125e+02,2.437412872314453125e+02,-2.422804534435272217e-01,-1.032409593462944031e-01,5.190829688217490911e-05,1.364043426513671875e+01,-2.474006637930870056e-02,-3.003623305630753748e-06,3.765784025192260742e+00,-6.497989408671855927e-03,1.937125307449605316e-05,1.434096193406730890e-04,5.249823331832885742e-01,1.073728664778172970e-03,1.000000000000000000e+00,-1.512414655735483393e-05,0.000000000000000000e+00
1.383129358291625977e+00,-2.721819152832031250e+02,2.437395782470703125e+02,2.437395782470703125e+02,-2.706598937511444092e-01,-1.031493991613388062e-01,1.055042957887053490e-04,1.387050247192382812e+01,-2.513114362955093384e-02,-5.625907988360268064e-07,3.236458301544189453e+00,-5.501434672623872757e-03,3.433894744375720620e-05,-1.396219013258814812e-04,3.551160693168640137e-01,1.568410079926252365e-03,1.000000000000000000e+00,-1.381007677991874516e-05,0.000000000000000000e+00
1.383129358291625977e+00,-2.721819152832031250e+02,2.437395782470703125e+02,2.437395782470703125e+02,-2.706598937511444092e-01,-1.031493991613388062e-01,1.055042957887053490e-04,1.387050247192382812e+01,-2.513114362955093384e-02,-5.625907988360268064e-07,3.236458301544189453e+00,-5.501434672623872757e-03,3.433894744375720620e-05,-1.396219013258814812e-04,3.551160693168640137e-01,1.568410079926252365e-03,1.000000000000000000e+00,-1.381007677991874516e-05,0.000000000000000000e+00
1.383129358291625977e+00,-2.721819152832031250e+02,2.437395782470703125e+02,2.437395782470703125e+02,-2.706598937511444092e-01,-1.031493991613388062e-01,1.055042957887053490e-04,1.387050247192382812e+01,-2.513114362955093384e-02,-5.625907988360268064e-07,3.236458301544189453e+00,-5.501434672623872757e-03,3.433894744375720620e-05,-1.396219013258814812e-04,3.551160693168640137e-01,1.568410079926252365e-03,1.000000000000000000e+00,-1.381007677991874516e-05,0.000000000000000000e+00
1.450951814651489258e+00,-2.711859436035156250e+02,2.437377929687500000e+02,2.437377929687500000e+02,-2.904332876205444336e-01,-1.030883714556694031e-01,1.155724894488230348e-04,1.410508918762207031e+01,-2.557616680860519409e-02,3.652053237601649016e-06,3.458835363388061523e+00,-6.561590358614921570e-03,6.214230961631983519e-05,3.455116529949009418e-04,2.295763343572616577e-01,4.784629272762686014e-04,1.000000000000000000e+00,-2.225254320364911109e-05,0.000000000000000000e+00
1.450951814651489258e+00,-2.711859436035156250e+02,2.437377929687500000e+02,2.437377929687500000e+02,-2.904332876205444336e-01,-1.030883714556694031e-01,1.155724894488230348e-04,1.410508918762207031e+01,-2.557616680860519409e-02,3.652053237601649016e-06,3.458835363388061523e+00,-6.561590358614921570e-03,6.214230961631983519e-05,3.455116529949009418e-04,2.295763343572616577e-01,4.784629272762686014e-04,1.000000000000000000e+00,-2.225254320364911109e-05,0.000000000000000000e+00
1.450951814651489258e+00,-2.711859436035156250e+02,2.437377929687500000e+02,2.437377929687500000e+02,-2.904332876205444336e-01,-1.030883714556694031e-01,1.155724894488230348e-04,1.410508918762207031e+01,-2.557616680860519409e-02,3.652053237601649016e-06,3.458835363388061523e+00,-6.561590358614921570e-03,6.214230961631983519e-05,3.455116529949009418e-04,2.295763343572616577e-01,4.784629272762686014e-04,1.000000000000000000e+00,-2.225254320364911109e-05,0.000000000000000000e+00
1.527701377868652344e+00,-2.702205505371093750e+02,2.437360229492187500e+02,2.437360229492187500e+02,-3.014230728149414062e-01,-1.030273362994194031e-01,1.455700985388830304e-04,1.431835460662841797e+01,-2.592714317142963409e-02,4.977504431735724211e-06,2.778718471527099609e+00,-4.573008045554161072e-03,1.726982009131461382e-05,-2.744731609709560871e-04,1.112914457917213440e-01,9.656973415985703468e-04,5.000000000000000000e-01,-1.472862732043722644e-05,0.000000000000000000e+00
1.527701377868652344e+00,-2.702205505371093750e+02,2.437360229492187500e+02,2.437360229492187500e+02,-3.014230728149414062e-01,-1.030273362994194031e-01,1.455700985388830304e-04,1.431835460662841797e+01,-2.592714317142963409e-02,4.977504431735724211e-06,2.778718471527099609e+00,-4.573008045554161072e-03,1.726982009131461382e-05,-2.744731609709560871e-04,1.112914457917213440e-01,9.656973415985703468e-04,5.000000000000000000e-01,-1.472862732043722644e-05,0.000000000000000000e+00
1.527701377868652344e+00,-2.702205505371093750e+02,2.437360229492187500e+02,2.437360229492187500e+02,-3.014230728149414062e-01,-1.030273362994194031e-01,1.455700985388830304e-04,1.431835460662841797e+01,-2.592714317142963409e-02,4.977504431735724211e-06,2.778718471527099609e+00,-4.573008045554161072e-03,1.726982009131461382e-05,-2.744731609709560871e-04,1.112914457917213440e-01,9.656973415985703468e-04,5.000000000000000000e-01,-1.472862732043722644e-05,0.000000000000000000e+00
1.600134611129760742e+00,-2.691120605468750000e+02,2.437340240478515625e+02,2.437340240478515625e+02,-3.014230728149414062e-01,-1.030273362994194031e-01,1.455700985388830304e-04,1.451924991607666016e+01,-2.624717354774475098e-02,7.475659003830514848e-06,2.773524045944213867e+00,-4.418280906975269318e-03,3.448906500125303864e-05,-5.928309401497244835e-04,-8.069257438182830811e-02,1.139021245762705803e-03,5.000000000000000000e-01,-1.217350381921278313e-05,0.000000000000000000e+00
1.600134611129760742e+00,-2.691120605468750000e+02,2.437340240478515625e+02,2.437340240478515625e+02,-3.014230728149414062e-01,-1.030273362994194031e-01,1.455700985388830304e-04,1.451924991607666016e+01,-2.624717354774475098e-02,7.475659003830514848e-06,2.773524045944213867e+00,-4.418280906975269318e-03,3.448906500125303864e-05,-5.928309401497244835e-04,-8.069257438182830811e-02,1.139021245762705803e-03,5.000000000000000000e-01,-1.217350381921278313e-05,0.000000000000000000e+00
1.600134611129760742e+00,-2.691120605468750000e+02,2.437340240478515625e+02,2.437340240478515625e+02,-3.014230728149414062e-01,-1.030273362994194031e-01,1.455700985388830304e-04,1.451924991607666016e+01,-2.624717354774475098e-02,7.475659003830514848e-06,2.773524045944213867e+00,-4.418280906975269318e-03,3.448906500125303864e-05,-5.928309401497244835e-04,-8.069257438182830811e-02,1.139021245762705803e-03,5.000000000000000000e-01,-1.217350381921278313e-05,0.000000000000000000e+00
1.600134611129760742e+00,-2.691120605468750000e+02,2.437340240478515625e+02,2.437340240478515625e+02,-3.014230728149414062e-01,-1.030273362994194031e-01,1.455700985388830304e-04,1.451924991607666016e+01,-2.624717354774475098e-02,7.475659003830514848e-06,2.773524045944213867e+00,-4.418280906975269318e-03,3.448906500125303864e-05,-5.928309401497244835e-04,-8.069257438182830811e-02,1.139021245762705803e-03,5.000000000000000000e-01,-1.217350381921278313e-05,0.000000000000000000e+00
1.600134611129760742e+00,-2.691120605468750000e+02,2.437340240478515625e+02,2.437340240478515625e+02,-3.014230728149414062e-01,-1.030273362994194031e-01,1.455700985388830304e-04,1.451924991607666016e+01,-2.624717354774475098e-02,7.475659003830514848e-06,2.773524045944213867e+00,-4.418280906975269318e-03,3.448906500125303864e-05,-5.928309401497244835e-04,-8.069257438182830811e-02,1.139021245762705803e-03,5.000000000000000000e-01,-1.217350381921278313e-05,0.000000000000000000e+00
1.600134611129760742e+00,-2.680537109375000000e+02,2.437320404052734375e+02,2.437320404052734375e+02,-2.879675924777984619e-01,-1.028747484087944031e-01,2.102560974890366197e-04,1.466614246368408203e+01,-2.647325210273265839e-02,9.382795724377501756e-06,1.273132205009460449e+00,-1.959445187821984291e-03,1.652934224694035947e-05,-6.632594740949571133e-04,-2.506656050682067871e-01,9.537318255752325058e-04,5.000000000000000000e-01,-1.033587159326998517e-05,0.000000000000000000e+00
1.715513467788696289e+00,-2.680537109375000000e+02,2.437320404052734375e+02,2.437320404052734375e+02,-2.879675924777984619e-01,-1.028747484087944031e-01,2.102560974890366197e-04,1.466614246368408203e+01,-2.647325210273265839e-02,9.382795724377501756e-06,1.273132205009460449e+00,-1.959445187821984291e-03,1.652934224694035947e-05,-6.632594740949571133e-04,-2.506656050682067871e-01,9.537318255752325058e-04,5.000000000000000000e-01,-1.033587159326998517e-05,0.000000000000000000e+00
1.715513467788696289e+00,-2.680537109375000000e+02,2.437320404052734375e+02,2.437320404052734375e+02,-2.879675924777984619e-01,-1.028747484087944031e-01,2.102560974890366197e-04,1.466614246368408203e+01,-2.647325210273265839e-02,9.382795724377501756e-06,1.273132205009460449e+00,-1.959445187821984291e-03,1.652934224694035947e-05,-6.632594740949571133e-04,-2.506656050682067871e-01,9.537318255752325058e-04,5.000000000000000000e-01,-1.033587159326998517e-05,0.000000000000000000e+00
1.715513467788696289e+00,-2.665781250000000000e+02,2.437293548583984375e+02,2.437293548583984375e+02,-2.522525191307067871e-01,-1.026000902056694031e-01,2.979948185384273529e-04,1.480702018737792969e+01,-2.657363750040531158e-02,1.085100393538596109e-05,1.443394899368286133e+00,-1.028521568514406681e-03,1.504286228737328202e-05,-1.377233420498669147e-03,-4.143604338169097900e-01,3.195959143340587616e-03,5.000000000000000000e-01,5.677768058376386762e-06,0.000000000000000000e+00
1.813115119934082031e+00,-2.665781250000000000e+02,2.437293548583984375e+02,2.437293548583984375e+02,-2.522525191307067871e-01,-1.026000902056694031e-01,2.979948185384273529e-04,1.480702018737792969e+01,-2.657363750040531158e-02,1.085100393538596109e-05,1.443394899368286133e+00,-1.028521568514406681e-03,1.504286228737328202e-05,-1.377233420498669147e-03,-4.143604338169097900e-01,3.195959143340587616e-03,5.000000000000000000e-01,5.677768058376386762e-06,0.000000000000000000e+00
1.813115119934082031e+00,-2.665781250000000000e+02,2.437293548583984375e+02,2.437293548583984375e+02,-2.522525191307067871e-01,-1.026000902056694031e-01,2.979948185384273529e-04,1.480702018737792969e+01,-2.657363750040531158e-02,1.085100393538596109e-05,1.443394899368286133e+00,-1.028521568514406681e-03,1.504286228737328202e-05,-1.377233420498669147e-03,-4.143604338169097900e-01,3.195959143340587616e-03,5.000000000000000000e-01,5.677768058376386762e-06,0.000000000000000000e+00
1.813115119934082031e+00,-2.665781250000000000e+02,2.437293548583984375e+02,2.437293548583984375e+02,-2.522525191307067871e-01,-1.026000902056694031e-01,2.979948185384273529e-04,1.480702018737792969e+01,-2.657363750040531158e-02,1.085100393538596109e-05,1.443394899368286133e+00,-1.028521568514406681e-03,1.504286228737328202e-05,-1.377233420498669147e-03,-4.143604338169097900e-01,3.195959143340587616e-03,5.000000000000000000e-01,5.677768058376386762e-06,0.000000000000000000e+00
1.813115119934082031e+00,-2.651279907226562500e+02,2.437267761230468750e+02,2.437267761230468750e+02,-2.073098868131637573e-01,-1.022033691406250000e-01,3.643078671302646399e-04,1.488353633880615234e+01,-2.655559219419956207e-02,9.430304089619312435e-06,9.216622114181518555e-01,2.173616521758958697e-04,-1.711279765004292130e-05,-1.395658124238252640e-03,-4.851970672607421875e-01,4.657057113945484161e-03,5.000000000000000000e-01,1.295070524065522477e-05,0.000000000000000000e+00
1.896134853363037109e+00,-2.651279907226562500e+02,2.437267761230468750e+02,2.437267761230468750e+02,-2.073098868131637573e-01,-1.022033691406250000e-01,3.643078671302646399e-04,1.488353633880615234e+01,-2.655559219419956207e-02,9.430304089619312435e-06,9.216622114181518555e-01,2.173616521758958697e-04,-1.711279765004292130e-05,-1.395658124238252640e-03,-4.851970672607421875e-01,4.657057113945484161e-03,5.000000000000000000e-01,1.295070524065522477e-05,0.000000000000000000e+00
1.896134853363037109e+00,-2.651279907226562500e+02,2.437267761230468750e+02,2.437267761230468750e+02,-2.073098868131637573e-01,-1.022033691406250000e-01,3.643078671302646399e-04,1.488353633880615234e+01,-2.655559219419956207e-02,9.430304089619312435e-06,9.216622114181518555e-01,2.173616521758958697e-04,-1.711279765004292130e-05,-1.395658124238252640e-03,-4.851970672607421875e-01,4.657057113945484161e-03,5.000000000000000000e-01,1.295070524065522477e-05,0.000000000000000000e+00
1.896134853363037109e+00,-2.651279907226562500e+02,2.437267761230468750e+02,2.437267761230468750e+02,-2.073098868131637573e-01,-1.022033691406250000e-01,3.643078671302646399e-04,1.488353633880615234e+01,-2.655559219419956207e-02,9.430304089619312435e-06,9.216622114181518555e-01,2.173616521758958697e-04,-1.711279765004292130e-05,-1.395658124238252640e-03,-4.851970672607421875e-01,4.657057113945484161e-03,5.000000000000000000e-01,1.295070524065522477e-05,0.000000000000000000e+00
1.896134853363037109e+00,-2.651279907226562500e+02,2.437267761230468750e+02,2.437267761230468750e+02,-2.073098868131637573e-01,-1.022033691406250000e-01,3.643078671302646399e-04,1.488353633880615234e+01,-2.655559219419956207e-02,9.430304089619312435e-06,9.216622114181518555e-01,2.173616521758958697e-04,-1.711279765004292130e-05,-1.395658124238252640e-03,-4.851970672607421875e-01,4.657057113945484161e-03,5.000000000000000000e-01,1.295070524065522477e-05,0.000000000000000000e+00
1.896134853363037109e+00,-2.651279907226562500e+02,2.437267761230468750e+02,2.437267761230468750e+02,-2.073098868131637573e-01,-1.022033691406250000e-01,3.643078671302646399e-04,1.488353633880615234e+01,-2.655559219419956207e-02,9.430304089619312435e-06,9.216622114181518555e-01,2.173616521758958697e-04,-1.711279765004292130e-05,-1.395658124238252640e-03,-4.851970672607421875e-01,4.657057113945484161e-03,5.000000000000000000e-01,1.295070524065522477e-05,0.000000000000000000e+00
1.896134853363037109e+00,-2.651279907226562500e+02,2.437267761230468750e+02,2.437267761230468750e+02,-2.073098868131637573e-01,-1.022033691406250000e-01,3.643078671302646399e-04,1.488353633880615234e+01,-2.655559219419956207e-02,9.430304089619312435e-06,9.216622114181518555e-01,2.173616521758958697e-04,-1.711279765004292130e-05,-1.395658124238252640e-03,-4.851970672607421875e-01,4.657057113945484161e-03,5.000000000000000000e-01,1.295070524065522477e-05,0.000000000000000000e+00
1.896134853363037109e+00,-2.651279907226562500e+02,2.437267761230468750e+02,2.437267761230468750e+02,-2.073098868131637573e-01,-1.022033691406250000e-01,3.643078671302646399e-04,1.488353633880615234e+01,-2.655559219419956207e-02,9.430304089619312435e-06,9.216622114181518555e-01,2.173616521758958697e-04,-1.711279765004292130e-05,-1.395658124238252640e-03,-4.851970672607421875e-01,4.657057113945484161e-03,5.000000000000000000e-01,1.295070524065522477e-05,0.000000000000000000e+00
2.195794820785522461e+00,-2.610944519042968750e+02,2.437194824218750000e+02,2.437194824218750000e+02,-8.016592264175415039e-02,-1.017455905675888062e-01,2.167964412365108728e-04,1.487471675872802734e+01,-2.643258124589920044e-02,-3.509008593027829193e-06,-5.629287362098693848e-01,1.727051916532218456e-03,-1.034913948387838900e-04,-2.742789511103183031e-04,-4.127227962017059326e-01,5.970051861368119717e-04,5.000000000000000000e-01,2.009634499700041488e-06,0.000000000000000000e+00
2.195794820785522461e+00,-2.610944519042968750e+02,2.437194824218750000e+02,2.437194824218750000e+02,-8.016592264175415039e-02,-1.017455905675888062e-01,2.167964412365108728e-04,1.487471675872802734e+01,-2.643258124589920044e-02,-3.509008593027829193e-06,-5.629287362098693848e-01,1.727051916532218456e-03,-1.034913948387838900e-04,-2.742789511103183031e-04,-4.127227962017059326e-01,5.970051861368119717e-04,5.000000000000000000e-01,2.009634499700041488e-06,0.000000000000000000e+00
2.195794820785522461e+00,-2.610944519042968750e+02,2.437194824218750000e+02,2.437194824218750000e+02,-8.016592264175415039e-02,-1.017455905675888062e-01,2.167964412365108728e-04,1.487471675872802734e+01,-2.643258124589920044e-02,-3.509008593027829193e-06,-5.629287362098693848e-01,1.727051916532218456e-03,-1.034913948387838900e-04,-2.742789511103183031e-04,-4.127227962017059326e-01,5.970051861368119717e-04,5.000000000000000000e-01,2.009634499700041488e-06,0.000000000000000000e+00
2.195794820785522461e+00,-2.610944519042968750e+02,2.437194824218750000e+02,2.437194824218750000e+02,-8.016592264175415039e-02,-1.017455905675888062e-01,2.167964412365108728e-04,1.487471675872802734e+01,-2.643258124589920044e-02,-3.509008593027829193e-06,-5.629287362098693848e-01,1.727051916532218456e-03,-1.034913948387838900e-04,-2.742789511103183031e-04,-4.127227962017059326e-01,5.970051861368119717e-04,5.000000000000000000e-01,2.009634499700041488e-06,0.000000000000000000e+00
2.195794820785522461e+00,-2.610944519042968750e+02,2.437194824218750000e+02,2.437194824218750000e+02,-8.016592264175415039e-02,-1.017455905675888062e-01,2.167964412365108728e-04,1.487471675872802734e+01,-2.643258124589920044e-02,-3.509008593027829193e-06,-5.629287362098693848e-01,1.727051916532218456e-03,-1.034913948387838900e-04,-2.742789511103183031e-04,-4.127227962017059326e-01,5.970051861368119717e-04,5.000000000000000000e-01,2.009634499700041488e-06,0.000000000000000000e+00
2.195794820785522461e+00,-2.610944519042968750e+02,2.437194824218750000e+02,2.437194824218750000e+02,-8.016592264175415039e-02,-1.017455905675888062e-01,2.167964412365108728e-04,1.487471675872802734e+01,-2.643258124589920044e-02,-3.509008593027829193e-06,-5.629287362098693848e-01,1.727051916532218456e-03,-1.034913948387838900e-04,-2.742789511103183031e-04,-4.127227962017059326e-01,5.970051861368119717e-04,5.000000000000000000e-01,2.009634499700041488e-06,0.000000000000000000e+00
2.195794820785522461e+00,-2.610944519042968750e+02,2.437194824218750000e+02,2.437194824218750000e+02,-8.016592264175415039e-02,-1.017455905675888062e-01,2.167964412365108728e-04,1.487471675872802734e+01,-2.643258124589920044e-02,-3.509008593027829193e-06,-5.629287362098693848e-01,1.727051916532218456e-03,-1.034913948387838900e-04,-2.742789511103183031e-04,-4.127227962017059326e-01,5.970051861368119717e-04,5.000000000000000000e-01,2.009634499700041488e-06,0.000000000000000000e+00
2.195794820785522461e+00,-2.610944519042968750e+02,2.437194824218750000e+02,2.437194824218750000e+02,-8.016592264175415039e-02,-1.017455905675888062e-01,2.167964412365108728e-04,1.487471675872802734e+01,-2.643258124589920044e-02,-3.509008593027829193e-06,-5.629287362098693848e-01,1.727051916532218456e-03,-1.034913948387838900e-04,-2.742789511103183031e-04,-4.127227962017059326e-01,5.970051861368119717e-04,5.000000000000000000e-01,2.009634499700041488e-06,0.000000000000000000e+00
2.195794820785522461e+00,-2.610944519042968750e+02,2.437194824218750000e+02,2.437194824218750000e+02,-8.016592264175415039e-02,-1.017455905675888062e-01,2.167964412365108728e-04,1.487471675872802734e+01,-2.643258124589920044e-02,-3.509008593027829193e-06,-5.629287362098693848e-01,1.727051916532218456e-03,-1.034913948387838900e-04,-2.742789511103183031e-04,-4.127227962017059326e-01,5.970051861368119717e-04,5.000000000000000000e-01,2.009634499700041488e-06,0.000000000000000000e+00
2.195794820785522461e+00,-2.610944519042968750e+02,2.437194824218750000e+02,2.437194824218750000e+02,-8.016592264175415039e-02,-1.017455905675888062e-01,2.167964412365108728e-04,1.487471675872802734e+01,-2.643258124589920044e-02,-3.509008593027829193e-06,-5.629287362098693848e-01,1.727051916532218456e-03,-1.034913948387838900e-04,-2.742789511103183031e-04,-4.127227962017059326e-01,5.970051861368119717e-04,5.000000000000000000e-01,2.009634499700041488e-06,0.000000000000000000e+00
2.374083757400512695e+00,-2.603058471679687500e+02,2.437180786132812500e+02,2.437180786132812500e+02,-5.966169759631156921e-02,-1.017761230468750000e-01,1.664654846535995603e-04,1.484821128845214844e+01,-2.640853822231292725e-02,-5.273119313642382622e-06,-1.486658155918121338e-01,1.348542573396116495e-04,-9.894672984955832362e-06,3.823521838057786226e-04,-3.753971457481384277e-01,-7.157954969443380833e-04,5.000000000000000000e-01,-6.615689926547929645e-06,0.000000000000000000e+00
2.374083757400512695e+00,-2.603058471679687500e+02,2.437180786132812500e+02,2.437180786132812500e+02,-5.966169759631156921e-02,-1.017761230468750000e-01,1.664654846535995603e-04,1.484821128845214844e+01,-2.640853822231292725e-02,-5.273119313642382622e-06,-1.486658155918121338e-01,1.348542573396116495e-04,-9.894672984955832362e-06,3.823521838057786226e-04,-3.753971457481384277e-01,-7.157954969443380833e-04,5.000000000000000000e-01,-6.615689926547929645e-06,0.000000000000000000e+00
2.374083757400512695e+00,-2.603058471679687500e+02,2.437180786132812500e+02,2.437180786132812500e+02,-5.966169759631156921e-02,-1.017761230468750000e-01,1.664654846535995603e-04,1.484821128845214844e+01,-2.640853822231292725e-02,-5.273119313642382622e-06,-1.486658155918121338e-01,1.348542573396116495e-04,-9.894672984955832362e-06,3.823521838057786226e-04,-3.753971457481384277e-01,-7.157954969443380833e-04,5.000000000000000000e-01,-6.615689926547929645e-06,0.000000000000000000e+00
2.447860002517700195e+00,-2.588243713378906250e+02,2.437154388427734375e+02,2.437154388427734375e+02,-2.489603869616985321e-02,-1.019287183880805969e-01,7.565094711026176810e-05,1.478592872619628906e+01,-2.632374502718448639e-02,-7.056013600958976895e-06,-8.442088961601257324e-01,1.149329240433871746e-03,-2.416623829049058259e-05,2.196247078245505691e-04,-3.123032450675964355e-01,-1.785889267921447754e-03,5.000000000000000000e-01,-5.431047611637040973e-06,0.000000000000000000e+00
2.447860002517700195e+00,-2.588243713378906250e+02,2.437154388427734375e+02,2.437154388427734375e+02,-2.489603869616985321e-02,-1.019287183880805969e-01,7.565094711026176810e-05,1.478592872619628906e+01,-2.632374502718448639e-02,-7.056013600958976895e-06,-8.442088961601257324e-01,1.149329240433871746e-03,-2.416623829049058259e-05,2.196247078245505691e-04,-3.123032450675964355e-01,-1.785889267921447754e-03,5.000000000000000000e-01,-5.431047611637040973e-06,0.000000000000000000e+00
2.500878810882568359e+00,-2.577357788085937500e+02,2.437134857177734375e+02,2.437134857177734375e+02,-4.733320791274309158e-03,-1.020812988281250000e-01,9.949987543222960085e-06,1.473215675354003906e+01,-2.627394162118434906e-02,-7.752227247692644596e-06,-1.014205574989318848e+00,9.393535437993705273e-04,-1.313144639425445348e-05,4.413048736751079559e-04,-2.551756501197814941e-01,-2.671611029654741287e-03,5.000000000000000000e-01,-8.607443305663764477e-06,0.000000000000000000e+00
2.500878810882568359e+00,-2.577357788085937500e+02,2.437134857177734375e+02,2.437134857177734375e+02,-4.733320791274309158e-03,-1.020812988281250000e-01,9.949987543222960085e-06,1.473215675354003906e+01,-2.627394162118434906e-02,-7.752227247692644596e-06,-1.014205574989318848e+00,9.393535437993705273e-04,-1.313144639425445348e-05,4.413048736751079559e-04,-2.551756501197814941e-01,-2.671611029654741287e-03,5.000000000000000000e-01,-8.607443305663764477e-06,0.000000000000000000e+00
2.560195446014404297e+00,-2.569560241699218750e+02,2.437120819091796875e+02,2.437120819091796875e+02,7.492716889828443527e-03,-1.022338867187500000e-01,-3.051757266803178936e-05,1.469055175781250000e+01,-2.623673155903816223e-02,-7.819092388672288507e-06,-7.014051675796508789e-01,6.273124017752707005e-04,-1.127257860389363486e-06,4.193537170067429543e-04,-2.201352566480636597e-01,-3.096901811659336090e-03,5.000000000000000000e-01,-9.207747098116669804e-06,0.000000000000000000e+00
2.560195446014404297e+00,-2.569560241699218750e+02,2.437120819091796875e+02,2.437120819091796875e+02,7.492716889828443527e-03,-1.022338867187500000e-01,-3.051757266803178936e-05,1.469055175781250000e+01,-2.623673155903816223e-02,-7.819092388672288507e-06,-7.014051675796508789e-01,6.273124017752707005e-04,-1.127257860389363486e-06,4.193537170067429543e-04,-2.201352566480636597e-01,-3.096901811659336090e-03,5.000000000000000000e-01,-9.207747098116669804e-06,0.000000000000000000e+00
2.560195446014404297e+00,-2.569560241699218750e+02,2.437120819091796875e+02,2.437120819091796875e+02,7.492716889828443527e-03,-1.022338867187500000e-01,-3.051757266803178936e-05,1.469055175781250000e+01,-2.623673155903816223e-02,-7.819092388672288507e-06,-7.014051675796508789e-01,6.273124017752707005e-04,-1.127257860389363486e-06,4.193537170067429543e-04,-2.201352566480636597e-01,-3.096901811659336090e-03,5.000000000000000000e-01,-9.207747098116669804e-06,0.000000000000000000e+00
2.618730545043945312e+00,-2.560863342285156250e+02,2.437105255126953125e+02,2.437105255126953125e+02,1.959581114351749420e-02,-1.024169921875000000e-01,-6.103515261202119291e-05,1.464180755615234375e+01,-2.618444897234439850e-02,-8.162241101672407240e-06,-8.327345848083496094e-01,8.931835182011127472e-04,-5.862272701051551849e-06,2.509385521989315748e-04,-1.909245252609252930e-01,-3.128650365397334099e-03,5.000000000000000000e-01,-7.301036930584814399e-06,0.000000000000000000e+00
2.618730545043945312e+00,-2.560863342285156250e+02,2.437105255126953125e+02,2.437105255126953125e+02,1.959581114351749420e-02,-1.024169921875000000e-01,-6.103515261202119291e-05,1.464180755615234375e+01,-2.618444897234439850e-02,-8.162241101672407240e-06,-8.327345848083496094e-01,8.931835182011127472e-04,-5.862272701051551849e-06,2.509385521989315748e-04,-1.909245252609252930e-01,-3.128650365397334099e-03,5.000000000000000000e-01,-7.301036930584814399e-06,0.000000000000000000e+00
2.677334070205688477e+00,-2.552306976318359375e+02,2.437089538574218750e+02,2.437089538574218750e+02,2.772373706102371216e-02,-1.026000976562500000e-01,-9.155273437500000000e-05,1.460939788818359375e+01,-2.614745497703552246e-02,-7.428035587508929893e-06,-5.530327558517456055e-01,6.312588811852037907e-04,1.252835045306710526e-05,1.007127648335881531e-04,-7.753088325262069702e-02,-2.353378105908632278e-03,5.000000000000000000e-01,-3.335305564178270288e-06,0.000000000000000000e+00
2.677334070205688477e+00,-2.552306976318359375e+02,2.437089538574218750e+02,2.437089538574218750e+02,2.772373706102371216e-02,-1.026000976562500000e-01,-9.155273437500000000e-05,1.460939788818359375e+01,-2.614745497703552246e-02,-7.428035587508929893e-06,-5.530327558517456055e-01,6.312588811852037907e-04,1.252835045306710526e-05,1.007127648335881531e-04,-7.753088325262069702e-02,-2.353378105908632278e-03,5.000000000000000000e-01,-3.335305564178270288e-06,0.000000000000000000e+00
2.677334070205688477e+00,-2.552306976318359375e+02,2.437089538574218750e+02,2.437089538574218750e+02,2.772373706102371216e-02,-1.026000976562500000e-01,-9.155273437500000000e-05,1.460939788818359375e+01,-2.614745497703552246e-02,-7.428035587508929893e-06,-5.530327558517456055e-01,6.312588811852037907e-04,1.252835045306710526e-05,1.007127648335881531e-04,-7.753088325262069702e-02,-2.353378105908632278e-03,5.000000000000000000e-01,-3.335305564178270288e-06,0.000000000000000000e+00
2.677334070205688477e+00,-2.543750915527343750e+02,2.437073974609375000e+02,2.437073974609375000e+02,2.814037725329399109e-02,-1.026611179113388062e-01,-9.155271982308477163e-05,1.459438323974609375e+01,-2.612124569714069366e-02,-6.665206456091254950e-06,-1.932615041732788086e-01,3.373535582795739174e-04,9.818778380576986820e-06,-3.628613194450736046e-05,2.330469340085983276e-02,-9.963178308680653572e-04,5.000000000000000000e-01,2.132143208655179478e-06,0.000000000000000000e+00
2.755024909973144531e+00,-2.543750915527343750e+02,2.437073974609375000e+02,2.437073974609375000e+02,2.814037725329399109e-02,-1.026611179113388062e-01,-9.155271982308477163e-05,1.459438323974609375e+01,-2.612124569714069366e-02,-6.665206456091254950e-06,-1.932615041732788086e-01,3.373535582795739174e-04,9.818778380576986820e-06,-3.628613194450736046e-05,2.330469340085983276e-02,-9.963178308680653572e-04,5.000000000000000000e-01,2.132143208655179478e-06,0.000000000000000000e+00
2.755024909973144531e+00,-2.543750915527343750e+02,2.437073974609375000e+02,2.437073974609375000e+02,2.814037725329399109e-02,-1.026611179113388062e-01,-9.155271982308477163e-05,1.459438323974609375e+01,-2.612124569714069366e-02,-6.665206456091254950e-06,-1.932615041732788086e-01,3.373535582795739174e-04,9.818778380576986820e-06,-3.628613194450736046e-05,2.330469340085983276e-02,-9.963178308680653572e-04,5.000000000000000000e-01,2.132143208655179478e-06,0.000000000000000000e+00
2.755024909973144531e+00,-2.543750915527343750e+02,2.437073974609375000e+02,2.437073974609375000e+02,2.814037725329399109e-02,-1.026611179113388062e-01,-9.155271982308477163e-05,1.459438323974609375e+01,-2.612124569714069366e-02,-6.665206456091254950e-06,-1.932615041732788086e-01,3.373535582795739174e-04,9.818778380576986820e-06,-3.628613194450736046e-05,2.330469340085983276e-02,-9.963178308680653572e-04,5.000000000000000000e-01,2.132143208655179478e-06,0.000000000000000000e+00
2.830169916152954102e+00,-2.532421875000000000e+02,2.437053527832031250e+02,2.437053527832031250e+02,2.413105778396129608e-02,-1.025695800781250000e-01,0.000000000000000000e+00,1.457449531555175781e+01,-2.599913813173770905e-02,-5.158576641406398267e-06,-2.646606266498565674e-01,1.624959055334329605e-03,2.004963243962265551e-05,-9.285395499318838120e-04,6.107096001505851746e-02,2.454976784065365791e-03,5.000000000000000000e-01,1.777932084223721176e-05,0.000000000000000000e+00
2.830169916152954102e+00,-2.532421875000000000e+02,2.437053527832031250e+02,2.437053527832031250e+02,2.413105778396129608e-02,-1.025695800781250000e-01,0.000000000000000000e+00,1.457449531555175781e+01,-2.599913813173770905e-02,-5.158576641406398267e-06,-2.646606266498565674e-01,1.624959055334329605e-03,2.004963243962265551e-05,-9.285395499318838120e-04,6.107096001505851746e-02,2.454976784065365791e-03,5.000000000000000000e-01,1.777932084223721176e-05,0.000000000000000000e+00
2.830169916152954102e+00,-2.532421875000000000e+02,2.437053527832031250e+02,2.437053527832031250e+02,2.413105778396129608e-02,-1.025695800781250000e-01,0.000000000000000000e+00,1.457449531555175781e+01,-2.599913813173770905e-02,-5.158576641406398267e-06,-2.646606266498565674e-01,1.624959055334329605e-03,2.004963243962265551e-05,-9.285395499318838120e-04,6.107096001505851746e-02,2.454976784065365791e-03,5.000000000000000000e-01,1.777932084223721176e-05,0.000000000000000000e+00
2.830169916152954102e+00,-2.532421875000000000e+02,2.437053527832031250e+02,2.437053527832031250e+02,2.413105778396129608e-02,-1.025695800781250000e-01,0.000000000000000000e+00,1.457449531555175781e+01,-2.599913813173770905e-02,-5.158576641406398267e-06,-2.646606266498565674e-01,1.624959055334329605e-03,2.004963243962265551e-05,-9.285395499318838120e-04,6.107096001505851746e-02,2.454976784065365791e-03,5.000000000000000000e-01,1.777932084223721176e-05,0.000000000000000000e+00
2.830169916152954102e+00,-2.532421875000000000e+02,2.437053527832031250e+02,2.437053527832031250e+02,2.413105778396129608e-02,-1.025695800781250000e-01,0.000000000000000000e+00,1.457449531555175781e+01,-2.599913813173770905e-02,-5.158576641406398267e-06,-2.646606266498565674e-01,1.624959055334329605e-03,2.004963243962265551e-05,-9.285395499318838120e-04,6.107096001505851746e-02,2.454976784065365791e-03,5.000000000000000000e-01,1.777932084223721176e-05,0.000000000000000000e+00
