# Time,X,Y,Z,Roll,Pitch,Yaw,Vx,Vy,Vz,Ax,Ay,Az,Wx,Wy,Wz,Throttle,Steer,Brake
0.000000000000000000e+00,6.617707519531250000e+02,5.303971099853515625e+01,5.303971099853515625e+01,-2.851876914501190186e-01,-9.533876037597656250e+01,-8.053894042968750000e-01,-6.627472043037414551e-01,-7.175908565521240234e+00,-6.144608050817623734e-05,1.475590914487838745e-01,4.695555686950683594e+00,1.388748874887824059e-03,-7.443651676177978516e+00,2.152777314186096191e-01,-2.341004371643066406e+00,0.000000000000000000e+00,-8.541869930922985077e-03,1.000000000000000000e+00
1.045818328857421875e-01,6.617707519531250000e+02,5.303971099853515625e+01,5.303971099853515625e+01,-2.851876914501190186e-01,-9.533876037597656250e+01,-8.053894042968750000e-01,-6.627472043037414551e-01,-7.175908565521240234e+00,-6.144608050817623734e-05,1.475590914487838745e-01,4.695555686950683594e+00,1.388748874887824059e-03,-7.443651676177978516e+00,2.152777314186096191e-01,-2.341004371643066406e+00,0.000000000000000000e+00,-8.541869930922985077e-03,1.000000000000000000e+00
1.045818328857421875e-01,6.617707519531250000e+02,5.303971099853515625e+01,5.303971099853515625e+01,-2.851876914501190186e-01,-9.533876037597656250e+01,-8.053894042968750000e-01,-6.627472043037414551e-01,-7.175908565521240234e+00,-6.144608050817623734e-05,1.475590914487838745e-01,4.695555686950683594e+00,1.388748874887824059e-03,-7.443651676177978516e+00,2.152777314186096191e-01,-2.341004371643066406e+00,0.000000000000000000e+00,-8.541869930922985077e-03,1.000000000000000000e+00
1.045818328857421875e-01,6.617707519531250000e+02,5.303971099853515625e+01,5.303971099853515625e+01,-2.851876914501190186e-01,-9.533876037597656250e+01,-8.053894042968750000e-01,-6.627472043037414551e-01,-7.175908565521240234e+00,-6.144608050817623734e-05,1.475590914487838745e-01,4.695555686950683594e+00,1.388748874887824059e-03,-7.443651676177978516e+00,2.152777314186096191e-01,-2.341004371643066406e+00,0.000000000000000000e+00,-8.541869930922985077e-03,1.000000000000000000e+00
1.045818328857421875e-01,6.617707519531250000e+02,5.303971099853515625e+01,5.303971099853515625e+01,-2.851876914501190186e-01,-9.533876037597656250e+01,-8.053894042968750000e-01,-6.627472043037414551e-01,-7.175908565521240234e+00,-6.144608050817623734e-05,1.475590914487838745e-01,4.695555686950683594e+00,1.388748874887824059e-03,-7.443651676177978516e+00,2.152777314186096191e-01,-2.341004371643066406e+00,0.000000000000000000e+00,-8.541869930922985077e-03,1.000000000000000000e+00
1.045818328857421875e-01,6.617707519531250000e+02,5.303971099853515625e+01,5.303971099853515625e+01,-2.851876914501190186e-01,-9.533876037597656250e+01,-8.053894042968750000e-01,-6.627472043037414551e-01,-7.175908565521240234e+00,-6.144608050817623734e-05,1.475590914487838745e-01,4.695555686950683594e+00,1.388748874887824059e-03,-7.443651676177978516e+00,2.152777314186096191e-01,-2.341004371643066406e+00,0.000000000000000000e+00,-8.541869930922985077e-03,1.000000000000000000e+00
1.045818328857421875e-01,6.617039184570312500e+02,5.235617446899414062e+01,5.235617446899414062e+01,2.595403492450714111e-01,-9.557627868652343750e+01,-7.927855253219604492e-01,-6.756833791732788086e-01,-6.972557067871093750e+00,-1.102263740904163569e-05,-1.235441640019416809e-01,1.942064881324768066e+00,4.815582651644945145e-04,1.901413798332214355e+00,3.082975447177886963e-01,-2.431471586227416992e+00,1.000000000000000000e+00,-2.040659636259078979e-02,0.000000000000000000e+00
2.092907428741455078e-01,6.617039184570312500e+02,5.235617446899414062e+01,5.235617446899414062e+01,2.595403492450714111e-01,-9.557627868652343750e+01,-7.927855253219604492e-01,-6.756833791732788086e-01,-6.972557067871093750e+00,-1.102263740904163569e-05,-1.235441640019416809e-01,1.942064881324768066e+00,4.815582651644945145e-04,1.901413798332214355e+00,3.082975447177886963e-01,-2.431471586227416992e+00,1.000000000000000000e+00,-2.040659636259078979e-02,0.000000000000000000e+00
2.092907428741455078e-01,6.617039184570312500e+02,5.235617446899414062e+01,5.235617446899414062e+01,2.595403492450714111e-01,-9.557627868652343750e+01,-7.927855253219604492e-01,-6.756833791732788086e-01,-6.972557067871093750e+00,-1.102263740904163569e-05,-1.235441640019416809e-01,1.942064881324768066e+00,4.815582651644945145e-04,1.901413798332214355e+00,3.082975447177886963e-01,-2.431471586227416992e+00,1.000000000000000000e+00,-2.040659636259078979e-02,0.000000000000000000e+00
2.092907428741455078e-01,6.617039184570312500e+02,5.235617446899414062e+01,5.235617446899414062e+01,2.595403492450714111e-01,-9.557627868652343750e+01,-7.927855253219604492e-01,-6.756833791732788086e-01,-6.972557067871093750e+00,-1.102263740904163569e-05,-1.235441640019416809e-01,1.942064881324768066e+00,4.815582651644945145e-04,1.901413798332214355e+00,3.082975447177886963e-01,-2.431471586227416992e+00,1.000000000000000000e+00,-2.040659636259078979e-02,0.000000000000000000e+00
2.092907428741455078e-01,6.617039184570312500e+02,5.235617446899414062e+01,5.235617446899414062e+01,2.595403492450714111e-01,-9.557627868652343750e+01,-7.927855253219604492e-01,-6.756833791732788086e-01,-6.972557067871093750e+00,-1.102263740904163569e-05,-1.235441640019416809e-01,1.942064881324768066e+00,4.815582651644945145e-04,1.901413798332214355e+00,3.082975447177886963e-01,-2.431471586227416992e+00,1.000000000000000000e+00,-2.040659636259078979e-02,0.000000000000000000e+00
2.092907428741455078e-01,6.616311035156250000e+02,5.164047622680664062e+01,5.164047622680664062e+01,-1.105944141745567322e-01,-9.578841400146484375e+01,-6.971738934516906738e-01,-7.444127202033996582e-01,-7.433965206146240234e+00,1.996661194425541908e-05,-9.210754632949829102e-01,-6.183555603027343750e+00,4.153020563535392284e-04,5.786284923553466797e+00,6.116765737533569336e-01,-2.024468660354614258e+00,1.000000000000000000e+00,-1.396458968520164490e-02,0.000000000000000000e+00
2.839093208312988281e-01,6.616311035156250000e+02,5.164047622680664062e+01,5.164047622680664062e+01,-1.105944141745567322e-01,-9.578841400146484375e+01,-6.971738934516906738e-01,-7.444127202033996582e-01,-7.433965206146240234e+00,1.996661194425541908e-05,-9.210754632949829102e-01,-6.183555603027343750e+00,4.153020563535392284e-04,5.786284923553466797e+00,6.116765737533569336e-01,-2.024468660354614258e+00,1.000000000000000000e+00,-1.396458968520164490e-02,0.000000000000000000e+00
2.839093208312988281e-01,6.616311035156250000e+02,5.164047622680664062e+01,5.164047622680664062e+01,-1.105944141745567322e-01,-9.578841400146484375e+01,-6.971738934516906738e-01,-7.444127202033996582e-01,-7.433965206146240234e+00,1.996661194425541908e-05,-9.210754632949829102e-01,-6.183555603027343750e+00,4.153020563535392284e-04,5.786284923553466797e+00,6.116765737533569336e-01,-2.024468660354614258e+00,1.000000000000000000e+00,-1.396458968520164490e-02,0.000000000000000000e+00
2.839093208312988281e-01,6.616311035156250000e+02,5.164047622680664062e+01,5.164047622680664062e+01,-1.105944141745567322e-01,-9.578841400146484375e+01,-6.971738934516906738e-01,-7.444127202033996582e-01,-7.433965206146240234e+00,1.996661194425541908e-05,-9.210754632949829102e-01,-6.183555603027343750e+00,4.153020563535392284e-04,5.786284923553466797e+00,6.116765737533569336e-01,-2.024468660354614258e+00,1.000000000000000000e+00,-1.396458968520164490e-02,0.000000000000000000e+00
2.839093208312988281e-01,6.616311035156250000e+02,5.164047622680664062e+01,5.164047622680664062e+01,-1.105944141745567322e-01,-9.578841400146484375e+01,-6.971738934516906738e-01,-7.444127202033996582e-01,-7.433965206146240234e+00,1.996661194425541908e-05,-9.210754632949829102e-01,-6.183555603027343750e+00,4.153020563535392284e-04,5.786284923553466797e+00,6.116765737533569336e-01,-2.024468660354614258e+00,1.000000000000000000e+00,-1.396458968520164490e-02,0.000000000000000000e+00
3.569011688232421875e-01,6.615725708007812500e+02,5.107686996459960938e+01,5.107686996459960938e+01,-3.871146142482757568e-01,-9.590753173828125000e+01,-5.982969403266906738e-01,-7.856112718582153320e-01,-7.691500663757324219e+00,1.195729146274970844e-05,-5.644267797470092773e-01,-3.528276920318603516e+00,-1.097289714380167425e-04,3.050460100173950195e+00,1.079105496406555176e+00,-1.362131118774414062e+00,1.000000000000000000e+00,-7.327270694077014923e-03,0.000000000000000000e+00
3.569011688232421875e-01,6.615725708007812500e+02,5.107686996459960938e+01,5.107686996459960938e+01,-3.871146142482757568e-01,-9.590753173828125000e+01,-5.982969403266906738e-01,-7.856112718582153320e-01,-7.691500663757324219e+00,1.195729146274970844e-05,-5.644267797470092773e-01,-3.528276920318603516e+00,-1.097289714380167425e-04,3.050460100173950195e+00,1.079105496406555176e+00,-1.362131118774414062e+00,1.000000000000000000e+00,-7.327270694077014923e-03,0.000000000000000000e+00
3.569011688232421875e-01,6.615725708007812500e+02,5.107686996459960938e+01,5.107686996459960938e+01,-3.871146142482757568e-01,-9.590753173828125000e+01,-5.982969403266906738e-01,-7.856112718582153320e-01,-7.691500663757324219e+00,1.195729146274970844e-05,-5.644267797470092773e-01,-3.528276920318603516e+00,-1.097289714380167425e-04,3.050460100173950195e+00,1.079105496406555176e+00,-1.362131118774414062e+00,1.000000000000000000e+00,-7.327270694077014923e-03,0.000000000000000000e+00
3.569011688232421875e-01,6.615725708007812500e+02,5.107686996459960938e+01,5.107686996459960938e+01,-3.871146142482757568e-01,-9.590753173828125000e+01,-5.982969403266906738e-01,-7.856112718582153320e-01,-7.691500663757324219e+00,1.195729146274970844e-05,-5.644267797470092773e-01,-3.528276920318603516e+00,-1.097289714380167425e-04,3.050460100173950195e+00,1.079105496406555176e+00,-1.362131118774414062e+00,1.000000000000000000e+00,-7.327270694077014923e-03,0.000000000000000000e+00
4.765405654907226562e-01,6.615106811523437500e+02,5.049937438964843750e+01,5.049937438964843750e+01,-5.934819579124450684e-01,-9.609298706054687500e+01,-5.116881728172302246e-01,-8.509294986724853516e-01,-8.071044921875000000e+00,4.624645043804775923e-06,-5.459591746330261230e-01,-3.172402143478393555e+00,-6.128956738393753767e-05,2.639386892318725586e+00,7.292796373367309570e-01,-3.104172468185424805e+00,1.000000000000000000e+00,-2.755533903837203979e-02,0.000000000000000000e+00
4.765405654907226562e-01,6.615106811523437500e+02,5.049937438964843750e+01,5.049937438964843750e+01,-5.934819579124450684e-01,-9.609298706054687500e+01,-5.116881728172302246e-01,-8.509294986724853516e-01,-8.071044921875000000e+00,4.624645043804775923e-06,-5.459591746330261230e-01,-3.172402143478393555e+00,-6.128956738393753767e-05,2.639386892318725586e+00,7.292796373367309570e-01,-3.104172468185424805e+00,1.000000000000000000e+00,-2.755533903837203979e-02,0.000000000000000000e+00
4.765405654907226562e-01,6.615106811523437500e+02,5.049937438964843750e+01,5.049937438964843750e+01,-5.934819579124450684e-01,-9.609298706054687500e+01,-5.116881728172302246e-01,-8.509294986724853516e-01,-8.071044921875000000e+00,4.624645043804775923e-06,-5.459591746330261230e-01,-3.172402143478393555e+00,-6.128956738393753767e-05,2.639386892318725586e+00,7.292796373367309570e-01,-3.104172468185424805e+00,1.000000000000000000e+00,-2.755533903837203979e-02,0.000000000000000000e+00
4.765405654907226562e-01,6.615106811523437500e+02,5.049937438964843750e+01,5.049937438964843750e+01,-5.934819579124450684e-01,-9.609298706054687500e+01,-5.116881728172302246e-01,-8.509294986724853516e-01,-8.071044921875000000e+00,4.624645043804775923e-06,-5.459591746330261230e-01,-3.172402143478393555e+00,-6.128956738393753767e-05,2.639386892318725586e+00,7.292796373367309570e-01,-3.104172468185424805e+00,1.000000000000000000e+00,-2.755533903837203979e-02,0.000000000000000000e+00
4.765405654907226562e-01,6.615106811523437500e+02,5.049937438964843750e+01,5.049937438964843750e+01,-5.934819579124450684e-01,-9.609298706054687500e+01,-5.116881728172302246e-01,-8.509294986724853516e-01,-8.071044921875000000e+00,4.624645043804775923e-06,-5.459591746330261230e-01,-3.172402143478393555e+00,-6.128956738393753767e-05,2.639386892318725586e+00,7.292796373367309570e-01,-3.104172468185424805e+00,1.000000000000000000e+00,-2.755533903837203979e-02,0.000000000000000000e+00
4.765405654907226562e-01,6.615106811523437500e+02,5.049937438964843750e+01,5.049937438964843750e+01,-5.934819579124450684e-01,-9.609298706054687500e+01,-5.116881728172302246e-01,-8.509294986724853516e-01,-8.071044921875000000e+00,4.624645043804775923e-06,-5.459591746330261230e-01,-3.172402143478393555e+00,-6.128956738393753767e-05,2.639386892318725586e+00,7.292796373367309570e-01,-3.104172468185424805e+00,1.000000000000000000e+00,-2.755533903837203979e-02,0.000000000000000000e+00
4.765405654907226562e-01,6.615106811523437500e+02,5.049937438964843750e+01,5.049937438964843750e+01,-5.934819579124450684e-01,-9.609298706054687500e+01,-5.116881728172302246e-01,-8.509294986724853516e-01,-8.071044921875000000e+00,4.624645043804775923e-06,-5.459591746330261230e-01,-3.172402143478393555e+00,-6.128956738393753767e-05,2.639386892318725586e+00,7.292796373367309570e-01,-3.104172468185424805e+00,1.000000000000000000e+00,-2.755533903837203979e-02,0.000000000000000000e+00
6.200885772705078125e-01,6.614225463867187500e+02,4.971329879760742188e+01,4.971329879760742188e+01,-1.839574724435806274e-01,-9.645428466796875000e+01,-4.497679769992828369e-01,-8.131133913993835449e-01,-7.375711441040039062e+00,1.945552794495597482e-04,2.634387314319610596e-01,4.843908786773681641e+00,1.323115779086947441e-03,-1.042724418640136719e+01,1.565095305442810059e+00,-3.962409019470214844e+00,0.000000000000000000e+00,-2.483901940286159515e-02,1.000000000000000000e+00
6.200885772705078125e-01,6.614225463867187500e+02,4.971329879760742188e+01,4.971329879760742188e+01,-1.839574724435806274e-01,-9.645428466796875000e+01,-4.497679769992828369e-01,-8.131133913993835449e-01,-7.375711441040039062e+00,1.945552794495597482e-04,2.634387314319610596e-01,4.843908786773681641e+00,1.323115779086947441e-03,-1.042724418640136719e+01,1.565095305442810059e+00,-3.962409019470214844e+00,0.000000000000000000e+00,-2.483901940286159515e-02,1.000000000000000000e+00
6.200885772705078125e-01,6.614225463867187500e+02,4.971329879760742188e+01,4.971329879760742188e+01,-1.839574724435806274e-01,-9.645428466796875000e+01,-4.497679769992828369e-01,-8.131133913993835449e-01,-7.375711441040039062e+00,1.945552794495597482e-04,2.634387314319610596e-01,4.843908786773681641e+00,1.323115779086947441e-03,-1.042724418640136719e+01,1.565095305442810059e+00,-3.962409019470214844e+00,0.000000000000000000e+00,-2.483901940286159515e-02,1.000000000000000000e+00
6.200885772705078125e-01,6.614225463867187500e+02,4.971329879760742188e+01,4.971329879760742188e+01,-1.839574724435806274e-01,-9.645428466796875000e+01,-4.497679769992828369e-01,-8.131133913993835449e-01,-7.375711441040039062e+00,1.945552794495597482e-04,2.634387314319610596e-01,4.843908786773681641e+00,1.323115779086947441e-03,-1.042724418640136719e+01,1.565095305442810059e+00,-3.962409019470214844e+00,0.000000000000000000e+00,-2.483901940286159515e-02,1.000000000000000000e+00
6.200885772705078125e-01,6.614225463867187500e+02,4.971329879760742188e+01,4.971329879760742188e+01,-1.839574724435806274e-01,-9.645428466796875000e+01,-4.497679769992828369e-01,-8.131133913993835449e-01,-7.375711441040039062e+00,1.945552794495597482e-04,2.634387314319610596e-01,4.843908786773681641e+00,1.323115779086947441e-03,-1.042724418640136719e+01,1.565095305442810059e+00,-3.962409019470214844e+00,0.000000000000000000e+00,-2.483901940286159515e-02,1.000000000000000000e+00
6.200885772705078125e-01,6.614225463867187500e+02,4.971329879760742188e+01,4.971329879760742188e+01,-1.839574724435806274e-01,-9.645428466796875000e+01,-4.497679769992828369e-01,-8.131133913993835449e-01,-7.375711441040039062e+00,1.945552794495597482e-04,2.634387314319610596e-01,4.843908786773681641e+00,1.323115779086947441e-03,-1.042724418640136719e+01,1.565095305442810059e+00,-3.962409019470214844e+00,0.000000000000000000e+00,-2.483901940286159515e-02,1.000000000000000000e+00
7.946169376373291016e-01,6.613430175781250000e+02,4.903314971923828125e+01,4.903314971923828125e+01,6.307952404022216797e-01,-9.674876403808593750e+01,-4.468078315258026123e-01,-7.992312312126159668e-01,-6.839266777038574219e+00,-1.268366177100688219e-04,7.954099774360656738e-02,3.073681831359863281e+00,-1.841488177888095379e-03,9.672572016716003418e-01,-4.336529672145843506e-01,-1.869742870330810547e+00,1.000000000000000000e+00,-1.540171261876821518e-02,0.000000000000000000e+00
7.946169376373291016e-01,6.613430175781250000e+02,4.903314971923828125e+01,4.903314971923828125e+01,6.307952404022216797e-01,-9.674876403808593750e+01,-4.468078315258026123e-01,-7.992312312126159668e-01,-6.839266777038574219e+00,-1.268366177100688219e-04,7.954099774360656738e-02,3.073681831359863281e+00,-1.841488177888095379e-03,9.672572016716003418e-01,-4.336529672145843506e-01,-1.869742870330810547e+00,1.000000000000000000e+00,-1.540171261876821518e-02,0.000000000000000000e+00
7.946169376373291016e-01,6.613430175781250000e+02,4.903314971923828125e+01,4.903314971923828125e+01,6.307952404022216797e-01,-9.674876403808593750e+01,-4.468078315258026123e-01,-7.992312312126159668e-01,-6.839266777038574219e+00,-1.268366177100688219e-04,7.954099774360656738e-02,3.073681831359863281e+00,-1.841488177888095379e-03,9.672572016716003418e-01,-4.336529672145843506e-01,-1.869742870330810547e+00,1.000000000000000000e+00,-1.540171261876821518e-02,0.000000000000000000e+00
7.946169376373291016e-01,6.613430175781250000e+02,4.903314971923828125e+01,4.903314971923828125e+01,6.307952404022216797e-01,-9.674876403808593750e+01,-4.468078315258026123e-01,-7.992312312126159668e-01,-6.839266777038574219e+00,-1.268366177100688219e-04,7.954099774360656738e-02,3.073681831359863281e+00,-1.841488177888095379e-03,9.672572016716003418e-01,-4.336529672145843506e-01,-1.869742870330810547e+00,1.000000000000000000e+00,-1.540171261876821518e-02,0.000000000000000000e+00
8.783230781555175781e-01,6.612567749023437500e+02,4.833304595947265625e+01,4.833304595947265625e+01,1.816898584365844727e-01,-9.703535461425781250e+01,-4.841003119945526123e-01,-8.935630321502685547e-01,-7.285446643829345703e+00,-2.235039937659166753e-05,-1.126940011978149414e+00,-5.330312252044677734e+00,1.248250366188585758e-03,7.090463161468505859e+00,-1.260131239891052246e+00,-3.340102434158325195e+00,1.000000000000000000e+00,-2.775243110954761505e-02,0.000000000000000000e+00
8.783230781555175781e-01,6.612567749023437500e+02,4.833304595947265625e+01,4.833304595947265625e+01,1.816898584365844727e-01,-9.703535461425781250e+01,-4.841003119945526123e-01,-8.935630321502685547e-01,-7.285446643829345703e+00,-2.235039937659166753e-05,-1.126940011978149414e+00,-5.330312252044677734e+00,1.248250366188585758e-03,7.090463161468505859e+00,-1.260131239891052246e+00,-3.340102434158325195e+00,1.000000000000000000e+00,-2.775243110954761505e-02,0.000000000000000000e+00
9.483780860900878906e-01,6.611767578125000000e+02,4.771207427978515625e+01,4.771207427978515625e+01,-2.435918599367141724e-01,-9.730458831787109375e+01,-5.151671767234802246e-01,-9.717141985893249512e-01,-7.627605438232421875e+00,-3.608199767768383026e-05,-1.115568637847900391e+00,-4.884144783020019531e+00,-1.960116642294451594e-04,4.831148147583007812e+00,-9.991194605827331543e-01,-3.079067230224609375e+00,1.000000000000000000e+00,-2.112681046128273010e-02,0.000000000000000000e+00
9.483780860900878906e-01,6.611767578125000000e+02,4.771207427978515625e+01,4.771207427978515625e+01,-2.435918599367141724e-01,-9.730458831787109375e+01,-5.151671767234802246e-01,-9.717141985893249512e-01,-7.627605438232421875e+00,-3.608199767768383026e-05,-1.115568637847900391e+00,-4.884144783020019531e+00,-1.960116642294451594e-04,4.831148147583007812e+00,-9.991194605827331543e-01,-3.079067230224609375e+00,1.000000000000000000e+00,-2.112681046128273010e-02,0.000000000000000000e+00
9.483780860900878906e-01,6.611767578125000000e+02,4.771207427978515625e+01,4.771207427978515625e+01,-2.435918599367141724e-01,-9.730458831787109375e+01,-5.151671767234802246e-01,-9.717141985893249512e-01,-7.627605438232421875e+00,-3.608199767768383026e-05,-1.115568637847900391e+00,-4.884144783020019531e+00,-1.960116642294451594e-04,4.831148147583007812e+00,-9.991194605827331543e-01,-3.079067230224609375e+00,1.000000000000000000e+00,-2.112681046128273010e-02,0.000000000000000000e+00
9.483780860900878906e-01,6.611767578125000000e+02,4.771207427978515625e+01,4.771207427978515625e+01,-2.435918599367141724e-01,-9.730458831787109375e+01,-5.151671767234802246e-01,-9.717141985893249512e-01,-7.627605438232421875e+00,-3.608199767768383026e-05,-1.115568637847900391e+00,-4.884144783020019531e+00,-1.960116642294451594e-04,4.831148147583007812e+00,-9.991194605827331543e-01,-3.079067230224609375e+00,1.000000000000000000e+00,-2.112681046128273010e-02,0.000000000000000000e+00
9.483780860900878906e-01,6.611049194335937500e+02,4.716659545898437500e+01,4.716659545898437500e+01,-4.998127222061157227e-01,-9.747779083251953125e+01,-5.338440537452697754e-01,-1.035198330879211426e+00,-7.930123329162597656e+00,-7.026641105767339468e-05,-8.056463003158569336e-01,-3.839107751846313477e+00,-4.338177968747913837e-04,2.912320137023925781e+00,-5.596415400505065918e-01,-2.192958354949951172e+00,1.000000000000000000e+00,-1.266606617718935013e-02,0.000000000000000000e+00
1.027177095413208008e+00,6.611049194335937500e+02,4.716659545898437500e+01,4.716659545898437500e+01,-4.998127222061157227e-01,-9.747779083251953125e+01,-5.338440537452697754e-01,-1.035198330879211426e+00,-7.930123329162597656e+00,-7.026641105767339468e-05,-8.056463003158569336e-01,-3.839107751846313477e+00,-4.338177968747913837e-04,2.912320137023925781e+00,-5.596415400505065918e-01,-2.192958354949951172e+00,1.000000000000000000e+00,-1.266606617718935013e-02,0.000000000000000000e+00
1.027177095413208008e+00,6.611049194335937500e+02,4.716659545898437500e+01,4.716659545898437500e+01,-4.998127222061157227e-01,-9.747779083251953125e+01,-5.338440537452697754e-01,-1.035198330879211426e+00,-7.930123329162597656e+00,-7.026641105767339468e-05,-8.056463003158569336e-01,-3.839107751846313477e+00,-4.338177968747913837e-04,2.912320137023925781e+00,-5.596415400505065918e-01,-2.192958354949951172e+00,1.000000000000000000e+00,-1.266606617718935013e-02,0.000000000000000000e+00
1.095043420791625977e+00,6.610172729492187500e+02,4.652507400512695312e+01,4.652507400512695312e+01,-6.822811961174011230e-01,-9.775638580322265625e+01,-5.538939833641052246e-01,-1.123625636100769043e+00,-8.304298400878906250e+00,-5.448436422739177942e-05,-1.302962899208068848e+00,-5.513412952423095703e+00,2.325460663996636868e-04,1.835200071334838867e+00,-6.072286367416381836e-01,-4.265959739685058594e+00,1.000000000000000000e+00,-2.863769605755805969e-02,0.000000000000000000e+00
1.095043420791625977e+00,6.610172729492187500e+02,4.652507400512695312e+01,4.652507400512695312e+01,-6.822811961174011230e-01,-9.775638580322265625e+01,-5.538939833641052246e-01,-1.123625636100769043e+00,-8.304298400878906250e+00,-5.448436422739177942e-05,-1.302962899208068848e+00,-5.513412952423095703e+00,2.325460663996636868e-04,1.835200071334838867e+00,-6.072286367416381836e-01,-4.265959739685058594e+00,1.000000000000000000e+00,-2.863769605755805969e-02,0.000000000000000000e+00
1.095043420791625977e+00,6.610172729492187500e+02,4.652507400512695312e+01,4.652507400512695312e+01,-6.822811961174011230e-01,-9.775638580322265625e+01,-5.538939833641052246e-01,-1.123625636100769043e+00,-8.304298400878906250e+00,-5.448436422739177942e-05,-1.302962899208068848e+00,-5.513412952423095703e+00,2.325460663996636868e-04,1.835200071334838867e+00,-6.072286367416381836e-01,-4.265959739685058594e+00,1.000000000000000000e+00,-2.863769605755805969e-02,0.000000000000000000e+00
1.095043420791625977e+00,6.610172729492187500e+02,4.652507400512695312e+01,4.652507400512695312e+01,-6.822811961174011230e-01,-9.775638580322265625e+01,-5.538939833641052246e-01,-1.123625636100769043e+00,-8.304298400878906250e+00,-5.448436422739177942e-05,-1.302962899208068848e+00,-5.513412952423095703e+00,2.325460663996636868e-04,1.835200071334838867e+00,-6.072286367416381836e-01,-4.265959739685058594e+00,1.000000000000000000e+00,-2.863769605755805969e-02,0.000000000000000000e+00
1.168572425842285156e+00,6.609392700195312500e+02,4.597738647460937500e+01,4.597738647460937500e+01,-4.182397723197937012e-01,-9.809799957275390625e+01,-5.851743817329406738e-01,-1.064900159835815430e+00,-7.641599655151367188e+00,1.137674407800659537e-04,7.986708879470825195e-01,9.012752532958984375e+00,2.288237214088439941e-03,-9.666334152221679688e+00,8.390849828720092773e-01,-4.192418098449707031e+00,0.000000000000000000e+00,-2.174072340130805969e-02,1.000000000000000000e+00
1.168572425842285156e+00,6.609392700195312500e+02,4.597738647460937500e+01,4.597738647460937500e+01,-4.182397723197937012e-01,-9.809799957275390625e+01,-5.851743817329406738e-01,-1.064900159835815430e+00,-7.641599655151367188e+00,1.137674407800659537e-04,7.986708879470825195e-01,9.012752532958984375e+00,2.288237214088439941e-03,-9.666334152221679688e+00,8.390849828720092773e-01,-4.192418098449707031e+00,0.000000000000000000e+00,-2.174072340130805969e-02,1.000000000000000000e+00
1.168572425842285156e+00,6.609392700195312500e+02,4.597738647460937500e+01,4.597738647460937500e+01,-4.182397723197937012e-01,-9.809799957275390625e+01,-5.851743817329406738e-01,-1.064900159835815430e+00,-7.641599655151367188e+00,1.137674407800659537e-04,7.986708879470825195e-01,9.012752532958984375e+00,2.288237214088439941e-03,-9.666334152221679688e+00,8.390849828720092773e-01,-4.192418098449707031e+00,0.000000000000000000e+00,-2.174072340130805969e-02,1.000000000000000000e+00
1.168572425842285156e+00,6.609392700195312500e+02,4.597738647460937500e+01,4.597738647460937500e+01,-4.182397723197937012e-01,-9.809799957275390625e+01,-5.851743817329406738e-01,-1.064900159835815430e+00,-7.641599655151367188e+00,1.137674407800659537e-04,7.986708879470825195e-01,9.012752532958984375e+00,2.288237214088439941e-03,-9.666334152221679688e+00,8.390849828720092773e-01,-4.192418098449707031e+00,0.000000000000000000e+00,-2.174072340130805969e-02,1.000000000000000000e+00
1.168572425842285156e+00,6.608635253906250000e+02,4.545389556884765625e+01,4.545389556884765625e+01,3.713095486164093018e-01,-9.827447509765625000e+01,-6.266478300094604492e-01,-9.980008602142333984e-01,-6.918516635894775391e+00,9.508641232969239354e-05,8.914148211479187012e-01,9.634882926940917969e+00,-2.489195903763175011e-04,-7.515234470367431641e+00,5.609276294708251953e-01,-1.353848814964294434e+00,1.000000000000000000e+00,-9.683990851044654846e-03,0.000000000000000000e+00
1.243620872497558594e+00,6.608635253906250000e+02,4.545389556884765625e+01,4.545389556884765625e+01,3.713095486164093018e-01,-9.827447509765625000e+01,-6.266478300094604492e-01,-9.980008602142333984e-01,-6.918516635894775391e+00,9.508641232969239354e-05,8.914148211479187012e-01,9.634882926940917969e+00,-2.489195903763175011e-04,-7.515234470367431641e+00,5.609276294708251953e-01,-1.353848814964294434e+00,1.000000000000000000e+00,-9.683990851044654846e-03,0.000000000000000000e+00
1.243620872497558594e+00,6.608635253906250000e+02,4.545389556884765625e+01,4.545389556884765625e+01,3.713095486164093018e-01,-9.827447509765625000e+01,-6.266478300094604492e-01,-9.980008602142333984e-01,-6.918516635894775391e+00,9.508641232969239354e-05,8.914148211479187012e-01,9.634882926940917969e+00,-2.489195903763175011e-04,-7.515234470367431641e+00,5.609276294708251953e-01,-1.353848814964294434e+00,1.000000000000000000e+00,-9.683990851044654846e-03,0.000000000000000000e+00
1.243620872497558594e+00,6.608635253906250000e+02,4.545389556884765625e+01,4.545389556884765625e+01,3.713095486164093018e-01,-9.827447509765625000e+01,-6.266478300094604492e-01,-9.980008602142333984e-01,-6.918516635894775391e+00,9.508641232969239354e-05,8.914148211479187012e-01,9.634882926940917969e+00,-2.489195903763175011e-04,-7.515234470367431641e+00,5.609276294708251953e-01,-1.353848814964294434e+00,1.000000000000000000e+00,-9.683990851044654846e-03,0.000000000000000000e+00
1.312042951583862305e+00,6.607887573242187500e+02,4.494728088378906250e+01,4.494728088378906250e+01,7.294846773147583008e-01,-9.838777160644531250e+01,-6.373292207717895508e-01,-9.735854268074035645e-01,-6.613595008850097656e+00,-2.068113681161776185e-04,3.568356037139892578e-01,4.456480026245117188e+00,-4.412285983562469482e-03,-3.320105314254760742e+00,5.843188166618347168e-01,-1.990337967872619629e+00,1.000000000000000000e+00,-2.534891851246356964e-02,0.000000000000000000e+00
1.312042951583862305e+00,6.607887573242187500e+02,4.494728088378906250e+01,4.494728088378906250e+01,7.294846773147583008e-01,-9.838777160644531250e+01,-6.373292207717895508e-01,-9.735854268074035645e-01,-6.613595008850097656e+00,-2.068113681161776185e-04,3.568356037139892578e-01,4.456480026245117188e+00,-4.412285983562469482e-03,-3.320105314254760742e+00,5.843188166618347168e-01,-1.990337967872619629e+00,1.000000000000000000e+00,-2.534891851246356964e-02,0.000000000000000000e+00
1.312042951583862305e+00,6.607198486328125000e+02,4.449642562866210938e+01,4.449642562866210938e+01,7.478168606758117676e-01,-9.858174133300781250e+01,-6.211243271827697754e-01,-9.878503680229187012e-01,-6.565035343170166016e+00,-1.873236906249076128e-04,-2.006704360246658325e-01,6.831076145172119141e-01,2.741407079156488180e-04,7.803982496261596680e-01,2.264233529567718506e-01,-2.865177869796752930e+00,1.000000000000000000e+00,-2.429275587201118469e-02,0.000000000000000000e+00
1.383129358291625977e+00,6.607198486328125000e+02,4.449642562866210938e+01,4.449642562866210938e+01,7.478168606758117676e-01,-9.858174133300781250e+01,-6.211243271827697754e-01,-9.878503680229187012e-01,-6.565035343170166016e+00,-1.873236906249076128e-04,-2.006704360246658325e-01,6.831076145172119141e-01,2.741407079156488180e-04,7.803982496261596680e-01,2.264233529567718506e-01,-2.865177869796752930e+00,1.000000000000000000e+00,-2.429275587201118469e-02,0.000000000000000000e+00
1.383129358291625977e+00,6.607198486328125000e+02,4.449642562866210938e+01,4.449642562866210938e+01,7.478168606758117676e-01,-9.858174133300781250e+01,-6.211243271827697754e-01,-9.878503680229187012e-01,-6.565035343170166016e+00,-1.873236906249076128e-04,-2.006704360246658325e-01,6.831076145172119141e-01,2.741407079156488180e-04,7.803982496261596680e-01,2.264233529567718506e-01,-2.865177869796752930e+00,1.000000000000000000e+00,-2.429275587201118469e-02,0.000000000000000000e+00
1.383129358291625977e+00,6.606467285156250000e+02,4.402708435058593750e+01,4.402708435058593750e+01,5.532111525535583496e-01,-9.877798461914062500e+01,-5.848692059516906738e-01,-1.033522129058837891e+00,-6.731274127960205078e+00,-3.496626595733687282e-05,-6.734017729759216309e-01,-2.451087713241577148e+00,2.246415475383400917e-03,5.091904163360595703e+00,-2.115271836519241333e-01,-2.725047826766967773e+00,1.000000000000000000e+00,-1.900736428797245026e-02,0.000000000000000000e+00
1.450951814651489258e+00,6.606467285156250000e+02,4.402708435058593750e+01,4.402708435058593750e+01,5.532111525535583496e-01,-9.877798461914062500e+01,-5.848692059516906738e-01,-1.033522129058837891e+00,-6.731274127960205078e+00,-3.496626595733687282e-05,-6.734017729759216309e-01,-2.451087713241577148e+00,2.246415475383400917e-03,5.091904163360595703e+00,-2.115271836519241333e-01,-2.725047826766967773e+00,1.000000000000000000e+00,-1.900736428797245026e-02,0.000000000000000000e+00
1.450951814651489258e+00,6.606467285156250000e+02,4.402708435058593750e+01,4.402708435058593750e+01,5.532111525535583496e-01,-9.877798461914062500e+01,-5.848692059516906738e-01,-1.033522129058837891e+00,-6.731274127960205078e+00,-3.496626595733687282e-05,-6.734017729759216309e-01,-2.451087713241577148e+00,2.246415475383400917e-03,5.091904163360595703e+00,-2.115271836519241333e-01,-2.725047826766967773e+00,1.000000000000000000e+00,-1.900736428797245026e-02,0.000000000000000000e+00
1.450951814651489258e+00,6.606467285156250000e+02,4.402708435058593750e+01,4.402708435058593750e+01,5.532111525535583496e-01,-9.877798461914062500e+01,-5.848692059516906738e-01,-1.033522129058837891e+00,-6.731274127960205078e+00,-3.496626595733687282e-05,-6.734017729759216309e-01,-2.451087713241577148e+00,2.246415475383400917e-03,5.091904163360595703e+00,-2.115271836519241333e-01,-2.725047826766967773e+00,1.000000000000000000e+00,-1.900736428797245026e-02,0.000000000000000000e+00
1.527701377868652344e+00,6.605730590820312500e+02,4.356189727783203125e+01,4.356189727783203125e+01,1.680704504251480103e-01,-9.893397521972656250e+01,-5.408325195312500000e-01,-1.093055844306945801e+00,-6.998051643371582031e+00,1.106493509723804891e-04,-7.756879925727844238e-01,-3.475948333740234375e+00,1.897282665595412254e-03,5.692924022674560547e+00,-1.919296830892562866e-01,-2.119462966918945312e+00,1.000000000000000000e+00,-1.288528461009263992e-02,0.000000000000000000e+00
1.527701377868652344e+00,6.605730590820312500e+02,4.356189727783203125e+01,4.356189727783203125e+01,1.680704504251480103e-01,-9.893397521972656250e+01,-5.408325195312500000e-01,-1.093055844306945801e+00,-6.998051643371582031e+00,1.106493509723804891e-04,-7.756879925727844238e-01,-3.475948333740234375e+00,1.897282665595412254e-03,5.692924022674560547e+00,-1.919296830892562866e-01,-2.119462966918945312e+00,1.000000000000000000e+00,-1.288528461009263992e-02,0.000000000000000000e+00
1.600134611129760742e+00,6.604832153320312500e+02,4.300843048095703125e+01,4.300843048095703125e+01,-2.586660683155059814e-01,-9.917017364501953125e+01,-4.993591010570526123e-01,-1.188517570495605469e+00,-7.409616470336914062e+00,7.051339343888685107e-05,-1.317927122116088867e+00,-5.681988716125488281e+00,-5.541096907109022141e-04,5.360445022583007812e+00,-4.579014182090759277e-01,-3.533173799514770508e+00,1.000000000000000000e+00,-2.937749214470386505e-02,0.000000000000000000e+00
1.600134611129760742e+00,6.604832153320312500e+02,4.300843048095703125e+01,4.300843048095703125e+01,-2.586660683155059814e-01,-9.917017364501953125e+01,-4.993591010570526123e-01,-1.188517570495605469e+00,-7.409616470336914062e+00,7.051339343888685107e-05,-1.317927122116088867e+00,-5.681988716125488281e+00,-5.541096907109022141e-04,5.360445022583007812e+00,-4.579014182090759277e-01,-3.533173799514770508e+00,1.000000000000000000e+00,-2.937749214470386505e-02,0.000000000000000000e+00
1.600134611129760742e+00,6.604832153320312500e+02,4.300843048095703125e+01,4.300843048095703125e+01,-2.586660683155059814e-01,-9.917017364501953125e+01,-4.993591010570526123e-01,-1.188517570495605469e+00,-7.409616470336914062e+00,7.051339343888685107e-05,-1.317927122116088867e+00,-5.681988716125488281e+00,-5.541096907109022141e-04,5.360445022583007812e+00,-4.579014182090759277e-01,-3.533173799514770508e+00,1.000000000000000000e+00,-2.937749214470386505e-02,0.000000000000000000e+00
1.600134611129760742e+00,6.604832153320312500e+02,4.300843048095703125e+01,4.300843048095703125e+01,-2.586660683155059814e-01,-9.917017364501953125e+01,-4.993591010570526123e-01,-1.188517570495605469e+00,-7.409616470336914062e+00,7.051339343888685107e-05,-1.317927122116088867e+00,-5.681988716125488281e+00,-5.541096907109022141e-04,5.360445022583007812e+00,-4.579014182090759277e-01,-3.533173799514770508e+00,1.000000000000000000e+00,-2.937749214470386505e-02,0.000000000000000000e+00
1.600134611129760742e+00,6.604832153320312500e+02,4.300843048095703125e+01,4.300843048095703125e+01,-2.586660683155059814e-01,-9.917017364501953125e+01,-4.993591010570526123e-01,-1.188517570495605469e+00,-7.409616470336914062e+00,7.051339343888685107e-05,-1.317927122116088867e+00,-5.681988716125488281e+00,-5.541096907109022141e-04,5.360445022583007812e+00,-4.579014182090759277e-01,-3.533173799514770508e+00,1.000000000000000000e+00,-2.937749214470386505e-02,0.000000000000000000e+00
1.600134611129760742e+00,6.603919677734375000e+02,4.246108627319335938e+01,4.246108627319335938e+01,-5.180903077125549316e-01,-9.942472839355468750e+01,-4.860839843750000000e-01,-1.268441796302795410e+00,-7.697977066040039062e+00,-3.623437407895835349e-07,-6.927111744880676270e-01,-2.499249935150146484e+00,-6.142870406620204449e-04,2.655377864837646484e+00,-4.065918028354644775e-01,-3.475992918014526367e+00,1.000000000000000000e+00,-2.363281324505805969e-02,0.000000000000000000e+00
1.715513467788696289e+00,6.603919677734375000e+02,4.246108627319335938e+01,4.246108627319335938e+01,-5.180903077125549316e-01,-9.942472839355468750e+01,-4.860839843750000000e-01,-1.268441796302795410e+00,-7.697977066040039062e+00,-3.623437407895835349e-07,-6.927111744880676270e-01,-2.499249935150146484e+00,-6.142870406620204449e-04,2.655377864837646484e+00,-4.065918028354644775e-01,-3.475992918014526367e+00,1.000000000000000000e+00,-2.363281324505805969e-02,0.000000000000000000e+00
1.715513467788696289e+00,6.603919677734375000e+02,4.246108627319335938e+01,4.246108627319335938e+01,-5.180903077125549316e-01,-9.942472839355468750e+01,-4.860839843750000000e-01,-1.268441796302795410e+00,-7.697977066040039062e+00,-3.623437407895835349e-07,-6.927111744880676270e-01,-2.499249935150146484e+00,-6.142870406620204449e-04,2.655377864837646484e+00,-4.065918028354644775e-01,-3.475992918014526367e+00,1.000000000000000000e+00,-2.363281324505805969e-02,0.000000000000000000e+00
1.715513467788696289e+00,6.603919677734375000e+02,4.246108627319335938e+01,4.246108627319335938e+01,-5.180903077125549316e-01,-9.942472839355468750e+01,-4.860839843750000000e-01,-1.268441796302795410e+00,-7.697977066040039062e+00,-3.623437407895835349e-07,-6.927111744880676270e-01,-2.499249935150146484e+00,-6.142870406620204449e-04,2.655377864837646484e+00,-4.065918028354644775e-01,-3.475992918014526367e+00,1.000000000000000000e+00,-2.363281324505805969e-02,0.000000000000000000e+00
1.813115119934082031e+00,6.602559814453125000e+02,4.166436004638671875e+01,4.166436004638671875e+01,-7.193623185157775879e-01,-9.970071411132812500e+01,-4.958800971508026123e-01,-1.383493423461914062e+00,-8.141673088073730469e+00,-1.744933069858234376e-05,-1.178787708282470703e+00,-4.545989036560058594e+00,-1.750686205923557281e-04,7.959151864051818848e-01,-2.656897306442260742e-01,-2.481394052505493164e+00,1.000000000000000000e+00,-1.601943932473659515e-02,0.000000000000000000e+00
1.813115119934082031e+00,6.602559814453125000e+02,4.166436004638671875e+01,4.166436004638671875e+01,-7.193623185157775879e-01,-9.970071411132812500e+01,-4.958800971508026123e-01,-1.383493423461914062e+00,-8.141673088073730469e+00,-1.744933069858234376e-05,-1.178787708282470703e+00,-4.545989036560058594e+00,-1.750686205923557281e-04,7.959151864051818848e-01,-2.656897306442260742e-01,-2.481394052505493164e+00,1.000000000000000000e+00,-1.601943932473659515e-02,0.000000000000000000e+00
1.813115119934082031e+00,6.602559814453125000e+02,4.166436004638671875e+01,4.166436004638671875e+01,-7.193623185157775879e-01,-9.970071411132812500e+01,-4.958800971508026123e-01,-1.383493423461914062e+00,-8.141673088073730469e+00,-1.744933069858234376e-05,-1.178787708282470703e+00,-4.545989036560058594e+00,-1.750686205923557281e-04,7.959151864051818848e-01,-2.656897306442260742e-01,-2.481394052505493164e+00,1.000000000000000000e+00,-1.601943932473659515e-02,0.000000000000000000e+00
1.813115119934082031e+00,6.602559814453125000e+02,4.166436004638671875e+01,4.166436004638671875e+01,-7.193623185157775879e-01,-9.970071411132812500e+01,-4.958800971508026123e-01,-1.383493423461914062e+00,-8.141673088073730469e+00,-1.744933069858234376e-05,-1.178787708282470703e+00,-4.545989036560058594e+00,-1.750686205923557281e-04,7.959151864051818848e-01,-2.656897306442260742e-01,-2.481394052505493164e+00,1.000000000000000000e+00,-1.601943932473659515e-02,0.000000000000000000e+00
1.896134853363037109e+00,6.601136474609375000e+02,4.084274291992187500e+01,4.084274291992187500e+01,-8.019666075706481934e-01,-9.985395812988281250e+01,-4.909973144531250000e-01,-1.485498070716857910e+00,-8.587194442749023438e+00,4.742804230772890151e-05,-1.228679537773132324e+00,-5.366451263427734375e+00,7.814692799001932144e-04,2.207957208156585693e-01,1.852737367153167725e-01,-1.188102245330810547e+00,1.000000000000000000e+00,-6.825256161391735077e-03,0.000000000000000000e+00
1.896134853363037109e+00,6.601136474609375000e+02,4.084274291992187500e+01,4.084274291992187500e+01,-8.019666075706481934e-01,-9.985395812988281250e+01,-4.909973144531250000e-01,-1.485498070716857910e+00,-8.587194442749023438e+00,4.742804230772890151e-05,-1.228679537773132324e+00,-5.366451263427734375e+00,7.814692799001932144e-04,2.207957208156585693e-01,1.852737367153167725e-01,-1.188102245330810547e+00,1.000000000000000000e+00,-6.825256161391735077e-03,0.000000000000000000e+00
1.896134853363037109e+00,6.601136474609375000e+02,4.084274291992187500e+01,4.084274291992187500e+01,-8.019666075706481934e-01,-9.985395812988281250e+01,-4.909973144531250000e-01,-1.485498070716857910e+00,-8.587194442749023438e+00,4.742804230772890151e-05,-1.228679537773132324e+00,-5.366451263427734375e+00,7.814692799001932144e-04,2.207957208156585693e-01,1.852737367153167725e-01,-1.188102245330810547e+00,1.000000000000000000e+00,-6.825256161391735077e-03,0.000000000000000000e+00
1.896134853363037109e+00,6.601136474609375000e+02,4.084274291992187500e+01,4.084274291992187500e+01,-8.019666075706481934e-01,-9.985395812988281250e+01,-4.909973144531250000e-01,-1.485498070716857910e+00,-8.587194442749023438e+00,4.742804230772890151e-05,-1.228679537773132324e+00,-5.366451263427734375e+00,7.814692799001932144e-04,2.207957208156585693e-01,1.852737367153167725e-01,-1.188102245330810547e+00,1.000000000000000000e+00,-6.825256161391735077e-03,0.000000000000000000e+00
1.896134853363037109e+00,6.601136474609375000e+02,4.084274291992187500e+01,4.084274291992187500e+01,-8.019666075706481934e-01,-9.985395812988281250e+01,-4.909973144531250000e-01,-1.485498070716857910e+00,-8.587194442749023438e+00,4.742804230772890151e-05,-1.228679537773132324e+00,-5.366451263427734375e+00,7.814692799001932144e-04,2.207957208156585693e-01,1.852737367153167725e-01,-1.188102245330810547e+00,1.000000000000000000e+00,-6.825256161391735077e-03,0.000000000000000000e+00
1.896134853363037109e+00,6.601136474609375000e+02,4.084274291992187500e+01,4.084274291992187500e+01,-8.019666075706481934e-01,-9.985395812988281250e+01,-4.909973144531250000e-01,-1.485498070716857910e+00,-8.587194442749023438e+00,4.742804230772890151e-05,-1.228679537773132324e+00,-5.366451263427734375e+00,7.814692799001932144e-04,2.207957208156585693e-01,1.852737367153167725e-01,-1.188102245330810547e+00,1.000000000000000000e+00,-6.825256161391735077e-03,0.000000000000000000e+00
1.896134853363037109e+00,6.601136474609375000e+02,4.084274291992187500e+01,4.084274291992187500e+01,-8.019666075706481934e-01,-9.985395812988281250e+01,-4.909973144531250000e-01,-1.485498070716857910e+00,-8.587194442749023438e+00,4.742804230772890151e-05,-1.228679537773132324e+00,-5.366451263427734375e+00,7.814692799001932144e-04,2.207957208156585693e-01,1.852737367153167725e-01,-1.188102245330810547e+00,1.000000000000000000e+00,-6.825256161391735077e-03,0.000000000000000000e+00
2.195794820785522461e+00,6.596956176757812500e+02,3.855953598022460938e+01,3.855953598022460938e+01,6.502066254615783691e-01,-1.008583374023437500e+02,-5.495604872703552246e-01,-1.412875771522521973e+00,-7.466734886169433594e+00,-8.968949987320229411e-05,1.749823570251464844e+00,1.571911048889160156e+01,-7.532528601586818695e-03,-5.258241176605224609e+00,-2.281001359224319458e-01,-4.047858238220214844e+00,5.000000000000000000e-01,-3.783721849322319031e-02,0.000000000000000000e+00
2.195794820785522461e+00,6.596956176757812500e+02,3.855953598022460938e+01,3.855953598022460938e+01,6.502066254615783691e-01,-1.008583374023437500e+02,-5.495604872703552246e-01,-1.412875771522521973e+00,-7.466734886169433594e+00,-8.968949987320229411e-05,1.749823570251464844e+00,1.571911048889160156e+01,-7.532528601586818695e-03,-5.258241176605224609e+00,-2.281001359224319458e-01,-4.047858238220214844e+00,5.000000000000000000e-01,-3.783721849322319031e-02,0.000000000000000000e+00
2.195794820785522461e+00,6.596956176757812500e+02,3.855953598022460938e+01,3.855953598022460938e+01,6.502066254615783691e-01,-1.008583374023437500e+02,-5.495604872703552246e-01,-1.412875771522521973e+00,-7.466734886169433594e+00,-8.968949987320229411e-05,1.749823570251464844e+00,1.571911048889160156e+01,-7.532528601586818695e-03,-5.258241176605224609e+00,-2.281001359224319458e-01,-4.047858238220214844e+00,5.000000000000000000e-01,-3.783721849322319031e-02,0.000000000000000000e+00
2.195794820785522461e+00,6.596956176757812500e+02,3.855953598022460938e+01,3.855953598022460938e+01,6.502066254615783691e-01,-1.008583374023437500e+02,-5.495604872703552246e-01,-1.412875771522521973e+00,-7.466734886169433594e+00,-8.968949987320229411e-05,1.749823570251464844e+00,1.571911048889160156e+01,-7.532528601586818695e-03,-5.258241176605224609e+00,-2.281001359224319458e-01,-4.047858238220214844e+00,5.000000000000000000e-01,-3.783721849322319031e-02,0.000000000000000000e+00
2.195794820785522461e+00,6.596956176757812500e+02,3.855953598022460938e+01,3.855953598022460938e+01,6.502066254615783691e-01,-1.008583374023437500e+02,-5.495604872703552246e-01,-1.412875771522521973e+00,-7.466734886169433594e+00,-8.968949987320229411e-05,1.749823570251464844e+00,1.571911048889160156e+01,-7.532528601586818695e-03,-5.258241176605224609e+00,-2.281001359224319458e-01,-4.047858238220214844e+00,5.000000000000000000e-01,-3.783721849322319031e-02,0.000000000000000000e+00
2.195794820785522461e+00,6.596956176757812500e+02,3.855953598022460938e+01,3.855953598022460938e+01,6.502066254615783691e-01,-1.008583374023437500e+02,-5.495604872703552246e-01,-1.412875771522521973e+00,-7.466734886169433594e+00,-8.968949987320229411e-05,1.749823570251464844e+00,1.571911048889160156e+01,-7.532528601586818695e-03,-5.258241176605224609e+00,-2.281001359224319458e-01,-4.047858238220214844e+00,5.000000000000000000e-01,-3.783721849322319031e-02,0.000000000000000000e+00
2.195794820785522461e+00,6.596956176757812500e+02,3.855953598022460938e+01,3.855953598022460938e+01,6.502066254615783691e-01,-1.008583374023437500e+02,-5.495604872703552246e-01,-1.412875771522521973e+00,-7.466734886169433594e+00,-8.968949987320229411e-05,1.749823570251464844e+00,1.571911048889160156e+01,-7.532528601586818695e-03,-5.258241176605224609e+00,-2.281001359224319458e-01,-4.047858238220214844e+00,5.000000000000000000e-01,-3.783721849322319031e-02,0.000000000000000000e+00
2.195794820785522461e+00,6.596956176757812500e+02,3.855953598022460938e+01,3.855953598022460938e+01,6.502066254615783691e-01,-1.008583374023437500e+02,-5.495604872703552246e-01,-1.412875771522521973e+00,-7.466734886169433594e+00,-8.968949987320229411e-05,1.749823570251464844e+00,1.571911048889160156e+01,-7.532528601586818695e-03,-5.258241176605224609e+00,-2.281001359224319458e-01,-4.047858238220214844e+00,5.000000000000000000e-01,-3.783721849322319031e-02,0.000000000000000000e+00
2.195794820785522461e+00,6.596956176757812500e+02,3.855953598022460938e+01,3.855953598022460938e+01,6.502066254615783691e-01,-1.008583374023437500e+02,-5.495604872703552246e-01,-1.412875771522521973e+00,-7.466734886169433594e+00,-8.968949987320229411e-05,1.749823570251464844e+00,1.571911048889160156e+01,-7.532528601586818695e-03,-5.258241176605224609e+00,-2.281001359224319458e-01,-4.047858238220214844e+00,5.000000000000000000e-01,-3.783721849322319031e-02,0.000000000000000000e+00
2.195794820785522461e+00,6.596956176757812500e+02,3.855953598022460938e+01,3.855953598022460938e+01,6.502066254615783691e-01,-1.008583374023437500e+02,-5.495604872703552246e-01,-1.412875771522521973e+00,-7.466734886169433594e+00,-8.968949987320229411e-05,1.749823570251464844e+00,1.571911048889160156e+01,-7.532528601586818695e-03,-5.258241176605224609e+00,-2.281001359224319458e-01,-4.047858238220214844e+00,5.000000000000000000e-01,-3.783721849322319031e-02,0.000000000000000000e+00
2.374083757400512695e+00,6.596170043945312500e+02,3.815739822387695312e+01,3.815739822387695312e+01,6.193615198135375977e-01,-1.010479202270507812e+02,-6.214903593063354492e-01,-1.488774538040161133e+00,-7.667081356048583984e+00,-2.463109267409890890e-04,-4.257065355777740479e-01,-1.123717904090881348e+00,-8.784696110524237156e-04,2.799425363540649414e+00,-1.935711383819580078e+00,-3.424469232559204102e+00,1.000000000000000000e+00,-2.835032157599925995e-02,0.000000000000000000e+00
2.374083757400512695e+00,6.596170043945312500e+02,3.815739822387695312e+01,3.815739822387695312e+01,6.193615198135375977e-01,-1.010479202270507812e+02,-6.214903593063354492e-01,-1.488774538040161133e+00,-7.667081356048583984e+00,-2.463109267409890890e-04,-4.257065355777740479e-01,-1.123717904090881348e+00,-8.784696110524237156e-04,2.799425363540649414e+00,-1.935711383819580078e+00,-3.424469232559204102e+00,1.000000000000000000e+00,-2.835032157599925995e-02,0.000000000000000000e+00
2.374083757400512695e+00,6.596170043945312500e+02,3.815739822387695312e+01,3.815739822387695312e+01,6.193615198135375977e-01,-1.010479202270507812e+02,-6.214903593063354492e-01,-1.488774538040161133e+00,-7.667081356048583984e+00,-2.463109267409890890e-04,-4.257065355777740479e-01,-1.123717904090881348e+00,-8.784696110524237156e-04,2.799425363540649414e+00,-1.935711383819580078e+00,-3.424469232559204102e+00,1.000000000000000000e+00,-2.835032157599925995e-02,0.000000000000000000e+00
2.447860002517700195e+00,6.594586791992187500e+02,3.736813354492187500e+01,3.736813354492187500e+01,5.706622824072837830e-02,-1.013714065551757812e+02,-7.252501845359802246e-01,-1.626808285713195801e+00,-8.116837501525878906e+00,-1.210010959766805172e-04,-1.870978236198425293e+00,-6.096219062805175781e+00,1.698511885479092598e-03,5.776364326477050781e+00,-1.906653404235839844e+00,-3.239244937896728516e+00,1.000000000000000000e+00,-2.383778803050518036e-02,0.000000000000000000e+00
2.447860002517700195e+00,6.594586791992187500e+02,3.736813354492187500e+01,3.736813354492187500e+01,5.706622824072837830e-02,-1.013714065551757812e+02,-7.252501845359802246e-01,-1.626808285713195801e+00,-8.116837501525878906e+00,-1.210010959766805172e-04,-1.870978236198425293e+00,-6.096219062805175781e+00,1.698511885479092598e-03,5.776364326477050781e+00,-1.906653404235839844e+00,-3.239244937896728516e+00,1.000000000000000000e+00,-2.383778803050518036e-02,0.000000000000000000e+00
2.500878810882568359e+00,6.593331909179687500e+02,3.675683975219726562e+01,3.675683975219726562e+01,-3.052957653999328613e-01,-1.015885772705078125e+02,-7.527464032173156738e-01,-1.723299503326416016e+00,-8.443800926208496094e+00,-1.034011729643680155e-04,-1.819943189620971680e+00,-6.166932582855224609e+00,3.319562238175421953e-04,4.146427631378173828e+00,-1.009328842163085938e+00,-2.803319931030273438e+00,1.000000000000000000e+00,-1.831359788775444031e-02,0.000000000000000000e+00
2.500878810882568359e+00,6.593331909179687500e+02,3.675683975219726562e+01,3.675683975219726562e+01,-3.052957653999328613e-01,-1.015885772705078125e+02,-7.527464032173156738e-01,-1.723299503326416016e+00,-8.443800926208496094e+00,-1.034011729643680155e-04,-1.819943189620971680e+00,-6.166932582855224609e+00,3.319562238175421953e-04,4.146427631378173828e+00,-1.009328842163085938e+00,-2.803319931030273438e+00,1.000000000000000000e+00,-1.831359788775444031e-02,0.000000000000000000e+00
2.500878810882568359e+00,6.593331909179687500e+02,3.675683975219726562e+01,3.675683975219726562e+01,-3.052957653999328613e-01,-1.015885772705078125e+02,-7.527464032173156738e-01,-1.723299503326416016e+00,-8.443800926208496094e+00,-1.034011729643680155e-04,-1.819943189620971680e+00,-6.166932582855224609e+00,3.319562238175421953e-04,4.146427631378173828e+00,-1.009328842163085938e+00,-2.803319931030273438e+00,1.000000000000000000e+00,-1.831359788775444031e-02,0.000000000000000000e+00
2.560195446014404297e+00,6.592391357421875000e+02,3.630194473266601562e+01,3.630194473266601562e+01,-4.917599260807037354e-01,-1.016774902343750000e+02,-7.425537705421447754e-01,-1.786626100540161133e+00,-8.687432289123535156e+00,-7.748530333628877997e-05,-1.067602634429931641e+00,-4.107302665710449219e+00,4.369072848930954933e-04,3.116480588912963867e+00,-2.322358042001724243e-01,-1.141660451889038086e+00,1.000000000000000000e+00,0.000000000000000000e+00,0.000000000000000000e+00
2.560195446014404297e+00,6.592391357421875000e+02,3.630194473266601562e+01,3.630194473266601562e+01,-4.917599260807037354e-01,-1.016774902343750000e+02,-7.425537705421447754e-01,-1.786626100540161133e+00,-8.687432289123535156e+00,-7.748530333628877997e-05,-1.067602634429931641e+00,-4.107302665710449219e+00,4.369072848930954933e-04,3.116480588912963867e+00,-2.322358042001724243e-01,-1.141660451889038086e+00,1.000000000000000000e+00,0.000000000000000000e+00,0.000000000000000000e+00
2.560195446014404297e+00,6.591305541992187500e+02,3.577747344970703125e+01,3.577747344970703125e+01,-6.386089920997619629e-01,-1.017103424072265625e+02,-6.944580078125000000e-01,-1.849558115005493164e+00,-8.954369544982910156e+00,-1.990022974496241659e-05,-1.075115919113159180e+00,-4.560293674468994141e+00,9.837698889896273613e-04,2.242259263992309570e+00,6.091811060905456543e-01,-2.935082018375396729e-01,1.000000000000000000e+00,0.000000000000000000e+00,0.000000000000000000e+00
2.618730545043945312e+00,6.591305541992187500e+02,3.577747344970703125e+01,3.577747344970703125e+01,-6.386089920997619629e-01,-1.017103424072265625e+02,-6.944580078125000000e-01,-1.849558115005493164e+00,-8.954369544982910156e+00,-1.990022974496241659e-05,-1.075115919113159180e+00,-4.560293674468994141e+00,9.837698889896273613e-04,2.242259263992309570e+00,6.091811060905456543e-01,-2.935082018375396729e-01,1.000000000000000000e+00,0.000000000000000000e+00,0.000000000000000000e+00
2.618730545043945312e+00,6.590201416015625000e+02,3.525331497192382812e+01,3.525331497192382812e+01,-5.904151797294616699e-01,-1.018560028076171875e+02,-6.308593153953552246e-01,-1.846261978149414062e+00,-8.847585678100585938e+00,9.508648508926853538e-05,5.624468624591827393e-02,1.822140693664550781e+00,1.962112728506326675e-03,-3.503038167953491211e+00,1.818682909011840820e+00,-3.560294866561889648e+00,0.000000000000000000e+00,-3.852589800953865051e-02,1.000000000000000000e+00
2.677334070205688477e+00,6.590201416015625000e+02,3.525331497192382812e+01,3.525331497192382812e+01,-5.904151797294616699e-01,-1.018560028076171875e+02,-6.308593153953552246e-01,-1.846261978149414062e+00,-8.847585678100585938e+00,9.508648508926853538e-05,5.624468624591827393e-02,1.822140693664550781e+00,1.962112728506326675e-03,-3.503038167953491211e+00,1.818682909011840820e+00,-3.560294866561889648e+00,0.000000000000000000e+00,-3.852589800953865051e-02,1.000000000000000000e+00
2.677334070205688477e+00,6.590201416015625000e+02,3.525331497192382812e+01,3.525331497192382812e+01,-5.904151797294616699e-01,-1.018560028076171875e+02,-6.308593153953552246e-01,-1.846261978149414062e+00,-8.847585678100585938e+00,9.508648508926853538e-05,5.624468624591827393e-02,1.822140693664550781e+00,1.962112728506326675e-03,-3.503038167953491211e+00,1.818682909011840820e+00,-3.560294866561889648e+00,0.000000000000000000e+00,-3.852589800953865051e-02,1.000000000000000000e+00
2.677334070205688477e+00,6.590201416015625000e+02,3.525331497192382812e+01,3.525331497192382812e+01,-5.904151797294616699e-01,-1.018560028076171875e+02,-6.308593153953552246e-01,-1.846261978149414062e+00,-8.847585678100585938e+00,9.508648508926853538e-05,5.624468624591827393e-02,1.822140693664550781e+00,1.962112728506326675e-03,-3.503038167953491211e+00,1.818682909011840820e+00,-3.560294866561889648e+00,0.000000000000000000e+00,-3.852589800953865051e-02,1.000000000000000000e+00
2.755024909973144531e+00,6.589102783203125000e+02,3.474399185180664062e+01,3.474399185180664062e+01,-2.993466854095458984e-01,-1.021269073486328125e+02,-5.875853896141052246e-01,-1.854807138442993164e+00,-8.724469184875488281e+00,2.530489873606711626e-04,-1.099892929196357727e-01,1.584697723388671875e+00,2.033218974247574806e-03,-2.586194753646850586e+00,1.002932786941528320e+00,-4.945516586303710938e+00,1.000000000000000000e+00,-4.191487655043601990e-02,0.000000000000000000e+00
2.755024909973144531e+00,6.589102783203125000e+02,3.474399185180664062e+01,3.474399185180664062e+01,-2.993466854095458984e-01,-1.021269073486328125e+02,-5.875853896141052246e-01,-1.854807138442993164e+00,-8.724469184875488281e+00,2.530489873606711626e-04,-1.099892929196357727e-01,1.584697723388671875e+00,2.033218974247574806e-03,-2.586194753646850586e+00,1.002932786941528320e+00,-4.945516586303710938e+00,1.000000000000000000e+00,-4.191487655043601990e-02,0.000000000000000000e+00
2.755024909973144531e+00,6.589102783203125000e+02,3.474399185180664062e+01,3.474399185180664062e+01,-2.993466854095458984e-01,-1.021269073486328125e+02,-5.875853896141052246e-01,-1.854807138442993164e+00,-8.724469184875488281e+00,2.530489873606711626e-04,-1.099892929196357727e-01,1.584697723388671875e+00,2.033218974247574806e-03,-2.586194753646850586e+00,1.002932786941528320e+00,-4.945516586303710938e+00,1.000000000000000000e+00,-4.191487655043601990e-02,0.000000000000000000e+00
2.830169916152954102e+00,6.587566528320312500e+02,3.405249023437500000e+01,3.405249023437500000e+01,-3.304718434810638428e-01,-1.025833892822265625e+02,-6.139830946922302246e-01,-1.992741942405700684e+00,-9.038393974304199219e+00,8.626549970358610153e-05,-1.835581779479980469e+00,-4.177586555480957031e+00,-2.219488611444830894e-03,1.442919135093688965e+00,-1.204128980636596680e+00,-6.347750186920166016e+00,1.000000000000000000e+00,-4.965133592486381531e-02,0.000000000000000000e+00
2.830169916152954102e+00,6.587566528320312500e+02,3.405249023437500000e+01,3.405249023437500000e+01,-3.304718434810638428e-01,-1.025833892822265625e+02,-6.139830946922302246e-01,-1.992741942405700684e+00,-9.038393974304199219e+00,8.626549970358610153e-05,-1.835581779479980469e+00,-4.177586555480957031e+00,-2.219488611444830894e-03,1.442919135093688965e+00,-1.204128980636596680e+00,-6.347750186920166016e+00,1.000000000000000000e+00,-4.965133592486381531e-02,0.000000000000000000e+00
2.830169916152954102e+00,6.587566528320312500e+02,3.405249023437500000e+01,3.405249023437500000e+01,-3.304718434810638428e-01,-1.025833892822265625e+02,-6.139830946922302246e-01,-1.992741942405700684e+00,-9.038393974304199219e+00,8.626549970358610153e-05,-1.835581779479980469e+00,-4.177586555480957031e+00,-2.219488611444830894e-03,1.442919135093688965e+00,-1.204128980636596680e+00,-6.347750186920166016e+00,1.000000000000000000e+00,-4.965133592486381531e-02,0.000000000000000000e+00
2.830169916152954102e+00,6.587566528320312500e+02,3.405249023437500000e+01,3.405249023437500000e+01,-3.304718434810638428e-01,-1.025833892822265625e+02,-6.139830946922302246e-01,-1.992741942405700684e+00,-9.038393974304199219e+00,8.626549970358610153e-05,-1.835581779479980469e+00,-4.177586555480957031e+00,-2.219488611444830894e-03,1.442919135093688965e+00,-1.204128980636596680e+00,-6.347750186920166016e+00,1.000000000000000000e+00,-4.965133592486381531e-02,0.000000000000000000e+00
2.830169916152954102e+00,6.587566528320312500e+02,3.405249023437500000e+01,3.405249023437500000e+01,-3.304718434810638428e-01,-1.025833892822265625e+02,-6.139830946922302246e-01,-1.992741942405700684e+00,-9.038393974304199219e+00,8.626549970358610153e-05,-1.835581779479980469e+00,-4.177586555480957031e+00,-2.219488611444830894e-03,1.442919135093688965e+00,-1.204128980636596680e+00,-6.347750186920166016e+00,1.000000000000000000e+00,-4.965133592486381531e-02,0.000000000000000000e+00
