# Time,X,Y,Z,Roll,Pitch,Yaw,Vx,Vy,Vz,Ax,Ay,Az,Wx,Wy,Wz,Throttle,Steer,Brake
0.000000000000000000e+00,-3.260409240722656250e+02,2.485750885009765625e+02,2.485750885009765625e+02,5.054954290390014648e-01,1.266880702972412109e+01,-2.650451362133026123e-01,1.195966815948486328e+01,2.589091062545776367e+00,-2.762403710221406072e-05,-4.278930187225341797e+00,-2.670277833938598633e+00,-5.607873390545137227e-05,7.452568411827087402e-02,-3.146590888500213623e-01,-9.236963272094726562e+00,1.000000000000000000e+00,-3.851598873734474182e-02,0.000000000000000000e+00
1.045818328857421875e-01,-3.260409240722656250e+02,2.485750885009765625e+02,2.485750885009765625e+02,5.054954290390014648e-01,1.266880702972412109e+01,-2.650451362133026123e-01,1.195966815948486328e+01,2.589091062545776367e+00,-2.762403710221406072e-05,-4.278930187225341797e+00,-2.670277833938598633e+00,-5.607873390545137227e-05,7.452568411827087402e-02,-3.146590888500213623e-01,-9.236963272094726562e+00,1.000000000000000000e+00,-3.851598873734474182e-02,0.000000000000000000e+00
1.045818328857421875e-01,-3.260409240722656250e+02,2.485750885009765625e+02,2.485750885009765625e+02,5.054954290390014648e-01,1.266880702972412109e+01,-2.650451362133026123e-01,1.195966815948486328e+01,2.589091062545776367e+00,-2.762403710221406072e-05,-4.278930187225341797e+00,-2.670277833938598633e+00,-5.607873390545137227e-05,7.452568411827087402e-02,-3.146590888500213623e-01,-9.236963272094726562e+00,1.000000000000000000e+00,-3.851598873734474182e-02,0.000000000000000000e+00
1.045818328857421875e-01,-3.260409240722656250e+02,2.485750885009765625e+02,2.485750885009765625e+02,5.054954290390014648e-01,1.266880702972412109e+01,-2.650451362133026123e-01,1.195966815948486328e+01,2.589091062545776367e+00,-2.762403710221406072e-05,-4.278930187225341797e+00,-2.670277833938598633e+00,-5.607873390545137227e-05,7.452568411827087402e-02,-3.146590888500213623e-01,-9.236963272094726562e+00,1.000000000000000000e+00,-3.851598873734474182e-02,0.000000000000000000e+00
1.045818328857421875e-01,-3.260409240722656250e+02,2.485750885009765625e+02,2.485750885009765625e+02,5.054954290390014648e-01,1.266880702972412109e+01,-2.650451362133026123e-01,1.195966815948486328e+01,2.589091062545776367e+00,-2.762403710221406072e-05,-4.278930187225341797e+00,-2.670277833938598633e+00,-5.607873390545137227e-05,7.452568411827087402e-02,-3.146590888500213623e-01,-9.236963272094726562e+00,1.000000000000000000e+00,-3.851598873734474182e-02,0.000000000000000000e+00
1.045818328857421875e-01,-3.260409240722656250e+02,2.485750885009765625e+02,2.485750885009765625e+02,5.054954290390014648e-01,1.266880702972412109e+01,-2.650451362133026123e-01,1.195966815948486328e+01,2.589091062545776367e+00,-2.762403710221406072e-05,-4.278930187225341797e+00,-2.670277833938598633e+00,-5.607873390545137227e-05,7.452568411827087402e-02,-3.146590888500213623e-01,-9.236963272094726562e+00,1.000000000000000000e+00,-3.851598873734474182e-02,0.000000000000000000e+00
1.045818328857421875e-01,-3.248680114746093750e+02,2.488234252929687500e+02,2.488234252929687500e+02,5.184386372566223145e-01,1.176130294799804688e+01,-2.676391303539276123e-01,1.163094234466552734e+01,2.297958374023437500e+00,-1.327293466601986438e-05,-3.139425277709960938e+00,-2.780400276184082031e+00,1.370571262668818235e-04,4.010501434095203876e-04,5.110342055559158325e-03,-8.929119110107421875e+00,1.000000000000000000e+00,-4.078903049230575562e-02,0.000000000000000000e+00
2.092907428741455078e-01,-3.248680114746093750e+02,2.488234252929687500e+02,2.488234252929687500e+02,5.184386372566223145e-01,1.176130294799804688e+01,-2.676391303539276123e-01,1.163094234466552734e+01,2.297958374023437500e+00,-1.327293466601986438e-05,-3.139425277709960938e+00,-2.780400276184082031e+00,1.370571262668818235e-04,4.010501434095203876e-04,5.110342055559158325e-03,-8.929119110107421875e+00,1.000000000000000000e+00,-4.078903049230575562e-02,0.000000000000000000e+00
2.092907428741455078e-01,-3.248680114746093750e+02,2.488234252929687500e+02,2.488234252929687500e+02,5.184386372566223145e-01,1.176130294799804688e+01,-2.676391303539276123e-01,1.163094234466552734e+01,2.297958374023437500e+00,-1.327293466601986438e-05,-3.139425277709960938e+00,-2.780400276184082031e+00,1.370571262668818235e-04,4.010501434095203876e-04,5.110342055559158325e-03,-8.929119110107421875e+00,1.000000000000000000e+00,-4.078903049230575562e-02,0.000000000000000000e+00
2.092907428741455078e-01,-3.248680114746093750e+02,2.488234252929687500e+02,2.488234252929687500e+02,5.184386372566223145e-01,1.176130294799804688e+01,-2.676391303539276123e-01,1.163094234466552734e+01,2.297958374023437500e+00,-1.327293466601986438e-05,-3.139425277709960938e+00,-2.780400276184082031e+00,1.370571262668818235e-04,4.010501434095203876e-04,5.110342055559158325e-03,-8.929119110107421875e+00,1.000000000000000000e+00,-4.078903049230575562e-02,0.000000000000000000e+00
2.092907428741455078e-01,-3.248680114746093750e+02,2.488234252929687500e+02,2.488234252929687500e+02,5.184386372566223145e-01,1.176130294799804688e+01,-2.676391303539276123e-01,1.163094234466552734e+01,2.297958374023437500e+00,-1.327293466601986438e-05,-3.139425277709960938e+00,-2.780400276184082031e+00,1.370571262668818235e-04,4.010501434095203876e-04,5.110342055559158325e-03,-8.929119110107421875e+00,1.000000000000000000e+00,-4.078903049230575562e-02,0.000000000000000000e+00
2.092907428741455078e-01,-3.237171936035156250e+02,2.490478057861328125e+02,2.490478057861328125e+02,5.049217343330383301e-01,1.095928764343261719e+01,-2.528075277805328369e-01,1.147760200500488281e+01,2.103856325149536133e+00,9.878419405140448362e-06,-2.054988861083984375e+00,-2.601256370544433594e+00,3.102626069448888302e-04,-2.047988921403884888e-01,1.725677102804183960e-01,-7.620724201202392578e+00,1.000000000000000000e+00,-3.491860628128051758e-02,0.000000000000000000e+00
2.839093208312988281e-01,-3.237171936035156250e+02,2.490478057861328125e+02,2.490478057861328125e+02,5.049217343330383301e-01,1.095928764343261719e+01,-2.528075277805328369e-01,1.147760200500488281e+01,2.103856325149536133e+00,9.878419405140448362e-06,-2.054988861083984375e+00,-2.601256370544433594e+00,3.102626069448888302e-04,-2.047988921403884888e-01,1.725677102804183960e-01,-7.620724201202392578e+00,1.000000000000000000e+00,-3.491860628128051758e-02,0.000000000000000000e+00
2.839093208312988281e-01,-3.237171936035156250e+02,2.490478057861328125e+02,2.490478057861328125e+02,5.049217343330383301e-01,1.095928764343261719e+01,-2.528075277805328369e-01,1.147760200500488281e+01,2.103856325149536133e+00,9.878419405140448362e-06,-2.054988861083984375e+00,-2.601256370544433594e+00,3.102626069448888302e-04,-2.047988921403884888e-01,1.725677102804183960e-01,-7.620724201202392578e+00,1.000000000000000000e+00,-3.491860628128051758e-02,0.000000000000000000e+00
2.839093208312988281e-01,-3.237171936035156250e+02,2.490478057861328125e+02,2.490478057861328125e+02,5.049217343330383301e-01,1.095928764343261719e+01,-2.528075277805328369e-01,1.147760200500488281e+01,2.103856325149536133e+00,9.878419405140448362e-06,-2.054988861083984375e+00,-2.601256370544433594e+00,3.102626069448888302e-04,-2.047988921403884888e-01,1.725677102804183960e-01,-7.620724201202392578e+00,1.000000000000000000e+00,-3.491860628128051758e-02,0.000000000000000000e+00
2.839093208312988281e-01,-3.237171936035156250e+02,2.490478057861328125e+02,2.490478057861328125e+02,5.049217343330383301e-01,1.095928764343261719e+01,-2.528075277805328369e-01,1.147760200500488281e+01,2.103856325149536133e+00,9.878419405140448362e-06,-2.054988861083984375e+00,-2.601256370544433594e+00,3.102626069448888302e-04,-2.047988921403884888e-01,1.725677102804183960e-01,-7.620724201202392578e+00,1.000000000000000000e+00,-3.491860628128051758e-02,0.000000000000000000e+00
3.569011688232421875e-01,-3.228633117675781250e+02,2.492032775878906250e+02,2.492032775878906250e+02,4.860362410545349121e-01,1.040198230743408203e+01,-2.415466457605361938e-01,1.146063423156738281e+01,1.977815866470336914e+00,1.905156750581227243e-05,-2.324612140655517578e-01,-1.726774454116821289e+00,1.256735995411872864e-04,-1.971226036548614502e-01,2.493014931678771973e-01,-7.394521236419677734e+00,1.000000000000000000e+00,-3.534577414393424988e-02,0.000000000000000000e+00
3.569011688232421875e-01,-3.228633117675781250e+02,2.492032775878906250e+02,2.492032775878906250e+02,4.860362410545349121e-01,1.040198230743408203e+01,-2.415466457605361938e-01,1.146063423156738281e+01,1.977815866470336914e+00,1.905156750581227243e-05,-2.324612140655517578e-01,-1.726774454116821289e+00,1.256735995411872864e-04,-1.971226036548614502e-01,2.493014931678771973e-01,-7.394521236419677734e+00,1.000000000000000000e+00,-3.534577414393424988e-02,0.000000000000000000e+00
3.569011688232421875e-01,-3.228633117675781250e+02,2.492032775878906250e+02,2.492032775878906250e+02,4.860362410545349121e-01,1.040198230743408203e+01,-2.415466457605361938e-01,1.146063423156738281e+01,1.977815866470336914e+00,1.905156750581227243e-05,-2.324612140655517578e-01,-1.726774454116821289e+00,1.256735995411872864e-04,-1.971226036548614502e-01,2.493014931678771973e-01,-7.394521236419677734e+00,1.000000000000000000e+00,-3.534577414393424988e-02,0.000000000000000000e+00
3.569011688232421875e-01,-3.228633117675781250e+02,2.492032775878906250e+02,2.492032775878906250e+02,4.860362410545349121e-01,1.040198230743408203e+01,-2.415466457605361938e-01,1.146063423156738281e+01,1.977815866470336914e+00,1.905156750581227243e-05,-2.324612140655517578e-01,-1.726774454116821289e+00,1.256735995411872864e-04,-1.971226036548614502e-01,2.493014931678771973e-01,-7.394521236419677734e+00,1.000000000000000000e+00,-3.534577414393424988e-02,0.000000000000000000e+00
4.765405654907226562e-01,-3.220264892578125000e+02,2.493475952148437500e+02,2.493475952148437500e+02,4.640430212020874023e-01,9.895460128784179688e+00,-2.262573093175888062e-01,1.150160217285156250e+01,1.888412714004516602e+00,2.355231663386803120e-05,3.424285352230072021e-01,-7.472718358039855957e-01,3.761929110623896122e-05,-2.609804570674896240e-01,2.689014673233032227e-01,-6.745670795440673828e+00,1.000000000000000000e+00,-3.159087151288986206e-02,0.000000000000000000e+00
4.765405654907226562e-01,-3.220264892578125000e+02,2.493475952148437500e+02,2.493475952148437500e+02,4.640430212020874023e-01,9.895460128784179688e+00,-2.262573093175888062e-01,1.150160217285156250e+01,1.888412714004516602e+00,2.355231663386803120e-05,3.424285352230072021e-01,-7.472718358039855957e-01,3.761929110623896122e-05,-2.609804570674896240e-01,2.689014673233032227e-01,-6.745670795440673828e+00,1.000000000000000000e+00,-3.159087151288986206e-02,0.000000000000000000e+00
4.765405654907226562e-01,-3.220264892578125000e+02,2.493475952148437500e+02,2.493475952148437500e+02,4.640430212020874023e-01,9.895460128784179688e+00,-2.262573093175888062e-01,1.150160217285156250e+01,1.888412714004516602e+00,2.355231663386803120e-05,3.424285352230072021e-01,-7.472718358039855957e-01,3.761929110623896122e-05,-2.609804570674896240e-01,2.689014673233032227e-01,-6.745670795440673828e+00,1.000000000000000000e+00,-3.159087151288986206e-02,0.000000000000000000e+00
4.765405654907226562e-01,-3.220264892578125000e+02,2.493475952148437500e+02,2.493475952148437500e+02,4.640430212020874023e-01,9.895460128784179688e+00,-2.262573093175888062e-01,1.150160217285156250e+01,1.888412714004516602e+00,2.355231663386803120e-05,3.424285352230072021e-01,-7.472718358039855957e-01,3.761929110623896122e-05,-2.609804570674896240e-01,2.689014673233032227e-01,-6.745670795440673828e+00,1.000000000000000000e+00,-3.159087151288986206e-02,0.000000000000000000e+00
4.765405654907226562e-01,-3.220264892578125000e+02,2.493475952148437500e+02,2.493475952148437500e+02,4.640430212020874023e-01,9.895460128784179688e+00,-2.262573093175888062e-01,1.150160217285156250e+01,1.888412714004516602e+00,2.355231663386803120e-05,3.424285352230072021e-01,-7.472718358039855957e-01,3.761929110623896122e-05,-2.609804570674896240e-01,2.689014673233032227e-01,-6.745670795440673828e+00,1.000000000000000000e+00,-3.159087151288986206e-02,0.000000000000000000e+00
4.765405654907226562e-01,-3.220264892578125000e+02,2.493475952148437500e+02,2.493475952148437500e+02,4.640430212020874023e-01,9.895460128784179688e+00,-2.262573093175888062e-01,1.150160217285156250e+01,1.888412714004516602e+00,2.355231663386803120e-05,3.424285352230072021e-01,-7.472718358039855957e-01,3.761929110623896122e-05,-2.609804570674896240e-01,2.689014673233032227e-01,-6.745670795440673828e+00,1.000000000000000000e+00,-3.159087151288986206e-02,0.000000000000000000e+00
4.765405654907226562e-01,-3.220264892578125000e+02,2.493475952148437500e+02,2.493475952148437500e+02,4.640430212020874023e-01,9.895460128784179688e+00,-2.262573093175888062e-01,1.150160217285156250e+01,1.888412714004516602e+00,2.355231663386803120e-05,3.424285352230072021e-01,-7.472718358039855957e-01,3.761929110623896122e-05,-2.609804570674896240e-01,2.689014673233032227e-01,-6.745670795440673828e+00,1.000000000000000000e+00,-3.159087151288986206e-02,0.000000000000000000e+00
6.200885772705078125e-01,-3.208710327148437500e+02,2.495336303710937500e+02,2.495336303710937500e+02,4.329929947853088379e-01,9.193115234375000000e+00,-2.144469767808914185e-01,1.162908744812011719e+01,1.751178503036499023e+00,2.149223473679739982e-05,8.881019949913024902e-01,-9.560161232948303223e-01,-1.435116973880212754e-05,-1.406109482049942017e-01,2.778941690921783447e-01,-7.137945652008056641e+00,1.000000000000000000e+00,-3.499402850866317749e-02,0.000000000000000000e+00
6.200885772705078125e-01,-3.208710327148437500e+02,2.495336303710937500e+02,2.495336303710937500e+02,4.329929947853088379e-01,9.193115234375000000e+00,-2.144469767808914185e-01,1.162908744812011719e+01,1.751178503036499023e+00,2.149223473679739982e-05,8.881019949913024902e-01,-9.560161232948303223e-01,-1.435116973880212754e-05,-1.406109482049942017e-01,2.778941690921783447e-01,-7.137945652008056641e+00,1.000000000000000000e+00,-3.499402850866317749e-02,0.000000000000000000e+00
6.200885772705078125e-01,-3.208710327148437500e+02,2.495336303710937500e+02,2.495336303710937500e+02,4.329929947853088379e-01,9.193115234375000000e+00,-2.144469767808914185e-01,1.162908744812011719e+01,1.751178503036499023e+00,2.149223473679739982e-05,8.881019949913024902e-01,-9.560161232948303223e-01,-1.435116973880212754e-05,-1.406109482049942017e-01,2.778941690921783447e-01,-7.137945652008056641e+00,1.000000000000000000e+00,-3.499402850866317749e-02,0.000000000000000000e+00
6.200885772705078125e-01,-3.208710327148437500e+02,2.495336303710937500e+02,2.495336303710937500e+02,4.329929947853088379e-01,9.193115234375000000e+00,-2.144469767808914185e-01,1.162908744812011719e+01,1.751178503036499023e+00,2.149223473679739982e-05,8.881019949913024902e-01,-9.560161232948303223e-01,-1.435116973880212754e-05,-1.406109482049942017e-01,2.778941690921783447e-01,-7.137945652008056641e+00,1.000000000000000000e+00,-3.499402850866317749e-02,0.000000000000000000e+00
6.200885772705078125e-01,-3.208710327148437500e+02,2.495336303710937500e+02,2.495336303710937500e+02,4.329929947853088379e-01,9.193115234375000000e+00,-2.144469767808914185e-01,1.162908744812011719e+01,1.751178503036499023e+00,2.149223473679739982e-05,8.881019949913024902e-01,-9.560161232948303223e-01,-1.435116973880212754e-05,-1.406109482049942017e-01,2.778941690921783447e-01,-7.137945652008056641e+00,1.000000000000000000e+00,-3.499402850866317749e-02,0.000000000000000000e+00
6.200885772705078125e-01,-3.208710327148437500e+02,2.495336303710937500e+02,2.495336303710937500e+02,4.329929947853088379e-01,9.193115234375000000e+00,-2.144469767808914185e-01,1.162908744812011719e+01,1.751178503036499023e+00,2.149223473679739982e-05,8.881019949913024902e-01,-9.560161232948303223e-01,-1.435116973880212754e-05,-1.406109482049942017e-01,2.778941690921783447e-01,-7.137945652008056641e+00,1.000000000000000000e+00,-3.499402850866317749e-02,0.000000000000000000e+00
7.946169376373291016e-01,-3.196996154785156250e+02,2.497086639404296875e+02,2.497086639404296875e+02,4.055151343345642090e-01,8.541374206542968750e+00,-1.965636759996414185e-01,1.180631732940673828e+01,1.661091566085815430e+00,2.015731479332316667e-05,1.015478968620300293e+00,-5.161736011505126953e-01,-7.648727660125587136e-06,-1.957995295524597168e-01,2.300582379102706909e-01,-6.291197299957275391e+00,1.000000000000000000e+00,-2.952045761048793793e-02,0.000000000000000000e+00
7.946169376373291016e-01,-3.196996154785156250e+02,2.497086639404296875e+02,2.497086639404296875e+02,4.055151343345642090e-01,8.541374206542968750e+00,-1.965636759996414185e-01,1.180631732940673828e+01,1.661091566085815430e+00,2.015731479332316667e-05,1.015478968620300293e+00,-5.161736011505126953e-01,-7.648727660125587136e-06,-1.957995295524597168e-01,2.300582379102706909e-01,-6.291197299957275391e+00,1.000000000000000000e+00,-2.952045761048793793e-02,0.000000000000000000e+00
7.946169376373291016e-01,-3.196996154785156250e+02,2.497086639404296875e+02,2.497086639404296875e+02,4.055151343345642090e-01,8.541374206542968750e+00,-1.965636759996414185e-01,1.180631732940673828e+01,1.661091566085815430e+00,2.015731479332316667e-05,1.015478968620300293e+00,-5.161736011505126953e-01,-7.648727660125587136e-06,-1.957995295524597168e-01,2.300582379102706909e-01,-6.291197299957275391e+00,1.000000000000000000e+00,-2.952045761048793793e-02,0.000000000000000000e+00
8.783230781555175781e-01,-3.185079650878906250e+02,2.498728790283203125e+02,2.498728790283203125e+02,3.826681673526763916e-01,7.878463268280029297e+00,-1.910094916820526123e-01,1.202297592163085938e+01,1.541879415512084961e+00,1.252919173566624522e-05,2.588323831558227539e+00,-1.424174547195434570e+00,-9.112979023484513164e-05,-6.185857951641082764e-02,2.022895961999893188e-01,-6.777470588684082031e+00,1.000000000000000000e+00,-3.275364637374877930e-02,0.000000000000000000e+00
8.783230781555175781e-01,-3.185079650878906250e+02,2.498728790283203125e+02,2.498728790283203125e+02,3.826681673526763916e-01,7.878463268280029297e+00,-1.910094916820526123e-01,1.202297592163085938e+01,1.541879415512084961e+00,1.252919173566624522e-05,2.588323831558227539e+00,-1.424174547195434570e+00,-9.112979023484513164e-05,-6.185857951641082764e-02,2.022895961999893188e-01,-6.777470588684082031e+00,1.000000000000000000e+00,-3.275364637374877930e-02,0.000000000000000000e+00
8.783230781555175781e-01,-3.185079650878906250e+02,2.498728790283203125e+02,2.498728790283203125e+02,3.826681673526763916e-01,7.878463268280029297e+00,-1.910094916820526123e-01,1.202297592163085938e+01,1.541879415512084961e+00,1.252919173566624522e-05,2.588323831558227539e+00,-1.424174547195434570e+00,-9.112979023484513164e-05,-6.185857951641082764e-02,2.022895961999893188e-01,-6.777470588684082031e+00,1.000000000000000000e+00,-3.275364637374877930e-02,0.000000000000000000e+00
9.483780860900878906e-01,-3.174930725097656250e+02,2.500027313232421875e+02,2.500027313232421875e+02,3.673480451107025146e-01,7.347596168518066406e+00,-1.821593940258026123e-01,1.222093391418457031e+01,1.470300078392028809e+00,1.163320212071994320e-05,2.825750827789306641e+00,-1.021759033203125000e+00,-1.278980107599636540e-05,-1.244590207934379578e-01,1.574820876121520996e-01,-6.163636207580566406e+00,1.000000000000000000e+00,-2.814382873475551605e-02,0.000000000000000000e+00
9.483780860900878906e-01,-3.174930725097656250e+02,2.500027313232421875e+02,2.500027313232421875e+02,3.673480451107025146e-01,7.347596168518066406e+00,-1.821593940258026123e-01,1.222093391418457031e+01,1.470300078392028809e+00,1.163320212071994320e-05,2.825750827789306641e+00,-1.021759033203125000e+00,-1.278980107599636540e-05,-1.244590207934379578e-01,1.574820876121520996e-01,-6.163636207580566406e+00,1.000000000000000000e+00,-2.814382873475551605e-02,0.000000000000000000e+00
9.483780860900878906e-01,-3.174930725097656250e+02,2.500027313232421875e+02,2.500027313232421875e+02,3.673480451107025146e-01,7.347596168518066406e+00,-1.821593940258026123e-01,1.222093391418457031e+01,1.470300078392028809e+00,1.163320212071994320e-05,2.825750827789306641e+00,-1.021759033203125000e+00,-1.278980107599636540e-05,-1.244590207934379578e-01,1.574820876121520996e-01,-6.163636207580566406e+00,1.000000000000000000e+00,-2.814382873475551605e-02,0.000000000000000000e+00
9.483780860900878906e-01,-3.174930725097656250e+02,2.500027313232421875e+02,2.500027313232421875e+02,3.673480451107025146e-01,7.347596168518066406e+00,-1.821593940258026123e-01,1.222093391418457031e+01,1.470300078392028809e+00,1.163320212071994320e-05,2.825750827789306641e+00,-1.021759033203125000e+00,-1.278980107599636540e-05,-1.244590207934379578e-01,1.574820876121520996e-01,-6.163636207580566406e+00,1.000000000000000000e+00,-2.814382873475551605e-02,0.000000000000000000e+00
9.483780860900878906e-01,-3.166304321289062500e+02,2.501054229736328125e+02,2.501054229736328125e+02,3.564675450325012207e-01,6.882649421691894531e+00,-1.831970214843750000e-01,1.239849948883056641e+01,1.377198457717895508e+00,8.648614311823621392e-06,2.253398418426513672e+00,-1.181507468223571777e+00,-3.787595414905808866e-05,2.420441061258316040e-02,1.486964672803878784e-01,-6.858030796051025391e+00,1.000000000000000000e+00,-3.336650878190994263e-02,0.000000000000000000e+00
1.027177095413208008e+00,-3.166304321289062500e+02,2.501054229736328125e+02,2.501054229736328125e+02,3.564675450325012207e-01,6.882649421691894531e+00,-1.831970214843750000e-01,1.239849948883056641e+01,1.377198457717895508e+00,8.648614311823621392e-06,2.253398418426513672e+00,-1.181507468223571777e+00,-3.787595414905808866e-05,2.420441061258316040e-02,1.486964672803878784e-01,-6.858030796051025391e+00,1.000000000000000000e+00,-3.336650878190994263e-02,0.000000000000000000e+00
1.027177095413208008e+00,-3.166304321289062500e+02,2.501054229736328125e+02,2.501054229736328125e+02,3.564675450325012207e-01,6.882649421691894531e+00,-1.831970214843750000e-01,1.239849948883056641e+01,1.377198457717895508e+00,8.648614311823621392e-06,2.253398418426513672e+00,-1.181507468223571777e+00,-3.787595414905808866e-05,2.420441061258316040e-02,1.486964672803878784e-01,-6.858030796051025391e+00,1.000000000000000000e+00,-3.336650878190994263e-02,0.000000000000000000e+00
1.095043420791625977e+00,-3.156450195312500000e+02,2.502140960693359375e+02,2.502140960693359375e+02,3.465432822704315186e-01,6.350722789764404297e+00,-1.826171725988388062e-01,1.259597015380859375e+01,1.290493488311767578e+00,6.073947588447481394e-06,2.909700155258178711e+00,-1.277584552764892578e+00,-3.793732321355491877e-05,-2.492263913154602051e-02,1.036872491240501404e-01,-6.719215393066406250e+00,1.000000000000000000e+00,-3.064400143921375275e-02,0.000000000000000000e+00
1.095043420791625977e+00,-3.156450195312500000e+02,2.502140960693359375e+02,2.502140960693359375e+02,3.465432822704315186e-01,6.350722789764404297e+00,-1.826171725988388062e-01,1.259597015380859375e+01,1.290493488311767578e+00,6.073947588447481394e-06,2.909700155258178711e+00,-1.277584552764892578e+00,-3.793732321355491877e-05,-2.492263913154602051e-02,1.036872491240501404e-01,-6.719215393066406250e+00,1.000000000000000000e+00,-3.064400143921375275e-02,0.000000000000000000e+00
1.095043420791625977e+00,-3.156450195312500000e+02,2.502140960693359375e+02,2.502140960693359375e+02,3.465432822704315186e-01,6.350722789764404297e+00,-1.826171725988388062e-01,1.259597015380859375e+01,1.290493488311767578e+00,6.073947588447481394e-06,2.909700155258178711e+00,-1.277584552764892578e+00,-3.793732321355491877e-05,-2.492263913154602051e-02,1.036872491240501404e-01,-6.719215393066406250e+00,1.000000000000000000e+00,-3.064400143921375275e-02,0.000000000000000000e+00
1.095043420791625977e+00,-3.156450195312500000e+02,2.502140960693359375e+02,2.502140960693359375e+02,3.465432822704315186e-01,6.350722789764404297e+00,-1.826171725988388062e-01,1.259597015380859375e+01,1.290493488311767578e+00,6.073947588447481394e-06,2.909700155258178711e+00,-1.277584552764892578e+00,-3.793732321355491877e-05,-2.492263913154602051e-02,1.036872491240501404e-01,-6.719215393066406250e+00,1.000000000000000000e+00,-3.064400143921375275e-02,0.000000000000000000e+00
1.168572425842285156e+00,-3.147845153808593750e+02,2.503023834228515625e+02,2.503023834228515625e+02,3.412703871726989746e-01,5.914032936096191406e+00,-1.790771335363388062e-01,1.275224208831787109e+01,1.221516609191894531e+00,3.690218591145821847e-06,2.125309944152832031e+00,-9.380907416343688965e-01,-3.241889135097153485e-05,-5.753502994775772095e-02,5.729716643691062927e-02,-6.313694000244140625e+00,1.000000000000000000e+00,-2.779036946594715118e-02,0.000000000000000000e+00
1.168572425842285156e+00,-3.147845153808593750e+02,2.503023834228515625e+02,2.503023834228515625e+02,3.412703871726989746e-01,5.914032936096191406e+00,-1.790771335363388062e-01,1.275224208831787109e+01,1.221516609191894531e+00,3.690218591145821847e-06,2.125309944152832031e+00,-9.380907416343688965e-01,-3.241889135097153485e-05,-5.753502994775772095e-02,5.729716643691062927e-02,-6.313694000244140625e+00,1.000000000000000000e+00,-2.779036946594715118e-02,0.000000000000000000e+00
1.168572425842285156e+00,-3.147845153808593750e+02,2.503023834228515625e+02,2.503023834228515625e+02,3.412703871726989746e-01,5.914032936096191406e+00,-1.790771335363388062e-01,1.275224208831787109e+01,1.221516609191894531e+00,3.690218591145821847e-06,2.125309944152832031e+00,-9.380907416343688965e-01,-3.241889135097153485e-05,-5.753502994775772095e-02,5.729716643691062927e-02,-6.313694000244140625e+00,1.000000000000000000e+00,-2.779036946594715118e-02,0.000000000000000000e+00
1.168572425842285156e+00,-3.147845153808593750e+02,2.503023834228515625e+02,2.503023834228515625e+02,3.412703871726989746e-01,5.914032936096191406e+00,-1.790771335363388062e-01,1.275224208831787109e+01,1.221516609191894531e+00,3.690218591145821847e-06,2.125309944152832031e+00,-9.380907416343688965e-01,-3.241889135097153485e-05,-5.753502994775772095e-02,5.729716643691062927e-02,-6.313694000244140625e+00,1.000000000000000000e+00,-2.779036946594715118e-02,0.000000000000000000e+00
1.168572425842285156e+00,-3.138406066894531250e+02,2.503911285400390625e+02,2.503911285400390625e+02,3.382719159126281738e-01,5.407925128936767578e+00,-1.845397800207138062e-01,1.291115665435791016e+01,1.107410311698913574e+00,2.193128381122733117e-07,2.117493152618408203e+00,-1.520435214042663574e+00,-4.624886787496507168e-05,9.490580856800079346e-02,3.606627881526947021e-02,-7.145990848541259766e+00,1.000000000000000000e+00,-3.372605144977569580e-02,0.000000000000000000e+00
1.243620872497558594e+00,-3.138406066894531250e+02,2.503911285400390625e+02,2.503911285400390625e+02,3.382719159126281738e-01,5.407925128936767578e+00,-1.845397800207138062e-01,1.291115665435791016e+01,1.107410311698913574e+00,2.193128381122733117e-07,2.117493152618408203e+00,-1.520435214042663574e+00,-4.624886787496507168e-05,9.490580856800079346e-02,3.606627881526947021e-02,-7.145990848541259766e+00,1.000000000000000000e+00,-3.372605144977569580e-02,0.000000000000000000e+00
1.243620872497558594e+00,-3.138406066894531250e+02,2.503911285400390625e+02,2.503911285400390625e+02,3.382719159126281738e-01,5.407925128936767578e+00,-1.845397800207138062e-01,1.291115665435791016e+01,1.107410311698913574e+00,2.193128381122733117e-07,2.117493152618408203e+00,-1.520435214042663574e+00,-4.624886787496507168e-05,9.490580856800079346e-02,3.606627881526947021e-02,-7.145990848541259766e+00,1.000000000000000000e+00,-3.372605144977569580e-02,0.000000000000000000e+00
1.243620872497558594e+00,-3.128657226562500000e+02,2.504739074707031250e+02,2.504739074707031250e+02,3.374249935150146484e-01,4.871050834655761719e+00,-1.886901706457138062e-01,1.306023883819580078e+01,1.003473877906799316e+00,-2.917805431934539229e-06,2.178860902786254883e+00,-1.519048213958740234e+00,-4.584950147545896471e-05,4.469297826290130615e-02,5.611586850136518478e-03,-7.166672229766845703e+00,1.000000000000000000e+00,-3.186075016856193542e-02,0.000000000000000000e+00
1.312042951583862305e+00,-3.128657226562500000e+02,2.504739074707031250e+02,2.504739074707031250e+02,3.374249935150146484e-01,4.871050834655761719e+00,-1.886901706457138062e-01,1.306023883819580078e+01,1.003473877906799316e+00,-2.917805431934539229e-06,2.178860902786254883e+00,-1.519048213958740234e+00,-4.584950147545896471e-05,4.469297826290130615e-02,5.611586850136518478e-03,-7.166672229766845703e+00,1.000000000000000000e+00,-3.186075016856193542e-02,0.000000000000000000e+00
1.312042951583862305e+00,-3.128657226562500000e+02,2.504739074707031250e+02,2.504739074707031250e+02,3.374249935150146484e-01,4.871050834655761719e+00,-1.886901706457138062e-01,1.306023883819580078e+01,1.003473877906799316e+00,-2.917805431934539229e-06,2.178860902786254883e+00,-1.519048213958740234e+00,-4.584950147545896471e-05,4.469297826290130615e-02,5.611586850136518478e-03,-7.166672229766845703e+00,1.000000000000000000e+00,-3.186075016856193542e-02,0.000000000000000000e+00
1.383129358291625977e+00,-3.119676818847656250e+02,2.505417480468750000e+02,2.505417480468750000e+02,3.381216526031494141e-01,4.347908020019531250e+00,-1.970214694738388062e-01,1.318596649169921875e+01,8.823190927505493164e-01,-2.460142923155217431e-06,1.768659472465515137e+00,-1.704331159591674805e+00,6.438115633500274271e-06,1.353773772716522217e-01,-6.132825743407011032e-03,-7.874848365783691406e+00,1.000000000000000000e+00,-3.626899793744087219e-02,0.000000000000000000e+00
1.383129358291625977e+00,-3.119676818847656250e+02,2.505417480468750000e+02,2.505417480468750000e+02,3.381216526031494141e-01,4.347908020019531250e+00,-1.970214694738388062e-01,1.318596649169921875e+01,8.823190927505493164e-01,-2.460142923155217431e-06,1.768659472465515137e+00,-1.704331159591674805e+00,6.438115633500274271e-06,1.353773772716522217e-01,-6.132825743407011032e-03,-7.874848365783691406e+00,1.000000000000000000e+00,-3.626899793744087219e-02,0.000000000000000000e+00
1.383129358291625977e+00,-3.119676818847656250e+02,2.505417480468750000e+02,2.505417480468750000e+02,3.381216526031494141e-01,4.347908020019531250e+00,-1.970214694738388062e-01,1.318596649169921875e+01,8.823190927505493164e-01,-2.460142923155217431e-06,1.768659472465515137e+00,-1.704331159591674805e+00,6.438115633500274271e-06,1.353773772716522217e-01,-6.132825743407011032e-03,-7.874848365783691406e+00,1.000000000000000000e+00,-3.626899793744087219e-02,0.000000000000000000e+00
1.450951814651489258e+00,-3.110267028808593750e+02,2.506041412353515625e+02,2.506041412353515625e+02,3.411747515201568604e-01,3.792065382003784180e+00,-2.026672512292861938e-01,1.327718257904052734e+01,7.680608034133911133e-01,-6.121718797658104450e-06,1.344924569129943848e+00,-1.684667468070983887e+00,-5.398766370490193367e-05,6.919948011636734009e-02,-7.274533808231353760e-02,-7.806240081787109375e+00,0.000000000000000000e+00,-3.380116075277328491e-02,1.000000000000000000e+00
1.450951814651489258e+00,-3.110267028808593750e+02,2.506041412353515625e+02,2.506041412353515625e+02,3.411747515201568604e-01,3.792065382003784180e+00,-2.026672512292861938e-01,1.327718257904052734e+01,7.680608034133911133e-01,-6.121718797658104450e-06,1.344924569129943848e+00,-1.684667468070983887e+00,-5.398766370490193367e-05,6.919948011636734009e-02,-7.274533808231353760e-02,-7.806240081787109375e+00,0.000000000000000000e+00,-3.380116075277328491e-02,1.000000000000000000e+00
1.450951814651489258e+00,-3.110267028808593750e+02,2.506041412353515625e+02,2.506041412353515625e+02,3.411747515201568604e-01,3.792065382003784180e+00,-2.026672512292861938e-01,1.327718257904052734e+01,7.680608034133911133e-01,-6.121718797658104450e-06,1.344924569129943848e+00,-1.684667468070983887e+00,-5.398766370490193367e-05,6.919948011636734009e-02,-7.274533808231353760e-02,-7.806240081787109375e+00,0.000000000000000000e+00,-3.380116075277328491e-02,1.000000000000000000e+00
1.527701377868652344e+00,-3.101282958984375000e+02,2.506550750732421875e+02,2.506550750732421875e+02,3.538242578506469727e-01,3.237205266952514648e+00,-2.106323093175888062e-01,1.321795845031738281e+01,6.306781768798828125e-01,-7.208799615909811109e-06,-7.716543078422546387e-01,-1.790011882781982422e+00,-1.416400027665076777e-05,1.364665776491165161e-01,-2.674887180328369141e-01,-8.368558883666992188e+00,0.000000000000000000e+00,-3.730598837137222290e-02,1.000000000000000000e+00
1.527701377868652344e+00,-3.101282958984375000e+02,2.506550750732421875e+02,2.506550750732421875e+02,3.538242578506469727e-01,3.237205266952514648e+00,-2.106323093175888062e-01,1.321795845031738281e+01,6.306781768798828125e-01,-7.208799615909811109e-06,-7.716543078422546387e-01,-1.790011882781982422e+00,-1.416400027665076777e-05,1.364665776491165161e-01,-2.674887180328369141e-01,-8.368558883666992188e+00,0.000000000000000000e+00,-3.730598837137222290e-02,1.000000000000000000e+00
1.527701377868652344e+00,-3.101282958984375000e+02,2.506550750732421875e+02,2.506550750732421875e+02,3.538242578506469727e-01,3.237205266952514648e+00,-2.106323093175888062e-01,1.321795845031738281e+01,6.306781768798828125e-01,-7.208799615909811109e-06,-7.716543078422546387e-01,-1.790011882781982422e+00,-1.416400027665076777e-05,1.364665776491165161e-01,-2.674887180328369141e-01,-8.368558883666992188e+00,0.000000000000000000e+00,-3.730598837137222290e-02,1.000000000000000000e+00
1.600134611129760742e+00,-3.091311645507812500e+02,2.507021026611328125e+02,2.507021026611328125e+02,3.955020904541015625e-01,2.604692935943603516e+00,-2.120361179113388062e-01,1.278060436248779297e+01,4.881928563117980957e-01,-1.757352038112003356e-05,-6.038030624389648438e+00,-1.967126369476318359e+00,-1.430934498785063624e-04,1.770866475999355316e-02,-7.501744031906127930e-01,-8.240388870239257812e+00,0.000000000000000000e+00,-3.374382108449935913e-02,1.000000000000000000e+00
1.600134611129760742e+00,-3.091311645507812500e+02,2.507021026611328125e+02,2.507021026611328125e+02,3.955020904541015625e-01,2.604692935943603516e+00,-2.120361179113388062e-01,1.278060436248779297e+01,4.881928563117980957e-01,-1.757352038112003356e-05,-6.038030624389648438e+00,-1.967126369476318359e+00,-1.430934498785063624e-04,1.770866475999355316e-02,-7.501744031906127930e-01,-8.240388870239257812e+00,0.000000000000000000e+00,-3.374382108449935913e-02,1.000000000000000000e+00
1.600134611129760742e+00,-3.091311645507812500e+02,2.507021026611328125e+02,2.507021026611328125e+02,3.955020904541015625e-01,2.604692935943603516e+00,-2.120361179113388062e-01,1.278060436248779297e+01,4.881928563117980957e-01,-1.757352038112003356e-05,-6.038030624389648438e+00,-1.967126369476318359e+00,-1.430934498785063624e-04,1.770866475999355316e-02,-7.501744031906127930e-01,-8.240388870239257812e+00,0.000000000000000000e+00,-3.374382108449935913e-02,1.000000000000000000e+00
1.600134611129760742e+00,-3.091311645507812500e+02,2.507021026611328125e+02,2.507021026611328125e+02,3.955020904541015625e-01,2.604692935943603516e+00,-2.120361179113388062e-01,1.278060436248779297e+01,4.881928563117980957e-01,-1.757352038112003356e-05,-6.038030624389648438e+00,-1.967126369476318359e+00,-1.430934498785063624e-04,1.770866475999355316e-02,-7.501744031906127930e-01,-8.240388870239257812e+00,0.000000000000000000e+00,-3.374382108449935913e-02,1.000000000000000000e+00
1.600134611129760742e+00,-3.091311645507812500e+02,2.507021026611328125e+02,2.507021026611328125e+02,3.955020904541015625e-01,2.604692935943603516e+00,-2.120361179113388062e-01,1.278060436248779297e+01,4.881928563117980957e-01,-1.757352038112003356e-05,-6.038030624389648438e+00,-1.967126369476318359e+00,-1.430934498785063624e-04,1.770866475999355316e-02,-7.501744031906127930e-01,-8.240388870239257812e+00,0.000000000000000000e+00,-3.374382108449935913e-02,1.000000000000000000e+00
1.600134611129760742e+00,-3.082255249023437500e+02,2.507365722656250000e+02,2.507365722656250000e+02,4.435388147830963135e-01,2.047737598419189453e+00,-2.090453803539276123e-01,1.238283634185791016e+01,3.645364940166473389e-01,-2.845351991709321737e-05,-3.447494745254516602e+00,-1.071741938591003418e+00,-9.429803321836516261e-05,4.755791742354631424e-03,-4.951504170894622803e-01,-7.335452079772949219e+00,1.000000000000000000e+00,-2.966263704001903534e-02,0.000000000000000000e+00
1.715513467788696289e+00,-3.082255249023437500e+02,2.507365722656250000e+02,2.507365722656250000e+02,4.435388147830963135e-01,2.047737598419189453e+00,-2.090453803539276123e-01,1.238283634185791016e+01,3.645364940166473389e-01,-2.845351991709321737e-05,-3.447494745254516602e+00,-1.071741938591003418e+00,-9.429803321836516261e-05,4.755791742354631424e-03,-4.951504170894622803e-01,-7.335452079772949219e+00,1.000000000000000000e+00,-2.966263704001903534e-02,0.000000000000000000e+00
1.715513467788696289e+00,-3.082255249023437500e+02,2.507365722656250000e+02,2.507365722656250000e+02,4.435388147830963135e-01,2.047737598419189453e+00,-2.090453803539276123e-01,1.238283634185791016e+01,3.645364940166473389e-01,-2.845351991709321737e-05,-3.447494745254516602e+00,-1.071741938591003418e+00,-9.429803321836516261e-05,4.755791742354631424e-03,-4.951504170894622803e-01,-7.335452079772949219e+00,1.000000000000000000e+00,-2.966263704001903534e-02,0.000000000000000000e+00
1.715513467788696289e+00,-3.069927368164062500e+02,2.507689666748046875e+02,2.507689666748046875e+02,4.519672393798828125e-01,1.370064377784729004e+00,-2.086792141199111938e-01,1.232672786712646484e+01,2.038459479808807373e-01,-1.230034831678494811e-05,-5.748721957206726074e-01,-1.646391749382019043e+00,1.655010128160938621e-04,-2.707739546895027161e-02,9.903236478567123413e-02,-6.535963058471679688e+00,1.000000000000000000e+00,-2.921626903116703033e-02,0.000000000000000000e+00
1.813115119934082031e+00,-3.069927368164062500e+02,2.507689666748046875e+02,2.507689666748046875e+02,4.519672393798828125e-01,1.370064377784729004e+00,-2.086792141199111938e-01,1.232672786712646484e+01,2.038459479808807373e-01,-1.230034831678494811e-05,-5.748721957206726074e-01,-1.646391749382019043e+00,1.655010128160938621e-04,-2.707739546895027161e-02,9.903236478567123413e-02,-6.535963058471679688e+00,1.000000000000000000e+00,-2.921626903116703033e-02,0.000000000000000000e+00
1.813115119934082031e+00,-3.069927368164062500e+02,2.507689666748046875e+02,2.507689666748046875e+02,4.519672393798828125e-01,1.370064377784729004e+00,-2.086792141199111938e-01,1.232672786712646484e+01,2.038459479808807373e-01,-1.230034831678494811e-05,-5.748721957206726074e-01,-1.646391749382019043e+00,1.655010128160938621e-04,-2.707739546895027161e-02,9.903236478567123413e-02,-6.535963058471679688e+00,1.000000000000000000e+00,-2.921626903116703033e-02,0.000000000000000000e+00
1.813115119934082031e+00,-3.069927368164062500e+02,2.507689666748046875e+02,2.507689666748046875e+02,4.519672393798828125e-01,1.370064377784729004e+00,-2.086792141199111938e-01,1.232672786712646484e+01,2.038459479808807373e-01,-1.230034831678494811e-05,-5.748721957206726074e-01,-1.646391749382019043e+00,1.655010128160938621e-04,-2.707739546895027161e-02,9.903236478567123413e-02,-6.535963058471679688e+00,1.000000000000000000e+00,-2.921626903116703033e-02,0.000000000000000000e+00
1.896134853363037109e+00,-3.057912902832031250e+02,2.507870330810546875e+02,2.507870330810546875e+02,4.386278986930847168e-01,8.010720610618591309e-01,-1.946105509996414185e-01,1.230855083465576172e+01,9.061639755964279175e-02,6.102522547735134140e-06,-2.189483344554901123e-01,-1.363887190818786621e+00,2.216686261817812920e-04,-1.563158333301544189e-01,1.352940499782562256e-01,-5.546292781829833984e+00,1.000000000000000000e+00,-2.442333102226257324e-02,0.000000000000000000e+00
1.896134853363037109e+00,-3.057912902832031250e+02,2.507870330810546875e+02,2.507870330810546875e+02,4.386278986930847168e-01,8.010720610618591309e-01,-1.946105509996414185e-01,1.230855083465576172e+01,9.061639755964279175e-02,6.102522547735134140e-06,-2.189483344554901123e-01,-1.363887190818786621e+00,2.216686261817812920e-04,-1.563158333301544189e-01,1.352940499782562256e-01,-5.546292781829833984e+00,1.000000000000000000e+00,-2.442333102226257324e-02,0.000000000000000000e+00
1.896134853363037109e+00,-3.057912902832031250e+02,2.507870330810546875e+02,2.507870330810546875e+02,4.386278986930847168e-01,8.010720610618591309e-01,-1.946105509996414185e-01,1.230855083465576172e+01,9.061639755964279175e-02,6.102522547735134140e-06,-2.189483344554901123e-01,-1.363887190818786621e+00,2.216686261817812920e-04,-1.563158333301544189e-01,1.352940499782562256e-01,-5.546292781829833984e+00,1.000000000000000000e+00,-2.442333102226257324e-02,0.000000000000000000e+00
1.896134853363037109e+00,-3.057912902832031250e+02,2.507870330810546875e+02,2.507870330810546875e+02,4.386278986930847168e-01,8.010720610618591309e-01,-1.946105509996414185e-01,1.230855083465576172e+01,9.061639755964279175e-02,6.102522547735134140e-06,-2.189483344554901123e-01,-1.363887190818786621e+00,2.216686261817812920e-04,-1.563158333301544189e-01,1.352940499782562256e-01,-5.546292781829833984e+00,1.000000000000000000e+00,-2.442333102226257324e-02,0.000000000000000000e+00
1.896134853363037109e+00,-3.057912902832031250e+02,2.507870330810546875e+02,2.507870330810546875e+02,4.386278986930847168e-01,8.010720610618591309e-01,-1.946105509996414185e-01,1.230855083465576172e+01,9.061639755964279175e-02,6.102522547735134140e-06,-2.189483344554901123e-01,-1.363887190818786621e+00,2.216686261817812920e-04,-1.563158333301544189e-01,1.352940499782562256e-01,-5.546292781829833984e+00,1.000000000000000000e+00,-2.442333102226257324e-02,0.000000000000000000e+00
1.896134853363037109e+00,-3.057912902832031250e+02,2.507870330810546875e+02,2.507870330810546875e+02,4.386278986930847168e-01,8.010720610618591309e-01,-1.946105509996414185e-01,1.230855083465576172e+01,9.061639755964279175e-02,6.102522547735134140e-06,-2.189483344554901123e-01,-1.363887190818786621e+00,2.216686261817812920e-04,-1.563158333301544189e-01,1.352940499782562256e-01,-5.546292781829833984e+00,1.000000000000000000e+00,-2.442333102226257324e-02,0.000000000000000000e+00
1.896134853363037109e+00,-3.057912902832031250e+02,2.507870330810546875e+02,2.507870330810546875e+02,4.386278986930847168e-01,8.010720610618591309e-01,-1.946105509996414185e-01,1.230855083465576172e+01,9.061639755964279175e-02,6.102522547735134140e-06,-2.189483344554901123e-01,-1.363887190818786621e+00,2.216686261817812920e-04,-1.563158333301544189e-01,1.352940499782562256e-01,-5.546292781829833984e+00,1.000000000000000000e+00,-2.442333102226257324e-02,0.000000000000000000e+00
1.896134853363037109e+00,-3.057912902832031250e+02,2.507870330810546875e+02,2.507870330810546875e+02,4.386278986930847168e-01,8.010720610618591309e-01,-1.946105509996414185e-01,1.230855083465576172e+01,9.061639755964279175e-02,6.102522547735134140e-06,-2.189483344554901123e-01,-1.363887190818786621e+00,2.216686261817812920e-04,-1.563158333301544189e-01,1.352940499782562256e-01,-5.546292781829833984e+00,1.000000000000000000e+00,-2.442333102226257324e-02,0.000000000000000000e+00
2.195794820785522461e+00,-3.024543762207031250e+02,2.507983398437500000e+02,2.507983398437500000e+02,3.942316770553588867e-01,-4.272461403161287308e-03,-1.055297851562500000e-01,1.256920051574707031e+01,8.443038677796721458e-05,1.775482087396085262e-05,5.575790405273437500e+00,3.628058135509490967e-01,1.570386375533416867e-04,-4.085708558559417725e-01,4.176604151725769043e-01,-4.067719578742980957e-01,1.000000000000000000e+00,0.000000000000000000e+00,0.000000000000000000e+00
2.195794820785522461e+00,-3.024543762207031250e+02,2.507983398437500000e+02,2.507983398437500000e+02,3.942316770553588867e-01,-4.272461403161287308e-03,-1.055297851562500000e-01,1.256920051574707031e+01,8.443038677796721458e-05,1.775482087396085262e-05,5.575790405273437500e+00,3.628058135509490967e-01,1.570386375533416867e-04,-4.085708558559417725e-01,4.176604151725769043e-01,-4.067719578742980957e-01,1.000000000000000000e+00,0.000000000000000000e+00,0.000000000000000000e+00
2.195794820785522461e+00,-3.024543762207031250e+02,2.507983398437500000e+02,2.507983398437500000e+02,3.942316770553588867e-01,-4.272461403161287308e-03,-1.055297851562500000e-01,1.256920051574707031e+01,8.443038677796721458e-05,1.775482087396085262e-05,5.575790405273437500e+00,3.628058135509490967e-01,1.570386375533416867e-04,-4.085708558559417725e-01,4.176604151725769043e-01,-4.067719578742980957e-01,1.000000000000000000e+00,0.000000000000000000e+00,0.000000000000000000e+00
2.195794820785522461e+00,-3.024543762207031250e+02,2.507983398437500000e+02,2.507983398437500000e+02,3.942316770553588867e-01,-4.272461403161287308e-03,-1.055297851562500000e-01,1.256920051574707031e+01,8.443038677796721458e-05,1.775482087396085262e-05,5.575790405273437500e+00,3.628058135509490967e-01,1.570386375533416867e-04,-4.085708558559417725e-01,4.176604151725769043e-01,-4.067719578742980957e-01,1.000000000000000000e+00,0.000000000000000000e+00,0.000000000000000000e+00
2.195794820785522461e+00,-3.024543762207031250e+02,2.507983398437500000e+02,2.507983398437500000e+02,3.942316770553588867e-01,-4.272461403161287308e-03,-1.055297851562500000e-01,1.256920051574707031e+01,8.443038677796721458e-05,1.775482087396085262e-05,5.575790405273437500e+00,3.628058135509490967e-01,1.570386375533416867e-04,-4.085708558559417725e-01,4.176604151725769043e-01,-4.067719578742980957e-01,1.000000000000000000e+00,0.000000000000000000e+00,0.000000000000000000e+00
2.195794820785522461e+00,-3.024543762207031250e+02,2.507983398437500000e+02,2.507983398437500000e+02,3.942316770553588867e-01,-4.272461403161287308e-03,-1.055297851562500000e-01,1.256920051574707031e+01,8.443038677796721458e-05,1.775482087396085262e-05,5.575790405273437500e+00,3.628058135509490967e-01,1.570386375533416867e-04,-4.085708558559417725e-01,4.176604151725769043e-01,-4.067719578742980957e-01,1.000000000000000000e+00,0.000000000000000000e+00,0.000000000000000000e+00
2.195794820785522461e+00,-3.024543762207031250e+02,2.507983398437500000e+02,2.507983398437500000e+02,3.942316770553588867e-01,-4.272461403161287308e-03,-1.055297851562500000e-01,1.256920051574707031e+01,8.443038677796721458e-05,1.775482087396085262e-05,5.575790405273437500e+00,3.628058135509490967e-01,1.570386375533416867e-04,-4.085708558559417725e-01,4.176604151725769043e-01,-4.067719578742980957e-01,1.000000000000000000e+00,0.000000000000000000e+00,0.000000000000000000e+00
2.195794820785522461e+00,-3.024543762207031250e+02,2.507983398437500000e+02,2.507983398437500000e+02,3.942316770553588867e-01,-4.272461403161287308e-03,-1.055297851562500000e-01,1.256920051574707031e+01,8.443038677796721458e-05,1.775482087396085262e-05,5.575790405273437500e+00,3.628058135509490967e-01,1.570386375533416867e-04,-4.085708558559417725e-01,4.176604151725769043e-01,-4.067719578742980957e-01,1.000000000000000000e+00,0.000000000000000000e+00,0.000000000000000000e+00
2.195794820785522461e+00,-3.024543762207031250e+02,2.507983398437500000e+02,2.507983398437500000e+02,3.942316770553588867e-01,-4.272461403161287308e-03,-1.055297851562500000e-01,1.256920051574707031e+01,8.443038677796721458e-05,1.775482087396085262e-05,5.575790405273437500e+00,3.628058135509490967e-01,1.570386375533416867e-04,-4.085708558559417725e-01,4.176604151725769043e-01,-4.067719578742980957e-01,1.000000000000000000e+00,0.000000000000000000e+00,0.000000000000000000e+00
2.195794820785522461e+00,-3.024543762207031250e+02,2.507983398437500000e+02,2.507983398437500000e+02,3.942316770553588867e-01,-4.272461403161287308e-03,-1.055297851562500000e-01,1.256920051574707031e+01,8.443038677796721458e-05,1.775482087396085262e-05,5.575790405273437500e+00,3.628058135509490967e-01,1.570386375533416867e-04,-4.085708558559417725e-01,4.176604151725769043e-01,-4.067719578742980957e-01,1.000000000000000000e+00,0.000000000000000000e+00,0.000000000000000000e+00
2.374083757400512695e+00,-3.017805175781250000e+02,2.507980041503906250e+02,2.507980041503906250e+02,3.727302253246307373e-01,-2.423095889389514923e-02,-8.996580541133880615e-02,1.277593708038330078e+01,-1.253614388406276703e-02,2.019614112214185297e-05,1.159559130668640137e+00,-7.078719139099121094e-02,1.369305482512572780e-05,-2.565739750862121582e-01,3.940173983573913574e-01,-3.657929301261901855e-01,1.000000000000000000e+00,-3.241549944505095482e-03,0.000000000000000000e+00
2.374083757400512695e+00,-3.017805175781250000e+02,2.507980041503906250e+02,2.507980041503906250e+02,3.727302253246307373e-01,-2.423095889389514923e-02,-8.996580541133880615e-02,1.277593708038330078e+01,-1.253614388406276703e-02,2.019614112214185297e-05,1.159559130668640137e+00,-7.078719139099121094e-02,1.369305482512572780e-05,-2.565739750862121582e-01,3.940173983573913574e-01,-3.657929301261901855e-01,1.000000000000000000e+00,-3.241549944505095482e-03,0.000000000000000000e+00
2.374083757400512695e+00,-3.017805175781250000e+02,2.507980041503906250e+02,2.507980041503906250e+02,3.727302253246307373e-01,-2.423095889389514923e-02,-8.996580541133880615e-02,1.277593708038330078e+01,-1.253614388406276703e-02,2.019614112214185297e-05,1.159559130668640137e+00,-7.078719139099121094e-02,1.369305482512572780e-05,-2.565739750862121582e-01,3.940173983573913574e-01,-3.657929301261901855e-01,1.000000000000000000e+00,-3.241549944505095482e-03,0.000000000000000000e+00
2.447860002517700195e+00,-3.004813537597656250e+02,2.507962188720703125e+02,2.507962188720703125e+02,3.394740521907806396e-01,-4.931639879941940308e-02,-6.658934801816940308e-02,1.314416980743408203e+01,-2.290067821741104126e-02,1.636232263990677893e-05,4.991209983825683594e+00,-1.404860615730285645e-01,-5.196548590902239084e-05,-2.022424638271331787e-01,2.671405076980590820e-01,-2.104059904813766479e-01,1.000000000000000000e+00,-2.453495049849152565e-03,0.000000000000000000e+00
2.447860002517700195e+00,-3.004813537597656250e+02,2.507962188720703125e+02,2.507962188720703125e+02,3.394740521907806396e-01,-4.931639879941940308e-02,-6.658934801816940308e-02,1.314416980743408203e+01,-2.290067821741104126e-02,1.636232263990677893e-05,4.991209983825683594e+00,-1.404860615730285645e-01,-5.196548590902239084e-05,-2.022424638271331787e-01,2.671405076980590820e-01,-2.104059904813766479e-01,1.000000000000000000e+00,-2.453495049849152565e-03,0.000000000000000000e+00
2.500878810882568359e+00,-2.995001831054687500e+02,2.507943115234375000e+02,2.507943115234375000e+02,3.242222368717193604e-01,-6.597899645566940308e-02,-5.429076775908470154e-02,1.340173816680908203e+01,-2.977764047682285309e-02,1.163310935226036236e-05,4.858056068420410156e+00,-1.297079771757125854e-01,-8.919878018787130713e-05,-1.525254994630813599e-01,1.777516454458236694e-01,-2.367404997348785400e-01,1.000000000000000000e+00,-2.698710653930902481e-03,0.000000000000000000e+00
2.500878810882568359e+00,-2.995001831054687500e+02,2.507943115234375000e+02,2.507943115234375000e+02,3.242222368717193604e-01,-6.597899645566940308e-02,-5.429076775908470154e-02,1.340173816680908203e+01,-2.977764047682285309e-02,1.163310935226036236e-05,4.858056068420410156e+00,-1.297079771757125854e-01,-8.919878018787130713e-05,-1.525254994630813599e-01,1.777516454458236694e-01,-2.367404997348785400e-01,1.000000000000000000e+00,-2.698710653930902481e-03,0.000000000000000000e+00
2.560195446014404297e+00,-2.987836914062500000e+02,2.507927703857421875e+02,2.507927703857421875e+02,3.164972960948944092e-01,-7.470700889825820923e-02,-4.638671875000000000e-02,1.358123302459716797e+01,-3.046629764139652252e-02,9.735724233905784786e-06,3.026045799255371094e+00,-1.160984858870506287e-02,-3.198740159859880805e-05,-1.447118073701858521e-01,1.317044198513031006e-01,-1.339130848646163940e-01,1.000000000000000000e+00,-1.823514234274625778e-03,0.000000000000000000e+00
2.560195446014404297e+00,-2.987836914062500000e+02,2.507927703857421875e+02,2.507927703857421875e+02,3.164972960948944092e-01,-7.470700889825820923e-02,-4.638671875000000000e-02,1.358123302459716797e+01,-3.046629764139652252e-02,9.735724233905784786e-06,3.026045799255371094e+00,-1.160984858870506287e-02,-3.198740159859880805e-05,-1.447118073701858521e-01,1.317044198513031006e-01,-1.339130848646163940e-01,1.000000000000000000e+00,-1.823514234274625778e-03,0.000000000000000000e+00
2.560195446014404297e+00,-2.987836914062500000e+02,2.507927703857421875e+02,2.507927703857421875e+02,3.164972960948944092e-01,-7.470700889825820923e-02,-4.638671875000000000e-02,1.358123302459716797e+01,-3.046629764139652252e-02,9.735724233905784786e-06,3.026045799255371094e+00,-1.160984858870506287e-02,-3.198740159859880805e-05,-1.447118073701858521e-01,1.317044198513031006e-01,-1.339130848646163940e-01,1.000000000000000000e+00,-1.823514234274625778e-03,0.000000000000000000e+00
2.618730545043945312e+00,-2.979715270996093750e+02,2.507909545898437500e+02,2.507909545898437500e+02,3.112926781177520752e-01,-8.187865465879440308e-02,-3.860472887754440308e-02,1.374809074401855469e+01,-3.216031566262245178e-02,7.141961305023869500e-06,2.850558280944824219e+00,-2.894020825624465942e-02,-4.431124034454114735e-05,-1.185026541352272034e-01,4.083731770515441895e-02,-1.328057050704956055e-01,0.000000000000000000e+00,-1.870311331003904343e-03,1.000000000000000000e+00
2.618730545043945312e+00,-2.979715270996093750e+02,2.507909545898437500e+02,2.507909545898437500e+02,3.112926781177520752e-01,-8.187865465879440308e-02,-3.860472887754440308e-02,1.374809074401855469e+01,-3.216031566262245178e-02,7.141961305023869500e-06,2.850558280944824219e+00,-2.894020825624465942e-02,-4.431124034454114735e-05,-1.185026541352272034e-01,4.083731770515441895e-02,-1.328057050704956055e-01,0.000000000000000000e+00,-1.870311331003904343e-03,1.000000000000000000e+00
2.677334070205688477e+00,-2.971650390625000000e+02,2.507890319824218750e+02,2.507890319824218750e+02,3.171325027942657471e-01,-9.619140625000000000e-02,-3.302001580595970154e-02,1.377152633666992188e+01,-3.496951609849929810e-02,1.649615114729385823e-06,3.999007344245910645e-01,-4.793569073081016541e-02,-9.372040949529036880e-05,-8.425195515155792236e-02,-2.021741867065429688e-01,-3.298264741897583008e-01,0.000000000000000000e+00,-2.101220889016985893e-03,1.000000000000000000e+00
2.677334070205688477e+00,-2.971650390625000000e+02,2.507890319824218750e+02,2.507890319824218750e+02,3.171325027942657471e-01,-9.619140625000000000e-02,-3.302001580595970154e-02,1.377152633666992188e+01,-3.496951609849929810e-02,1.649615114729385823e-06,3.999007344245910645e-01,-4.793569073081016541e-02,-9.372040949529036880e-05,-8.425195515155792236e-02,-2.021741867065429688e-01,-3.298264741897583008e-01,0.000000000000000000e+00,-2.101220889016985893e-03,1.000000000000000000e+00
2.677334070205688477e+00,-2.971650390625000000e+02,2.507890319824218750e+02,2.507890319824218750e+02,3.171325027942657471e-01,-9.619140625000000000e-02,-3.302001580595970154e-02,1.377152633666992188e+01,-3.496951609849929810e-02,1.649615114729385823e-06,3.999007344245910645e-01,-4.793569073081016541e-02,-9.372040949529036880e-05,-8.425195515155792236e-02,-2.021741867065429688e-01,-3.298264741897583008e-01,0.000000000000000000e+00,-2.101220889016985893e-03,1.000000000000000000e+00
2.677334070205688477e+00,-2.963631896972656250e+02,2.507872009277343750e+02,2.507872009277343750e+02,3.399521708488464355e-01,-1.198425069451332092e-01,-2.825927175581455231e-02,1.360587692260742188e+01,-3.405188024044036865e-02,-7.313610240089474246e-06,-2.132161378860473633e+00,1.181137841194868088e-02,-1.153704215539619327e-04,-7.211009413003921509e-02,-4.957993030548095703e-01,-4.684259891510009766e-01,0.000000000000000000e+00,-1.087063341401517391e-03,1.000000000000000000e+00
2.755024909973144531e+00,-2.963631896972656250e+02,2.507872009277343750e+02,2.507872009277343750e+02,3.399521708488464355e-01,-1.198425069451332092e-01,-2.825927175581455231e-02,1.360587692260742188e+01,-3.405188024044036865e-02,-7.313610240089474246e-06,-2.132161378860473633e+00,1.181137841194868088e-02,-1.153704215539619327e-04,-7.211009413003921509e-02,-4.957993030548095703e-01,-4.684259891510009766e-01,0.000000000000000000e+00,-1.087063341401517391e-03,1.000000000000000000e+00
2.755024909973144531e+00,-2.963631896972656250e+02,2.507872009277343750e+02,2.507872009277343750e+02,3.399521708488464355e-01,-1.198425069451332092e-01,-2.825927175581455231e-02,1.360587692260742188e+01,-3.405188024044036865e-02,-7.313610240089474246e-06,-2.132161378860473633e+00,1.181137841194868088e-02,-1.153704215539619327e-04,-7.211009413003921509e-02,-4.957993030548095703e-01,-4.684259891510009766e-01,0.000000000000000000e+00,-1.087063341401517391e-03,1.000000000000000000e+00
2.755024909973144531e+00,-2.963631896972656250e+02,2.507872009277343750e+02,2.507872009277343750e+02,3.399521708488464355e-01,-1.198425069451332092e-01,-2.825927175581455231e-02,1.360587692260742188e+01,-3.405188024044036865e-02,-7.313610240089474246e-06,-2.132161378860473633e+00,1.181137841194868088e-02,-1.153704215539619327e-04,-7.211009413003921509e-02,-4.957993030548095703e-01,-4.684259891510009766e-01,0.000000000000000000e+00,-1.087063341401517391e-03,1.000000000000000000e+00
2.830169916152954102e+00,-2.953239440917968750e+02,2.507848815917968750e+02,2.507848815917968750e+02,3.890885412693023682e-01,-1.647644042968750000e-01,-2.468871884047985077e-02,1.320327949523925781e+01,-3.565677627921104431e-02,-2.079640398733317852e-05,-5.357606887817382812e+00,-2.135732024908065796e-02,-1.794236741261556745e-04,-2.642170339822769165e-02,-6.797416210174560547e-01,-6.526573896408081055e-01,0.000000000000000000e+00,-7.230638293549418449e-04,1.000000000000000000e+00
2.830169916152954102e+00,-2.953239440917968750e+02,2.507848815917968750e+02,2.507848815917968750e+02,3.890885412693023682e-01,-1.647644042968750000e-01,-2.468871884047985077e-02,1.320327949523925781e+01,-3.565677627921104431e-02,-2.079640398733317852e-05,-5.357606887817382812e+00,-2.135732024908065796e-02,-1.794236741261556745e-04,-2.642170339822769165e-02,-6.797416210174560547e-01,-6.526573896408081055e-01,0.000000000000000000e+00,-7.230638293549418449e-04,1.000000000000000000e+00
2.830169916152954102e+00,-2.953239440917968750e+02,2.507848815917968750e+02,2.507848815917968750e+02,3.890885412693023682e-01,-1.647644042968750000e-01,-2.468871884047985077e-02,1.320327949523925781e+01,-3.565677627921104431e-02,-2.079640398733317852e-05,-5.357606887817382812e+00,-2.135732024908065796e-02,-1.794236741261556745e-04,-2.642170339822769165e-02,-6.797416210174560547e-01,-6.526573896408081055e-01,0.000000000000000000e+00,-7.230638293549418449e-04,1.000000000000000000e+00
2.830169916152954102e+00,-2.953239440917968750e+02,2.507848815917968750e+02,2.507848815917968750e+02,3.890885412693023682e-01,-1.647644042968750000e-01,-2.468871884047985077e-02,1.320327949523925781e+01,-3.565677627921104431e-02,-2.079640398733317852e-05,-5.357606887817382812e+00,-2.135732024908065796e-02,-1.794236741261556745e-04,-2.642170339822769165e-02,-6.797416210174560547e-01,-6.526573896408081055e-01,0.000000000000000000e+00,-7.230638293549418449e-04,1.000000000000000000e+00
2.830169916152954102e+00,-2.953239440917968750e+02,2.507848815917968750e+02,2.507848815917968750e+02,3.890885412693023682e-01,-1.647644042968750000e-01,-2.468871884047985077e-02,1.320327949523925781e+01,-3.565677627921104431e-02,-2.079640398733317852e-05,-5.357606887817382812e+00,-2.135732024908065796e-02,-1.794236741261556745e-04,-2.642170339822769165e-02,-6.797416210174560547e-01,-6.526573896408081055e-01,0.000000000000000000e+00,-7.230638293549418449e-04,1.000000000000000000e+00
2.917726278305053711e+00,-2.943508605957031250e+02,2.507825469970703125e+02,2.507825469970703125e+02,4.356840848922729492e-01,-2.073364406824111938e-01,-2.310180664062500000e-02,1.279777431488037109e+01,-3.577998653054237366e-02,-2.876803046092391014e-05,-4.631361484527587891e+00,-1.407210715115070343e-03,-9.104565106099471450e-05,-1.164678391069173813e-02,-5.273741483688354492e-01,-4.951842725276947021e-01,1.000000000000000000e+00,5.811955197714269161e-04,0.000000000000000000e+00
