# Time,X,Y,Z,Roll,Pitch,Yaw,Vx,Vy,Vz,Ax,Ay,Az,Wx,Wy,Wz,Throttle,Steer,Brake
0.000000000000000000e+00,1.781885147094726562e+01,4.002522583007812500e+02,4.002522583007812500e+02,1.153618842363357544e-02,-6.665778350830078125e+01,3.325454890727996826e-01,1.853562831878662109e+00,-5.470849514007568359e+00,3.817971810349263251e-05,2.361859679222106934e-01,-2.210692882537841797e+00,4.176693983026780188e-05,-7.194773554801940918e-01,-4.954759180545806885e-01,-1.452088069915771484e+01,1.000000000000000000e+00,-1.108108535408973694e-01,0.000000000000000000e+00
1.045818328857421875e-01,1.781885147094726562e+01,4.002522583007812500e+02,4.002522583007812500e+02,1.153618842363357544e-02,-6.665778350830078125e+01,3.325454890727996826e-01,1.853562831878662109e+00,-5.470849514007568359e+00,3.817971810349263251e-05,2.361859679222106934e-01,-2.210692882537841797e+00,4.176693983026780188e-05,-7.194773554801940918e-01,-4.954759180545806885e-01,-1.452088069915771484e+01,1.000000000000000000e+00,-1.108108535408973694e-01,0.000000000000000000e+00
1.045818328857421875e-01,1.781885147094726562e+01,4.002522583007812500e+02,4.002522583007812500e+02,1.153618842363357544e-02,-6.665778350830078125e+01,3.325454890727996826e-01,1.853562831878662109e+00,-5.470849514007568359e+00,3.817971810349263251e-05,2.361859679222106934e-01,-2.210692882537841797e+00,4.176693983026780188e-05,-7.194773554801940918e-01,-4.954759180545806885e-01,-1.452088069915771484e+01,1.000000000000000000e+00,-1.108108535408973694e-01,0.000000000000000000e+00
1.045818328857421875e-01,1.781885147094726562e+01,4.002522583007812500e+02,4.002522583007812500e+02,1.153618842363357544e-02,-6.665778350830078125e+01,3.325454890727996826e-01,1.853562831878662109e+00,-5.470849514007568359e+00,3.817971810349263251e-05,2.361859679222106934e-01,-2.210692882537841797e+00,4.176693983026780188e-05,-7.194773554801940918e-01,-4.954759180545806885e-01,-1.452088069915771484e+01,1.000000000000000000e+00,-1.108108535408973694e-01,0.000000000000000000e+00
1.045818328857421875e-01,1.781885147094726562e+01,4.002522583007812500e+02,4.002522583007812500e+02,1.153618842363357544e-02,-6.665778350830078125e+01,3.325454890727996826e-01,1.853562831878662109e+00,-5.470849514007568359e+00,3.817971810349263251e-05,2.361859679222106934e-01,-2.210692882537841797e+00,4.176693983026780188e-05,-7.194773554801940918e-01,-4.954759180545806885e-01,-1.452088069915771484e+01,1.000000000000000000e+00,-1.108108535408973694e-01,0.000000000000000000e+00
1.045818328857421875e-01,1.781885147094726562e+01,4.002522583007812500e+02,4.002522583007812500e+02,1.153618842363357544e-02,-6.665778350830078125e+01,3.325454890727996826e-01,1.853562831878662109e+00,-5.470849514007568359e+00,3.817971810349263251e-05,2.361859679222106934e-01,-2.210692882537841797e+00,4.176693983026780188e-05,-7.194773554801940918e-01,-4.954759180545806885e-01,-1.452088069915771484e+01,1.000000000000000000e+00,-1.108108535408973694e-01,0.000000000000000000e+00
1.045818328857421875e-01,1.802136993408203125e+01,3.996936950683593750e+02,3.996936950683593750e+02,1.093171685934066772e-01,-6.799372100830078125e+01,2.949095964431762695e-01,1.864597439765930176e+00,-5.719414710998535156e+00,1.632418388908263296e-05,1.053836569190025330e-01,-2.373868465423583984e+00,-2.087265893351286650e-04,-6.104170083999633789e-01,-3.054466247558593750e-01,-1.316658782958984375e+01,5.000000000000000000e-01,-9.610229730606079102e-02,0.000000000000000000e+00
2.092907428741455078e-01,1.802136993408203125e+01,3.996936950683593750e+02,3.996936950683593750e+02,1.093171685934066772e-01,-6.799372100830078125e+01,2.949095964431762695e-01,1.864597439765930176e+00,-5.719414710998535156e+00,1.632418388908263296e-05,1.053836569190025330e-01,-2.373868465423583984e+00,-2.087265893351286650e-04,-6.104170083999633789e-01,-3.054466247558593750e-01,-1.316658782958984375e+01,5.000000000000000000e-01,-9.610229730606079102e-02,0.000000000000000000e+00
2.092907428741455078e-01,1.802136993408203125e+01,3.996936950683593750e+02,3.996936950683593750e+02,1.093171685934066772e-01,-6.799372100830078125e+01,2.949095964431762695e-01,1.864597439765930176e+00,-5.719414710998535156e+00,1.632418388908263296e-05,1.053836569190025330e-01,-2.373868465423583984e+00,-2.087265893351286650e-04,-6.104170083999633789e-01,-3.054466247558593750e-01,-1.316658782958984375e+01,5.000000000000000000e-01,-9.610229730606079102e-02,0.000000000000000000e+00
2.092907428741455078e-01,1.802136993408203125e+01,3.996936950683593750e+02,3.996936950683593750e+02,1.093171685934066772e-01,-6.799372100830078125e+01,2.949095964431762695e-01,1.864597439765930176e+00,-5.719414710998535156e+00,1.632418388908263296e-05,1.053836569190025330e-01,-2.373868465423583984e+00,-2.087265893351286650e-04,-6.104170083999633789e-01,-3.054466247558593750e-01,-1.316658782958984375e+01,5.000000000000000000e-01,-9.610229730606079102e-02,0.000000000000000000e+00
2.092907428741455078e-01,1.802136993408203125e+01,3.996936950683593750e+02,3.996936950683593750e+02,1.093171685934066772e-01,-6.799372100830078125e+01,2.949095964431762695e-01,1.864597439765930176e+00,-5.719414710998535156e+00,1.632418388908263296e-05,1.053836569190025330e-01,-2.373868465423583984e+00,-2.087265893351286650e-04,-6.104170083999633789e-01,-3.054466247558593750e-01,-1.316658782958984375e+01,5.000000000000000000e-01,-9.610229730606079102e-02,0.000000000000000000e+00
2.092907428741455078e-01,1.820367813110351562e+01,3.991101074218750000e+02,3.991101074218750000e+02,1.529142707586288452e-01,-6.974250793457031250e+01,4.672135114669799805e-01,1.532620072364807129e+00,-5.964024066925048828e+00,-1.069272111635655165e-04,-4.448990821838378906e+00,-3.278129339218139648e+00,-1.651752041652798653e-03,-3.998477458953857422e-01,9.390521645545959473e-01,-1.950029563903808594e+01,5.000000000000000000e-01,-1.553522795438766479e-01,0.000000000000000000e+00
2.839093208312988281e-01,1.820367813110351562e+01,3.991101074218750000e+02,3.991101074218750000e+02,1.529142707586288452e-01,-6.974250793457031250e+01,4.672135114669799805e-01,1.532620072364807129e+00,-5.964024066925048828e+00,-1.069272111635655165e-04,-4.448990821838378906e+00,-3.278129339218139648e+00,-1.651752041652798653e-03,-3.998477458953857422e-01,9.390521645545959473e-01,-1.950029563903808594e+01,5.000000000000000000e-01,-1.553522795438766479e-01,0.000000000000000000e+00
2.839093208312988281e-01,1.820367813110351562e+01,3.991101074218750000e+02,3.991101074218750000e+02,1.529142707586288452e-01,-6.974250793457031250e+01,4.672135114669799805e-01,1.532620072364807129e+00,-5.964024066925048828e+00,-1.069272111635655165e-04,-4.448990821838378906e+00,-3.278129339218139648e+00,-1.651752041652798653e-03,-3.998477458953857422e-01,9.390521645545959473e-01,-1.950029563903808594e+01,5.000000000000000000e-01,-1.553522795438766479e-01,0.000000000000000000e+00
2.839093208312988281e-01,1.820367813110351562e+01,3.991101074218750000e+02,3.991101074218750000e+02,1.529142707586288452e-01,-6.974250793457031250e+01,4.672135114669799805e-01,1.532620072364807129e+00,-5.964024066925048828e+00,-1.069272111635655165e-04,-4.448990821838378906e+00,-3.278129339218139648e+00,-1.651752041652798653e-03,-3.998477458953857422e-01,9.390521645545959473e-01,-1.950029563903808594e+01,5.000000000000000000e-01,-1.553522795438766479e-01,0.000000000000000000e+00
2.839093208312988281e-01,1.820367813110351562e+01,3.991101074218750000e+02,3.991101074218750000e+02,1.529142707586288452e-01,-6.974250793457031250e+01,4.672135114669799805e-01,1.532620072364807129e+00,-5.964024066925048828e+00,-1.069272111635655165e-04,-4.448990821838378906e+00,-3.278129339218139648e+00,-1.651752041652798653e-03,-3.998477458953857422e-01,9.390521645545959473e-01,-1.950029563903808594e+01,5.000000000000000000e-01,-1.553522795438766479e-01,0.000000000000000000e+00
3.569011688232421875e-01,1.832959938049316406e+01,3.986633911132812500e+02,3.986633911132812500e+02,1.608509421348571777e-01,-7.117004394531250000e+01,4.716824293136596680e-01,1.444978117942810059e+00,-6.111478328704833984e+00,-5.424643313745036721e-05,-1.200708746910095215e+00,-2.020147085189819336e+00,7.217350648716092110e-04,-7.978963851928710938e-02,-1.411642320454120636e-02,-1.895932388305664062e+01,5.000000000000000000e-01,-1.414015740156173706e-01,0.000000000000000000e+00
3.569011688232421875e-01,1.832959938049316406e+01,3.986633911132812500e+02,3.986633911132812500e+02,1.608509421348571777e-01,-7.117004394531250000e+01,4.716824293136596680e-01,1.444978117942810059e+00,-6.111478328704833984e+00,-5.424643313745036721e-05,-1.200708746910095215e+00,-2.020147085189819336e+00,7.217350648716092110e-04,-7.978963851928710938e-02,-1.411642320454120636e-02,-1.895932388305664062e+01,5.000000000000000000e-01,-1.414015740156173706e-01,0.000000000000000000e+00
3.569011688232421875e-01,1.832959938049316406e+01,3.986633911132812500e+02,3.986633911132812500e+02,1.608509421348571777e-01,-7.117004394531250000e+01,4.716824293136596680e-01,1.444978117942810059e+00,-6.111478328704833984e+00,-5.424643313745036721e-05,-1.200708746910095215e+00,-2.020147085189819336e+00,7.217350648716092110e-04,-7.978963851928710938e-02,-1.411642320454120636e-02,-1.895932388305664062e+01,5.000000000000000000e-01,-1.414015740156173706e-01,0.000000000000000000e+00
3.569011688232421875e-01,1.832959938049316406e+01,3.986633911132812500e+02,3.986633911132812500e+02,1.608509421348571777e-01,-7.117004394531250000e+01,4.716824293136596680e-01,1.444978117942810059e+00,-6.111478328704833984e+00,-5.424643313745036721e-05,-1.200708746910095215e+00,-2.020147085189819336e+00,7.217350648716092110e-04,-7.978963851928710938e-02,-1.411642320454120636e-02,-1.895932388305664062e+01,5.000000000000000000e-01,-1.414015740156173706e-01,0.000000000000000000e+00
4.765405654907226562e-01,1.844602203369140625e+01,3.982203063964843750e+02,3.982203063964843750e+02,1.505783349275588989e-01,-7.248870086669921875e+01,4.407784044742584229e-01,1.360371351242065430e+00,-6.154316425323486328e+00,7.675957931496668607e-06,-7.071815133094787598e-01,-3.580601215362548828e-01,5.175753030925989151e-04,3.429439365863800049e-01,-1.608530730009078979e-01,-1.775160026550292969e+01,5.000000000000000000e-01,-1.265626996755599976e-01,0.000000000000000000e+00
4.765405654907226562e-01,1.844602203369140625e+01,3.982203063964843750e+02,3.982203063964843750e+02,1.505783349275588989e-01,-7.248870086669921875e+01,4.407784044742584229e-01,1.360371351242065430e+00,-6.154316425323486328e+00,7.675957931496668607e-06,-7.071815133094787598e-01,-3.580601215362548828e-01,5.175753030925989151e-04,3.429439365863800049e-01,-1.608530730009078979e-01,-1.775160026550292969e+01,5.000000000000000000e-01,-1.265626996755599976e-01,0.000000000000000000e+00
4.765405654907226562e-01,1.844602203369140625e+01,3.982203063964843750e+02,3.982203063964843750e+02,1.505783349275588989e-01,-7.248870086669921875e+01,4.407784044742584229e-01,1.360371351242065430e+00,-6.154316425323486328e+00,7.675957931496668607e-06,-7.071815133094787598e-01,-3.580601215362548828e-01,5.175753030925989151e-04,3.429439365863800049e-01,-1.608530730009078979e-01,-1.775160026550292969e+01,5.000000000000000000e-01,-1.265626996755599976e-01,0.000000000000000000e+00
4.765405654907226562e-01,1.844602203369140625e+01,3.982203063964843750e+02,3.982203063964843750e+02,1.505783349275588989e-01,-7.248870086669921875e+01,4.407784044742584229e-01,1.360371351242065430e+00,-6.154316425323486328e+00,7.675957931496668607e-06,-7.071815133094787598e-01,-3.580601215362548828e-01,5.175753030925989151e-04,3.429439365863800049e-01,-1.608530730009078979e-01,-1.775160026550292969e+01,5.000000000000000000e-01,-1.265626996755599976e-01,0.000000000000000000e+00
4.765405654907226562e-01,1.844602203369140625e+01,3.982203063964843750e+02,3.982203063964843750e+02,1.505783349275588989e-01,-7.248870086669921875e+01,4.407784044742584229e-01,1.360371351242065430e+00,-6.154316425323486328e+00,7.675957931496668607e-06,-7.071815133094787598e-01,-3.580601215362548828e-01,5.175753030925989151e-04,3.429439365863800049e-01,-1.608530730009078979e-01,-1.775160026550292969e+01,5.000000000000000000e-01,-1.265626996755599976e-01,0.000000000000000000e+00
4.765405654907226562e-01,1.844602203369140625e+01,3.982203063964843750e+02,3.982203063964843750e+02,1.505783349275588989e-01,-7.248870086669921875e+01,4.407784044742584229e-01,1.360371351242065430e+00,-6.154316425323486328e+00,7.675957931496668607e-06,-7.071815133094787598e-01,-3.580601215362548828e-01,5.175753030925989151e-04,3.429439365863800049e-01,-1.608530730009078979e-01,-1.775160026550292969e+01,5.000000000000000000e-01,-1.265626996755599976e-01,0.000000000000000000e+00
4.765405654907226562e-01,1.844602203369140625e+01,3.982203063964843750e+02,3.982203063964843750e+02,1.505783349275588989e-01,-7.248870086669921875e+01,4.407784044742584229e-01,1.360371351242065430e+00,-6.154316425323486328e+00,7.675957931496668607e-06,-7.071815133094787598e-01,-3.580601215362548828e-01,5.175753030925989151e-04,3.429439365863800049e-01,-1.608530730009078979e-01,-1.775160026550292969e+01,5.000000000000000000e-01,-1.265626996755599976e-01,0.000000000000000000e+00
6.200885772705078125e-01,1.859505653381347656e+01,3.976063232421875000e+02,3.976063232421875000e+02,1.208601891994476318e-01,-7.411687469482421875e+01,3.937090635299682617e-01,1.252252817153930664e+00,-6.195851325988769531e+00,3.884621401084586978e-05,-7.531872987747192383e-01,-2.893450260162353516e-01,2.171416854253038764e-04,5.254299044609069824e-01,-1.369382161647081375e-02,-1.603633880615234375e+01,5.000000000000000000e-01,-1.124935895204544067e-01,0.000000000000000000e+00
6.200885772705078125e-01,1.859505653381347656e+01,3.976063232421875000e+02,3.976063232421875000e+02,1.208601891994476318e-01,-7.411687469482421875e+01,3.937090635299682617e-01,1.252252817153930664e+00,-6.195851325988769531e+00,3.884621401084586978e-05,-7.531872987747192383e-01,-2.893450260162353516e-01,2.171416854253038764e-04,5.254299044609069824e-01,-1.369382161647081375e-02,-1.603633880615234375e+01,5.000000000000000000e-01,-1.124935895204544067e-01,0.000000000000000000e+00
6.200885772705078125e-01,1.859505653381347656e+01,3.976063232421875000e+02,3.976063232421875000e+02,1.208601891994476318e-01,-7.411687469482421875e+01,3.937090635299682617e-01,1.252252817153930664e+00,-6.195851325988769531e+00,3.884621401084586978e-05,-7.531872987747192383e-01,-2.893450260162353516e-01,2.171416854253038764e-04,5.254299044609069824e-01,-1.369382161647081375e-02,-1.603633880615234375e+01,5.000000000000000000e-01,-1.124935895204544067e-01,0.000000000000000000e+00
6.200885772705078125e-01,1.859505653381347656e+01,3.976063232421875000e+02,3.976063232421875000e+02,1.208601891994476318e-01,-7.411687469482421875e+01,3.937090635299682617e-01,1.252252817153930664e+00,-6.195851325988769531e+00,3.884621401084586978e-05,-7.531872987747192383e-01,-2.893450260162353516e-01,2.171416854253038764e-04,5.254299044609069824e-01,-1.369382161647081375e-02,-1.603633880615234375e+01,5.000000000000000000e-01,-1.124935895204544067e-01,0.000000000000000000e+00
6.200885772705078125e-01,1.859505653381347656e+01,3.976063232421875000e+02,3.976063232421875000e+02,1.208601891994476318e-01,-7.411687469482421875e+01,3.937090635299682617e-01,1.252252817153930664e+00,-6.195851325988769531e+00,3.884621401084586978e-05,-7.531872987747192383e-01,-2.893450260162353516e-01,2.171416854253038764e-04,5.254299044609069824e-01,-1.369382161647081375e-02,-1.603633880615234375e+01,5.000000000000000000e-01,-1.124935895204544067e-01,0.000000000000000000e+00
6.200885772705078125e-01,1.859505653381347656e+01,3.976063232421875000e+02,3.976063232421875000e+02,1.208601891994476318e-01,-7.411687469482421875e+01,3.937090635299682617e-01,1.252252817153930664e+00,-6.195851325988769531e+00,3.884621401084586978e-05,-7.531872987747192383e-01,-2.893450260162353516e-01,2.171416854253038764e-04,5.254299044609069824e-01,-1.369382161647081375e-02,-1.603633880615234375e+01,5.000000000000000000e-01,-1.124935895204544067e-01,0.000000000000000000e+00
7.946169376373291016e-01,1.871519660949707031e+01,3.969878845214843750e+02,3.969878845214843750e+02,7.066513597965240479e-02,-7.605266571044921875e+01,5.291821360588073730e-01,8.668087720870971680e-01,-6.225763797760009766e+00,-6.743260746588930488e-05,-2.208489418029785156e+00,-1.713903248310089111e-01,-6.089486996643245220e-04,4.852956533432006836e-01,8.644472360610961914e-01,-2.132660293579101562e+01,5.000000000000000000e-01,-1.619012504816055298e-01,0.000000000000000000e+00
7.946169376373291016e-01,1.871519660949707031e+01,3.969878845214843750e+02,3.969878845214843750e+02,7.066513597965240479e-02,-7.605266571044921875e+01,5.291821360588073730e-01,8.668087720870971680e-01,-6.225763797760009766e+00,-6.743260746588930488e-05,-2.208489418029785156e+00,-1.713903248310089111e-01,-6.089486996643245220e-04,4.852956533432006836e-01,8.644472360610961914e-01,-2.132660293579101562e+01,5.000000000000000000e-01,-1.619012504816055298e-01,0.000000000000000000e+00
7.946169376373291016e-01,1.871519660949707031e+01,3.969878845214843750e+02,3.969878845214843750e+02,7.066513597965240479e-02,-7.605266571044921875e+01,5.291821360588073730e-01,8.668087720870971680e-01,-6.225763797760009766e+00,-6.743260746588930488e-05,-2.208489418029785156e+00,-1.713903248310089111e-01,-6.089486996643245220e-04,4.852956533432006836e-01,8.644472360610961914e-01,-2.132660293579101562e+01,5.000000000000000000e-01,-1.619012504816055298e-01,0.000000000000000000e+00
8.783230781555175781e-01,1.881434631347656250e+01,3.963704223632812500e+02,3.963704223632812500e+02,2.043592557311058044e-02,-7.804295349121093750e+01,5.065793991088867188e-01,6.852952241897583008e-01,-6.187429904937744141e+00,3.432655375945614651e-06,-2.168461561203002930e+00,4.579579532146453857e-01,8.465957944281399250e-04,6.767812967300415039e-01,1.419251901097595692e-03,-2.069998359680175781e+01,5.000000000000000000e-01,-1.455868482589721680e-01,0.000000000000000000e+00
8.783230781555175781e-01,1.881434631347656250e+01,3.963704223632812500e+02,3.963704223632812500e+02,2.043592557311058044e-02,-7.804295349121093750e+01,5.065793991088867188e-01,6.852952241897583008e-01,-6.187429904937744141e+00,3.432655375945614651e-06,-2.168461561203002930e+00,4.579579532146453857e-01,8.465957944281399250e-04,6.767812967300415039e-01,1.419251901097595692e-03,-2.069998359680175781e+01,5.000000000000000000e-01,-1.455868482589721680e-01,0.000000000000000000e+00
8.783230781555175781e-01,1.881434631347656250e+01,3.963704223632812500e+02,3.963704223632812500e+02,2.043592557311058044e-02,-7.804295349121093750e+01,5.065793991088867188e-01,6.852952241897583008e-01,-6.187429904937744141e+00,3.432655375945614651e-06,-2.168461561203002930e+00,4.579579532146453857e-01,8.465957944281399250e-04,6.767812967300415039e-01,1.419251901097595692e-03,-2.069998359680175781e+01,5.000000000000000000e-01,-1.455868482589721680e-01,0.000000000000000000e+00
9.483780860900878906e-01,1.888514328002929688e+01,3.958556518554687500e+02,3.958556518554687500e+02,-1.053215097635984421e-02,-7.953305053710937500e+01,4.495007097721099854e-01,5.936421155929565430e-01,-6.174147129058837891e+00,4.826825534109957516e-05,-1.308302044868469238e+00,1.896049380302429199e-01,6.400056299753487110e-04,4.372915923595428467e-01,-3.329265117645263672e-01,-1.766886138916015625e+01,5.000000000000000000e-01,-1.246412172913551331e-01,0.000000000000000000e+00
9.483780860900878906e-01,1.888514328002929688e+01,3.958556518554687500e+02,3.958556518554687500e+02,-1.053215097635984421e-02,-7.953305053710937500e+01,4.495007097721099854e-01,5.936421155929565430e-01,-6.174147129058837891e+00,4.826825534109957516e-05,-1.308302044868469238e+00,1.896049380302429199e-01,6.400056299753487110e-04,4.372915923595428467e-01,-3.329265117645263672e-01,-1.766886138916015625e+01,5.000000000000000000e-01,-1.246412172913551331e-01,0.000000000000000000e+00
9.483780860900878906e-01,1.888514328002929688e+01,3.958556518554687500e+02,3.958556518554687500e+02,-1.053215097635984421e-02,-7.953305053710937500e+01,4.495007097721099854e-01,5.936421155929565430e-01,-6.174147129058837891e+00,4.826825534109957516e-05,-1.308302044868469238e+00,1.896049380302429199e-01,6.400056299753487110e-04,4.372915923595428467e-01,-3.329265117645263672e-01,-1.766886138916015625e+01,5.000000000000000000e-01,-1.246412172913551331e-01,0.000000000000000000e+00
9.483780860900878906e-01,1.888514328002929688e+01,3.958556518554687500e+02,3.958556518554687500e+02,-1.053215097635984421e-02,-7.953305053710937500e+01,4.495007097721099854e-01,5.936421155929565430e-01,-6.174147129058837891e+00,4.826825534109957516e-05,-1.308302044868469238e+00,1.896049380302429199e-01,6.400056299753487110e-04,4.372915923595428467e-01,-3.329265117645263672e-01,-1.766886138916015625e+01,5.000000000000000000e-01,-1.246412172913551331e-01,0.000000000000000000e+00
9.483780860900878906e-01,1.892822647094726562e+01,3.954259948730468750e+02,3.954259948730468750e+02,-3.307860344648361206e-02,-8.088419342041015625e+01,5.281847119331359863e-01,3.189542591571807861e-01,-6.170249462127685547e+00,-4.063036612933501601e-05,-3.485930204391479492e+00,4.946339875459671021e-02,-1.128169242292642593e-03,1.020636111497879028e-01,9.480242133140563965e-01,-1.994079017639160156e+01,5.000000000000000000e-01,-1.675516813993453979e-01,0.000000000000000000e+00
1.027177095413208008e+00,1.892822647094726562e+01,3.954259948730468750e+02,3.954259948730468750e+02,-3.307860344648361206e-02,-8.088419342041015625e+01,5.281847119331359863e-01,3.189542591571807861e-01,-6.170249462127685547e+00,-4.063036612933501601e-05,-3.485930204391479492e+00,4.946339875459671021e-02,-1.128169242292642593e-03,1.020636111497879028e-01,9.480242133140563965e-01,-1.994079017639160156e+01,5.000000000000000000e-01,-1.675516813993453979e-01,0.000000000000000000e+00
1.027177095413208008e+00,1.892822647094726562e+01,3.954259948730468750e+02,3.954259948730468750e+02,-3.307860344648361206e-02,-8.088419342041015625e+01,5.281847119331359863e-01,3.189542591571807861e-01,-6.170249462127685547e+00,-4.063036612933501601e-05,-3.485930204391479492e+00,4.946339875459671021e-02,-1.128169242292642593e-03,1.020636111497879028e-01,9.480242133140563965e-01,-1.994079017639160156e+01,5.000000000000000000e-01,-1.675516813993453979e-01,0.000000000000000000e+00
1.095043420791625977e+00,1.896350479125976562e+01,3.949455871582031250e+02,3.949455871582031250e+02,-5.472347140312194824e-02,-8.248979949951171875e+01,5.299435853958129883e-01,1.549465507268905640e-01,-6.098735809326171875e+00,-2.322784530406352133e-05,-2.416628599166870117e+00,1.053742766380310059e+00,2.564234891906380653e-04,3.654145002365112305e-01,-5.089303478598594666e-02,-2.108845710754394531e+01,5.000000000000000000e-01,-1.555892974138259888e-01,0.000000000000000000e+00
1.095043420791625977e+00,1.896350479125976562e+01,3.949455871582031250e+02,3.949455871582031250e+02,-5.472347140312194824e-02,-8.248979949951171875e+01,5.299435853958129883e-01,1.549465507268905640e-01,-6.098735809326171875e+00,-2.322784530406352133e-05,-2.416628599166870117e+00,1.053742766380310059e+00,2.564234891906380653e-04,3.654145002365112305e-01,-5.089303478598594666e-02,-2.108845710754394531e+01,5.000000000000000000e-01,-1.555892974138259888e-01,0.000000000000000000e+00
1.095043420791625977e+00,1.896350479125976562e+01,3.949455871582031250e+02,3.949455871582031250e+02,-5.472347140312194824e-02,-8.248979949951171875e+01,5.299435853958129883e-01,1.549465507268905640e-01,-6.098735809326171875e+00,-2.322784530406352133e-05,-2.416628599166870117e+00,1.053742766380310059e+00,2.564234891906380653e-04,3.654145002365112305e-01,-5.089303478598594666e-02,-2.108845710754394531e+01,5.000000000000000000e-01,-1.555892974138259888e-01,0.000000000000000000e+00
1.095043420791625977e+00,1.896350479125976562e+01,3.949455871582031250e+02,3.949455871582031250e+02,-5.472347140312194824e-02,-8.248979949951171875e+01,5.299435853958129883e-01,1.549465507268905640e-01,-6.098735809326171875e+00,-2.322784530406352133e-05,-2.416628599166870117e+00,1.053742766380310059e+00,2.564234891906380653e-04,3.654145002365112305e-01,-5.089303478598594666e-02,-2.108845710754394531e+01,5.000000000000000000e-01,-1.555892974138259888e-01,0.000000000000000000e+00
1.168572425842285156e+00,1.898573493957519531e+01,3.945336914062500000e+02,3.945336914062500000e+02,-6.485264003276824951e-02,-8.376808929443359375e+01,4.871561825275421143e-01,7.369492948055267334e-02,-6.093049049377441406e+00,2.957896322186570615e-05,-1.105028152465820312e+00,7.734035700559616089e-02,7.181765395216643810e-04,1.248985156416893005e-01,-4.775051772594451904e-01,-1.794117355346679688e+01,5.000000000000000000e-01,-1.384719908237457275e-01,0.000000000000000000e+00
1.168572425842285156e+00,1.898573493957519531e+01,3.945336914062500000e+02,3.945336914062500000e+02,-6.485264003276824951e-02,-8.376808929443359375e+01,4.871561825275421143e-01,7.369492948055267334e-02,-6.093049049377441406e+00,2.957896322186570615e-05,-1.105028152465820312e+00,7.734035700559616089e-02,7.181765395216643810e-04,1.248985156416893005e-01,-4.775051772594451904e-01,-1.794117355346679688e+01,5.000000000000000000e-01,-1.384719908237457275e-01,0.000000000000000000e+00
1.168572425842285156e+00,1.898573493957519531e+01,3.945336914062500000e+02,3.945336914062500000e+02,-6.485264003276824951e-02,-8.376808929443359375e+01,4.871561825275421143e-01,7.369492948055267334e-02,-6.093049049377441406e+00,2.957896322186570615e-05,-1.105028152465820312e+00,7.734035700559616089e-02,7.181765395216643810e-04,1.248985156416893005e-01,-4.775051772594451904e-01,-1.794117355346679688e+01,5.000000000000000000e-01,-1.384719908237457275e-01,0.000000000000000000e+00
1.168572425842285156e+00,1.898573493957519531e+01,3.945336914062500000e+02,3.945336914062500000e+02,-6.485264003276824951e-02,-8.376808929443359375e+01,4.871561825275421143e-01,7.369492948055267334e-02,-6.093049049377441406e+00,2.957896322186570615e-05,-1.105028152465820312e+00,7.734035700559616089e-02,7.181765395216643810e-04,1.248985156416893005e-01,-4.775051772594451904e-01,-1.794117355346679688e+01,5.000000000000000000e-01,-1.384719908237457275e-01,0.000000000000000000e+00
1.168572425842285156e+00,1.900269317626953125e+01,3.940899047851562500e+02,3.940899047851562500e+02,-7.220192253589630127e-02,-8.504126739501953125e+01,4.335603713989257812e-01,-7.233201526105403900e-03,-6.028481960296630859e+00,5.500938277691602707e-05,-1.078345179557800293e+00,8.603388071060180664e-01,3.388533659745007753e-04,2.060476839542388916e-01,-4.743722975254058838e-01,-1.743522644042968750e+01,5.000000000000000000e-01,-1.243687942624092102e-01,0.000000000000000000e+00
1.243620872497558594e+00,1.900269317626953125e+01,3.940899047851562500e+02,3.940899047851562500e+02,-7.220192253589630127e-02,-8.504126739501953125e+01,4.335603713989257812e-01,-7.233201526105403900e-03,-6.028481960296630859e+00,5.500938277691602707e-05,-1.078345179557800293e+00,8.603388071060180664e-01,3.388533659745007753e-04,2.060476839542388916e-01,-4.743722975254058838e-01,-1.743522644042968750e+01,5.000000000000000000e-01,-1.243687942624092102e-01,0.000000000000000000e+00
1.243620872497558594e+00,1.900269317626953125e+01,3.940899047851562500e+02,3.940899047851562500e+02,-7.220192253589630127e-02,-8.504126739501953125e+01,4.335603713989257812e-01,-7.233201526105403900e-03,-6.028481960296630859e+00,5.500938277691602707e-05,-1.078345179557800293e+00,8.603388071060180664e-01,3.388533659745007753e-04,2.060476839542388916e-01,-4.743722975254058838e-01,-1.743522644042968750e+01,5.000000000000000000e-01,-1.243687942624092102e-01,0.000000000000000000e+00
1.243620872497558594e+00,1.900269317626953125e+01,3.940899047851562500e+02,3.940899047851562500e+02,-7.220192253589630127e-02,-8.504126739501953125e+01,4.335603713989257812e-01,-7.233201526105403900e-03,-6.028481960296630859e+00,5.500938277691602707e-05,-1.078345179557800293e+00,8.603388071060180664e-01,3.388533659745007753e-04,2.060476839542388916e-01,-4.743722975254058838e-01,-1.743522644042968750e+01,5.000000000000000000e-01,-1.243687942624092102e-01,0.000000000000000000e+00
1.312042951583862305e+00,1.901307296752929688e+01,3.936395263671875000e+02,3.936395263671875000e+02,-7.559652626514434814e-02,-8.617992401123046875e+01,3.792963027954101562e-01,-6.856938451528549194e-02,-6.009447097778320312e+00,6.028224015608429909e-05,-8.964384794235229492e-01,2.781976759433746338e-01,7.706368342041969299e-05,-4.922138177789747715e-04,-4.824288189411163330e-01,-1.387154674530029297e+01,5.000000000000000000e-01,-1.102957129478454590e-01,0.000000000000000000e+00
1.312042951583862305e+00,1.901307296752929688e+01,3.936395263671875000e+02,3.936395263671875000e+02,-7.559652626514434814e-02,-8.617992401123046875e+01,3.792963027954101562e-01,-6.856938451528549194e-02,-6.009447097778320312e+00,6.028224015608429909e-05,-8.964384794235229492e-01,2.781976759433746338e-01,7.706368342041969299e-05,-4.922138177789747715e-04,-4.824288189411163330e-01,-1.387154674530029297e+01,5.000000000000000000e-01,-1.102957129478454590e-01,0.000000000000000000e+00
1.383129358291625977e+00,1.900891304016113281e+01,3.932334594726562500e+02,3.932334594726562500e+02,-8.652482926845550537e-02,-8.737228393554687500e+01,4.652062356472015381e-01,-3.373138606548309326e-01,-5.914472103118896484e+00,-3.397476393729448318e-05,-3.780532360076904297e+00,1.336049914360046387e+00,-1.325949677266180515e-03,1.581798493862152100e-01,1.129822731018066406e+00,-1.905319976806640625e+01,5.000000000000000000e-01,-1.601437330245971680e-01,0.000000000000000000e+00
1.383129358291625977e+00,1.900891304016113281e+01,3.932334594726562500e+02,3.932334594726562500e+02,-8.652482926845550537e-02,-8.737228393554687500e+01,4.652062356472015381e-01,-3.373138606548309326e-01,-5.914472103118896484e+00,-3.397476393729448318e-05,-3.780532360076904297e+00,1.336049914360046387e+00,-1.325949677266180515e-03,1.581798493862152100e-01,1.129822731018066406e+00,-1.905319976806640625e+01,5.000000000000000000e-01,-1.601437330245971680e-01,0.000000000000000000e+00
1.383129358291625977e+00,1.900891304016113281e+01,3.932334594726562500e+02,3.932334594726562500e+02,-8.652482926845550537e-02,-8.737228393554687500e+01,4.652062356472015381e-01,-3.373138606548309326e-01,-5.914472103118896484e+00,-3.397476393729448318e-05,-3.780532360076904297e+00,1.336049914360046387e+00,-1.325949677266180515e-03,1.581798493862152100e-01,1.129822731018066406e+00,-1.905319976806640625e+01,5.000000000000000000e-01,-1.601437330245971680e-01,0.000000000000000000e+00
1.450951814651489258e+00,1.899382972717285156e+01,3.928148498535156250e+02,3.928148498535156250e+02,-9.152452647686004639e-02,-8.869082641601562500e+01,4.806434810161590576e-01,-4.717635214328765869e-01,-5.888999938964843750e+00,-3.653960447991266847e-05,-1.982376813888549805e+00,3.755712509155273438e-01,-3.781698251259513199e-05,-2.199906483292579651e-02,4.962052218616008759e-03,-1.801552200317382812e+01,5.000000000000000000e-01,-1.504324376583099365e-01,0.000000000000000000e+00
1.450951814651489258e+00,1.899382972717285156e+01,3.928148498535156250e+02,3.928148498535156250e+02,-9.152452647686004639e-02,-8.869082641601562500e+01,4.806434810161590576e-01,-4.717635214328765869e-01,-5.888999938964843750e+00,-3.653960447991266847e-05,-1.982376813888549805e+00,3.755712509155273438e-01,-3.781698251259513199e-05,-2.199906483292579651e-02,4.962052218616008759e-03,-1.801552200317382812e+01,5.000000000000000000e-01,-1.504324376583099365e-01,0.000000000000000000e+00
1.450951814651489258e+00,1.899382972717285156e+01,3.928148498535156250e+02,3.928148498535156250e+02,-9.152452647686004639e-02,-8.869082641601562500e+01,4.806434810161590576e-01,-4.717635214328765869e-01,-5.888999938964843750e+00,-3.653960447991266847e-05,-1.982376813888549805e+00,3.755712509155273438e-01,-3.781698251259513199e-05,-2.199906483292579651e-02,4.962052218616008759e-03,-1.801552200317382812e+01,5.000000000000000000e-01,-1.504324376583099365e-01,0.000000000000000000e+00
1.527701377868652344e+00,1.897273063659667969e+01,3.924186096191406250e+02,3.924186096191406250e+02,-9.366238117218017578e-02,-8.991009521484375000e+01,4.481006860733032227e-01,-5.536938905715942383e-01,-5.819110393524169922e+00,7.933494089229498059e-06,-1.067502737045288086e+00,9.106181859970092773e-01,5.794573226012289524e-04,7.029084861278533936e-02,-3.890130519866943359e-01,-1.807476615905761719e+01,5.000000000000000000e-01,-1.366426646709442139e-01,0.000000000000000000e+00
1.527701377868652344e+00,1.897273063659667969e+01,3.924186096191406250e+02,3.924186096191406250e+02,-9.366238117218017578e-02,-8.991009521484375000e+01,4.481006860733032227e-01,-5.536938905715942383e-01,-5.819110393524169922e+00,7.933494089229498059e-06,-1.067502737045288086e+00,9.106181859970092773e-01,5.794573226012289524e-04,7.029084861278533936e-02,-3.890130519866943359e-01,-1.807476615905761719e+01,5.000000000000000000e-01,-1.366426646709442139e-01,0.000000000000000000e+00
1.527701377868652344e+00,1.897273063659667969e+01,3.924186096191406250e+02,3.924186096191406250e+02,-9.366238117218017578e-02,-8.991009521484375000e+01,4.481006860733032227e-01,-5.536938905715942383e-01,-5.819110393524169922e+00,7.933494089229498059e-06,-1.067502737045288086e+00,9.106181859970092773e-01,5.794573226012289524e-04,7.029084861278533936e-02,-3.890130519866943359e-01,-1.807476615905761719e+01,5.000000000000000000e-01,-1.366426646709442139e-01,0.000000000000000000e+00
1.600134611129760742e+00,1.894178199768066406e+01,3.919732971191406250e+02,3.919732971191406250e+02,-9.155184775590896606e-02,-9.114787292480468750e+01,3.969386518001556396e-01,-6.236766576766967773e-01,-5.792700290679931641e+00,4.080146027263253927e-05,-9.661692976951599121e-01,3.646130561828613281e-01,4.537691711448132992e-04,-1.166028380393981934e-01,-4.567195177078247070e-01,-1.471831417083740234e+01,5.000000000000000000e-01,-1.232719942927360535e-01,0.000000000000000000e+00
1.600134611129760742e+00,1.894178199768066406e+01,3.919732971191406250e+02,3.919732971191406250e+02,-9.155184775590896606e-02,-9.114787292480468750e+01,3.969386518001556396e-01,-6.236766576766967773e-01,-5.792700290679931641e+00,4.080146027263253927e-05,-9.661692976951599121e-01,3.646130561828613281e-01,4.537691711448132992e-04,-1.166028380393981934e-01,-4.567195177078247070e-01,-1.471831417083740234e+01,5.000000000000000000e-01,-1.232719942927360535e-01,0.000000000000000000e+00
1.600134611129760742e+00,1.894178199768066406e+01,3.919732971191406250e+02,3.919732971191406250e+02,-9.155184775590896606e-02,-9.114787292480468750e+01,3.969386518001556396e-01,-6.236766576766967773e-01,-5.792700290679931641e+00,4.080146027263253927e-05,-9.661692976951599121e-01,3.646130561828613281e-01,4.537691711448132992e-04,-1.166028380393981934e-01,-4.567195177078247070e-01,-1.471831417083740234e+01,5.000000000000000000e-01,-1.232719942927360535e-01,0.000000000000000000e+00
1.600134611129760742e+00,1.894178199768066406e+01,3.919732971191406250e+02,3.919732971191406250e+02,-9.155184775590896606e-02,-9.114787292480468750e+01,3.969386518001556396e-01,-6.236766576766967773e-01,-5.792700290679931641e+00,4.080146027263253927e-05,-9.661692976951599121e-01,3.646130561828613281e-01,4.537691711448132992e-04,-1.166028380393981934e-01,-4.567195177078247070e-01,-1.471831417083740234e+01,5.000000000000000000e-01,-1.232719942927360535e-01,0.000000000000000000e+00
1.600134611129760742e+00,1.894178199768066406e+01,3.919732971191406250e+02,3.919732971191406250e+02,-9.155184775590896606e-02,-9.114787292480468750e+01,3.969386518001556396e-01,-6.236766576766967773e-01,-5.792700290679931641e+00,4.080146027263253927e-05,-9.661692976951599121e-01,3.646130561828613281e-01,4.537691711448132992e-04,-1.166028380393981934e-01,-4.567195177078247070e-01,-1.471831417083740234e+01,5.000000000000000000e-01,-1.232719942927360535e-01,0.000000000000000000e+00
1.600134611129760742e+00,1.890737915039062500e+01,3.915577697753906250e+02,3.915577697753906250e+02,-9.414732456207275391e-02,-9.222284698486328125e+01,3.481999337673187256e-01,-6.727243661880493164e-01,-5.696793079376220703e+00,4.837288724957033992e-05,-4.251013398170471191e-01,8.312373161315917969e-01,6.562230555573478341e-05,1.000353023409843445e-01,-4.525910913944244385e-01,-1.507836055755615234e+01,5.000000000000000000e-01,-1.094561740756034851e-01,0.000000000000000000e+00
1.715513467788696289e+00,1.890737915039062500e+01,3.915577697753906250e+02,3.915577697753906250e+02,-9.414732456207275391e-02,-9.222284698486328125e+01,3.481999337673187256e-01,-6.727243661880493164e-01,-5.696793079376220703e+00,4.837288724957033992e-05,-4.251013398170471191e-01,8.312373161315917969e-01,6.562230555573478341e-05,1.000353023409843445e-01,-4.525910913944244385e-01,-1.507836055755615234e+01,5.000000000000000000e-01,-1.094561740756034851e-01,0.000000000000000000e+00
1.715513467788696289e+00,1.890737915039062500e+01,3.915577697753906250e+02,3.915577697753906250e+02,-9.414732456207275391e-02,-9.222284698486328125e+01,3.481999337673187256e-01,-6.727243661880493164e-01,-5.696793079376220703e+00,4.837288724957033992e-05,-4.251013398170471191e-01,8.312373161315917969e-01,6.562230555573478341e-05,1.000353023409843445e-01,-4.525910913944244385e-01,-1.507836055755615234e+01,5.000000000000000000e-01,-1.094561740756034851e-01,0.000000000000000000e+00
1.715513467788696289e+00,1.884112548828125000e+01,3.909944458007812500e+02,3.909944458007812500e+02,-1.087092831730842590e-01,-9.384782409667968750e+01,4.114410579204559326e-01,-9.178701639175415039e-01,-5.530637741088867188e+00,-2.339926686545368284e-05,-2.511697292327880859e+00,1.702382445335388184e+00,-7.353580440394580364e-04,4.087758660316467285e-01,2.099956721067428589e-01,-1.844100952148437500e+01,5.000000000000000000e-01,-1.430476903915405273e-01,0.000000000000000000e+00
1.813115119934082031e+00,1.884112548828125000e+01,3.909944458007812500e+02,3.909944458007812500e+02,-1.087092831730842590e-01,-9.384782409667968750e+01,4.114410579204559326e-01,-9.178701639175415039e-01,-5.530637741088867188e+00,-2.339926686545368284e-05,-2.511697292327880859e+00,1.702382445335388184e+00,-7.353580440394580364e-04,4.087758660316467285e-01,2.099956721067428589e-01,-1.844100952148437500e+01,5.000000000000000000e-01,-1.430476903915405273e-01,0.000000000000000000e+00
1.813115119934082031e+00,1.884112548828125000e+01,3.909944458007812500e+02,3.909944458007812500e+02,-1.087092831730842590e-01,-9.384782409667968750e+01,4.114410579204559326e-01,-9.178701639175415039e-01,-5.530637741088867188e+00,-2.339926686545368284e-05,-2.511697292327880859e+00,1.702382445335388184e+00,-7.353580440394580364e-04,4.087758660316467285e-01,2.099956721067428589e-01,-1.844100952148437500e+01,5.000000000000000000e-01,-1.430476903915405273e-01,0.000000000000000000e+00
1.813115119934082031e+00,1.884112548828125000e+01,3.909944458007812500e+02,3.909944458007812500e+02,-1.087092831730842590e-01,-9.384782409667968750e+01,4.114410579204559326e-01,-9.178701639175415039e-01,-5.530637741088867188e+00,-2.339926686545368284e-05,-2.511697292327880859e+00,1.702382445335388184e+00,-7.353580440394580364e-04,4.087758660316467285e-01,2.099956721067428589e-01,-1.844100952148437500e+01,5.000000000000000000e-01,-1.430476903915405273e-01,0.000000000000000000e+00
1.896134853363037109e+00,1.876469421386718750e+01,3.904577636718750000e+02,3.904577636718750000e+02,-1.254910528659820557e-01,-9.538751220703125000e+01,3.704397678375244141e-01,-1.005040049552917480e+00,-5.403587341308593750e+00,1.025033179757883772e-05,-1.049989938735961914e+00,1.530363917350769043e+00,4.053204902447760105e-04,3.023249804973602295e-01,-2.809621691703796387e-01,-1.691223716735839844e+01,5.000000000000000000e-01,-1.269783526659011841e-01,0.000000000000000000e+00
1.896134853363037109e+00,1.876469421386718750e+01,3.904577636718750000e+02,3.904577636718750000e+02,-1.254910528659820557e-01,-9.538751220703125000e+01,3.704397678375244141e-01,-1.005040049552917480e+00,-5.403587341308593750e+00,1.025033179757883772e-05,-1.049989938735961914e+00,1.530363917350769043e+00,4.053204902447760105e-04,3.023249804973602295e-01,-2.809621691703796387e-01,-1.691223716735839844e+01,5.000000000000000000e-01,-1.269783526659011841e-01,0.000000000000000000e+00
1.896134853363037109e+00,1.876469421386718750e+01,3.904577636718750000e+02,3.904577636718750000e+02,-1.254910528659820557e-01,-9.538751220703125000e+01,3.704397678375244141e-01,-1.005040049552917480e+00,-5.403587341308593750e+00,1.025033179757883772e-05,-1.049989938735961914e+00,1.530363917350769043e+00,4.053204902447760105e-04,3.023249804973602295e-01,-2.809621691703796387e-01,-1.691223716735839844e+01,5.000000000000000000e-01,-1.269783526659011841e-01,0.000000000000000000e+00
1.896134853363037109e+00,1.876469421386718750e+01,3.904577636718750000e+02,3.904577636718750000e+02,-1.254910528659820557e-01,-9.538751220703125000e+01,3.704397678375244141e-01,-1.005040049552917480e+00,-5.403587341308593750e+00,1.025033179757883772e-05,-1.049989938735961914e+00,1.530363917350769043e+00,4.053204902447760105e-04,3.023249804973602295e-01,-2.809621691703796387e-01,-1.691223716735839844e+01,5.000000000000000000e-01,-1.269783526659011841e-01,0.000000000000000000e+00
1.896134853363037109e+00,1.876469421386718750e+01,3.904577636718750000e+02,3.904577636718750000e+02,-1.254910528659820557e-01,-9.538751220703125000e+01,3.704397678375244141e-01,-1.005040049552917480e+00,-5.403587341308593750e+00,1.025033179757883772e-05,-1.049989938735961914e+00,1.530363917350769043e+00,4.053204902447760105e-04,3.023249804973602295e-01,-2.809621691703796387e-01,-1.691223716735839844e+01,5.000000000000000000e-01,-1.269783526659011841e-01,0.000000000000000000e+00
1.896134853363037109e+00,1.876469421386718750e+01,3.904577636718750000e+02,3.904577636718750000e+02,-1.254910528659820557e-01,-9.538751220703125000e+01,3.704397678375244141e-01,-1.005040049552917480e+00,-5.403587341308593750e+00,1.025033179757883772e-05,-1.049989938735961914e+00,1.530363917350769043e+00,4.053204902447760105e-04,3.023249804973602295e-01,-2.809621691703796387e-01,-1.691223716735839844e+01,5.000000000000000000e-01,-1.269783526659011841e-01,0.000000000000000000e+00
1.896134853363037109e+00,1.876469421386718750e+01,3.904577636718750000e+02,3.904577636718750000e+02,-1.254910528659820557e-01,-9.538751220703125000e+01,3.704397678375244141e-01,-1.005040049552917480e+00,-5.403587341308593750e+00,1.025033179757883772e-05,-1.049989938735961914e+00,1.530363917350769043e+00,4.053204902447760105e-04,3.023249804973602295e-01,-2.809621691703796387e-01,-1.691223716735839844e+01,5.000000000000000000e-01,-1.269783526659011841e-01,0.000000000000000000e+00
1.896134853363037109e+00,1.876469421386718750e+01,3.904577636718750000e+02,3.904577636718750000e+02,-1.254910528659820557e-01,-9.538751220703125000e+01,3.704397678375244141e-01,-1.005040049552917480e+00,-5.403587341308593750e+00,1.025033179757883772e-05,-1.049989938735961914e+00,1.530363917350769043e+00,4.053204902447760105e-04,3.023249804973602295e-01,-2.809621691703796387e-01,-1.691223716735839844e+01,5.000000000000000000e-01,-1.269783526659011841e-01,0.000000000000000000e+00
2.195794820785522461e+00,1.850689697265625000e+01,3.889919128417968750e+02,3.889919128417968750e+02,-2.648747153580188751e-02,-9.878715515136718750e+01,2.663799524307250977e-01,-1.247784733772277832e+00,-5.571269989013671875e+00,1.650568992772605270e-05,-2.391575574874877930e+00,-3.290849208831787109e+00,-2.646478533279150724e-04,-1.197630047798156738e+00,2.532082498073577881e-01,-1.176123905181884766e+01,1.000000000000000000e+00,-9.321227669715881348e-02,0.000000000000000000e+00
2.195794820785522461e+00,1.850689697265625000e+01,3.889919128417968750e+02,3.889919128417968750e+02,-2.648747153580188751e-02,-9.878715515136718750e+01,2.663799524307250977e-01,-1.247784733772277832e+00,-5.571269989013671875e+00,1.650568992772605270e-05,-2.391575574874877930e+00,-3.290849208831787109e+00,-2.646478533279150724e-04,-1.197630047798156738e+00,2.532082498073577881e-01,-1.176123905181884766e+01,1.000000000000000000e+00,-9.321227669715881348e-02,0.000000000000000000e+00
2.195794820785522461e+00,1.850689697265625000e+01,3.889919128417968750e+02,3.889919128417968750e+02,-2.648747153580188751e-02,-9.878715515136718750e+01,2.663799524307250977e-01,-1.247784733772277832e+00,-5.571269989013671875e+00,1.650568992772605270e-05,-2.391575574874877930e+00,-3.290849208831787109e+00,-2.646478533279150724e-04,-1.197630047798156738e+00,2.532082498073577881e-01,-1.176123905181884766e+01,1.000000000000000000e+00,-9.321227669715881348e-02,0.000000000000000000e+00
2.195794820785522461e+00,1.850689697265625000e+01,3.889919128417968750e+02,3.889919128417968750e+02,-2.648747153580188751e-02,-9.878715515136718750e+01,2.663799524307250977e-01,-1.247784733772277832e+00,-5.571269989013671875e+00,1.650568992772605270e-05,-2.391575574874877930e+00,-3.290849208831787109e+00,-2.646478533279150724e-04,-1.197630047798156738e+00,2.532082498073577881e-01,-1.176123905181884766e+01,1.000000000000000000e+00,-9.321227669715881348e-02,0.000000000000000000e+00
2.195794820785522461e+00,1.850689697265625000e+01,3.889919128417968750e+02,3.889919128417968750e+02,-2.648747153580188751e-02,-9.878715515136718750e+01,2.663799524307250977e-01,-1.247784733772277832e+00,-5.571269989013671875e+00,1.650568992772605270e-05,-2.391575574874877930e+00,-3.290849208831787109e+00,-2.646478533279150724e-04,-1.197630047798156738e+00,2.532082498073577881e-01,-1.176123905181884766e+01,1.000000000000000000e+00,-9.321227669715881348e-02,0.000000000000000000e+00
2.195794820785522461e+00,1.850689697265625000e+01,3.889919128417968750e+02,3.889919128417968750e+02,-2.648747153580188751e-02,-9.878715515136718750e+01,2.663799524307250977e-01,-1.247784733772277832e+00,-5.571269989013671875e+00,1.650568992772605270e-05,-2.391575574874877930e+00,-3.290849208831787109e+00,-2.646478533279150724e-04,-1.197630047798156738e+00,2.532082498073577881e-01,-1.176123905181884766e+01,1.000000000000000000e+00,-9.321227669715881348e-02,0.000000000000000000e+00
2.195794820785522461e+00,1.850689697265625000e+01,3.889919128417968750e+02,3.889919128417968750e+02,-2.648747153580188751e-02,-9.878715515136718750e+01,2.663799524307250977e-01,-1.247784733772277832e+00,-5.571269989013671875e+00,1.650568992772605270e-05,-2.391575574874877930e+00,-3.290849208831787109e+00,-2.646478533279150724e-04,-1.197630047798156738e+00,2.532082498073577881e-01,-1.176123905181884766e+01,1.000000000000000000e+00,-9.321227669715881348e-02,0.000000000000000000e+00
2.195794820785522461e+00,1.850689697265625000e+01,3.889919128417968750e+02,3.889919128417968750e+02,-2.648747153580188751e-02,-9.878715515136718750e+01,2.663799524307250977e-01,-1.247784733772277832e+00,-5.571269989013671875e+00,1.650568992772605270e-05,-2.391575574874877930e+00,-3.290849208831787109e+00,-2.646478533279150724e-04,-1.197630047798156738e+00,2.532082498073577881e-01,-1.176123905181884766e+01,1.000000000000000000e+00,-9.321227669715881348e-02,0.000000000000000000e+00
2.195794820785522461e+00,1.850689697265625000e+01,3.889919128417968750e+02,3.889919128417968750e+02,-2.648747153580188751e-02,-9.878715515136718750e+01,2.663799524307250977e-01,-1.247784733772277832e+00,-5.571269989013671875e+00,1.650568992772605270e-05,-2.391575574874877930e+00,-3.290849208831787109e+00,-2.646478533279150724e-04,-1.197630047798156738e+00,2.532082498073577881e-01,-1.176123905181884766e+01,1.000000000000000000e+00,-9.321227669715881348e-02,0.000000000000000000e+00
2.195794820785522461e+00,1.850689697265625000e+01,3.889919128417968750e+02,3.889919128417968750e+02,-2.648747153580188751e-02,-9.878715515136718750e+01,2.663799524307250977e-01,-1.247784733772277832e+00,-5.571269989013671875e+00,1.650568992772605270e-05,-2.391575574874877930e+00,-3.290849208831787109e+00,-2.646478533279150724e-04,-1.197630047798156738e+00,2.532082498073577881e-01,-1.176123905181884766e+01,1.000000000000000000e+00,-9.321227669715881348e-02,0.000000000000000000e+00
2.374083757400512695e+00,1.844595146179199219e+01,3.886910400390625000e+02,3.886910400390625000e+02,3.412362188100814819e-02,-9.938385009765625000e+01,2.496337443590164185e-01,-1.299110412597656250e+00,-5.702220916748046875e+00,1.362619786959839985e-05,-2.878791987895965576e-01,-7.344871163368225098e-01,-1.615070505067706108e-05,-1.252433538436889648e+00,-5.401952192187309265e-02,-1.097167873382568359e+01,5.000000000000000000e-01,-8.111643791198730469e-02,0.000000000000000000e+00
2.374083757400512695e+00,1.844595146179199219e+01,3.886910400390625000e+02,3.886910400390625000e+02,3.412362188100814819e-02,-9.938385009765625000e+01,2.496337443590164185e-01,-1.299110412597656250e+00,-5.702220916748046875e+00,1.362619786959839985e-05,-2.878791987895965576e-01,-7.344871163368225098e-01,-1.615070505067706108e-05,-1.252433538436889648e+00,-5.401952192187309265e-02,-1.097167873382568359e+01,5.000000000000000000e-01,-8.111643791198730469e-02,0.000000000000000000e+00
2.374083757400512695e+00,1.844595146179199219e+01,3.886910400390625000e+02,3.886910400390625000e+02,3.412362188100814819e-02,-9.938385009765625000e+01,2.496337443590164185e-01,-1.299110412597656250e+00,-5.702220916748046875e+00,1.362619786959839985e-05,-2.878791987895965576e-01,-7.344871163368225098e-01,-1.615070505067706108e-05,-1.252433538436889648e+00,-5.401952192187309265e-02,-1.097167873382568359e+01,5.000000000000000000e-01,-8.111643791198730469e-02,0.000000000000000000e+00
2.447860002517700195e+00,1.832181167602539062e+01,3.881071472167968750e+02,3.881071472167968750e+02,1.306751668453216553e-01,-1.004162673950195312e+02,2.251157462596893311e-01,-1.410718321800231934e+00,-5.908306598663330078e+00,-1.830749511100293603e-06,-1.512789249420166016e+00,-2.793388128280639648e+00,-2.095111849484965205e-04,-8.967273831367492676e-01,1.222023367881774902e-01,-1.007885551452636719e+01,5.000000000000000000e-01,-7.387990504503250122e-02,0.000000000000000000e+00
2.447860002517700195e+00,1.832181167602539062e+01,3.881071472167968750e+02,3.881071472167968750e+02,1.306751668453216553e-01,-1.004162673950195312e+02,2.251157462596893311e-01,-1.410718321800231934e+00,-5.908306598663330078e+00,-1.830749511100293603e-06,-1.512789249420166016e+00,-2.793388128280639648e+00,-2.095111849484965205e-04,-8.967273831367492676e-01,1.222023367881774902e-01,-1.007885551452636719e+01,5.000000000000000000e-01,-7.387990504503250122e-02,0.000000000000000000e+00
2.500878810882568359e+00,1.822409629821777344e+01,3.876669921875000000e+02,3.876669921875000000e+02,1.640338152647018433e-01,-1.010966873168945312e+02,1.976735144853591919e-01,-1.450836658477783203e+00,-5.968302249908447266e+00,-2.984559841934242286e-06,-7.566812038421630859e-01,-1.131591796875000000e+00,-2.176228372263722122e-05,-2.543345987796783447e-01,-1.520326584577560425e-01,-8.909557342529296875e+00,5.000000000000000000e-01,-6.137888506054878235e-02,0.000000000000000000e+00
2.500878810882568359e+00,1.822409629821777344e+01,3.876669921875000000e+02,3.876669921875000000e+02,1.640338152647018433e-01,-1.010966873168945312e+02,1.976735144853591919e-01,-1.450836658477783203e+00,-5.968302249908447266e+00,-2.984559841934242286e-06,-7.566812038421630859e-01,-1.131591796875000000e+00,-2.176228372263722122e-05,-2.543345987796783447e-01,-1.520326584577560425e-01,-8.909557342529296875e+00,5.000000000000000000e-01,-6.137888506054878235e-02,0.000000000000000000e+00
2.560195446014404297e+00,1.815151405334472656e+01,3.873467407226562500e+02,3.873467407226562500e+02,1.735414415597915649e-01,-1.015203628540039062e+02,1.723006963729858398e-01,-1.468329548835754395e+00,-6.029354572296142578e+00,-2.412476078461622819e-06,-2.949069738388061523e-01,-1.029261350631713867e+00,9.644575584388803691e-06,-1.109834685921669006e-01,-3.620215058326721191e-01,-7.672420978546142578e+00,5.000000000000000000e-01,-5.015909671783447266e-02,0.000000000000000000e+00
2.560195446014404297e+00,1.815151405334472656e+01,3.873467407226562500e+02,3.873467407226562500e+02,1.735414415597915649e-01,-1.015203628540039062e+02,1.723006963729858398e-01,-1.468329548835754395e+00,-6.029354572296142578e+00,-2.412476078461622819e-06,-2.949069738388061523e-01,-1.029261350631713867e+00,9.644575584388803691e-06,-1.109834685921669006e-01,-3.620215058326721191e-01,-7.672420978546142578e+00,5.000000000000000000e-01,-5.015909671783447266e-02,0.000000000000000000e+00
2.560195446014404297e+00,1.815151405334472656e+01,3.873467407226562500e+02,3.873467407226562500e+02,1.735414415597915649e-01,-1.015203628540039062e+02,1.723006963729858398e-01,-1.468329548835754395e+00,-6.029354572296142578e+00,-2.412476078461622819e-06,-2.949069738388061523e-01,-1.029261350631713867e+00,9.644575584388803691e-06,-1.109834685921669006e-01,-3.620215058326721191e-01,-7.672420978546142578e+00,5.000000000000000000e-01,-5.015909671783447266e-02,0.000000000000000000e+00
2.618730545043945312e+00,1.806829071044921875e+01,3.869861755371093750e+02,3.869861755371093750e+02,1.706454306840896606e-01,-1.019325332641601562e+02,1.497009247541427612e-01,-1.491443634033203125e+00,-6.063055992126464844e+00,4.843946953769773245e-06,-3.948756456375122070e-01,-5.757471919059753418e-01,1.239670382346957922e-04,1.465429663658142090e-01,-2.744195461273193359e-01,-6.742439746856689453e+00,5.000000000000000000e-01,-4.463185742497444153e-02,0.000000000000000000e+00
2.618730545043945312e+00,1.806829071044921875e+01,3.869861755371093750e+02,3.869861755371093750e+02,1.706454306840896606e-01,-1.019325332641601562e+02,1.497009247541427612e-01,-1.491443634033203125e+00,-6.063055992126464844e+00,4.843946953769773245e-06,-3.948756456375122070e-01,-5.757471919059753418e-01,1.239670382346957922e-04,1.465429663658142090e-01,-2.744195461273193359e-01,-6.742439746856689453e+00,5.000000000000000000e-01,-4.463185742497444153e-02,0.000000000000000000e+00
2.677334070205688477e+00,1.798432731628417969e+01,3.866289672851562500e+02,3.866289672851562500e+02,1.582486480474472046e-01,-1.022913970947265625e+02,1.328438818454742432e-01,-1.511204957962036133e+00,-6.084030628204345703e+00,8.562741641071625054e-06,-3.372036814689636230e-01,-3.579074144363403320e-01,6.345684232655912638e-05,2.937851548194885254e-01,-2.555321156978607178e-01,-5.971597194671630859e+00,5.000000000000000000e-01,-3.943074494600296021e-02,0.000000000000000000e+00
2.677334070205688477e+00,1.798432731628417969e+01,3.866289672851562500e+02,3.866289672851562500e+02,1.582486480474472046e-01,-1.022913970947265625e+02,1.328438818454742432e-01,-1.511204957962036133e+00,-6.084030628204345703e+00,8.562741641071625054e-06,-3.372036814689636230e-01,-3.579074144363403320e-01,6.345684232655912638e-05,2.937851548194885254e-01,-2.555321156978607178e-01,-5.971597194671630859e+00,5.000000000000000000e-01,-3.943074494600296021e-02,0.000000000000000000e+00
2.677334070205688477e+00,1.798432731628417969e+01,3.866289672851562500e+02,3.866289672851562500e+02,1.582486480474472046e-01,-1.022913970947265625e+02,1.328438818454742432e-01,-1.511204957962036133e+00,-6.084030628204345703e+00,8.562741641071625054e-06,-3.372036814689636230e-01,-3.579074144363403320e-01,6.345684232655912638e-05,2.937851548194885254e-01,-2.555321156978607178e-01,-5.971597194671630859e+00,5.000000000000000000e-01,-3.943074494600296021e-02,0.000000000000000000e+00
2.677334070205688477e+00,1.789875030517578125e+01,3.862707214355468750e+02,3.862707214355468750e+02,1.396910250186920166e-01,-1.026104278564453125e+02,1.187776923179626465e-01,-1.527595162391662598e+00,-6.092162132263183594e+00,1.117542433348717168e-05,-2.109670192003250122e-01,-1.046648994088172913e-01,3.362922507221810520e-05,3.822125792503356934e-01,-2.453720271587371826e-01,-5.318389892578125000e+00,5.000000000000000000e-01,-3.498575836420059204e-02,0.000000000000000000e+00
2.755024909973144531e+00,1.789875030517578125e+01,3.862707214355468750e+02,3.862707214355468750e+02,1.396910250186920166e-01,-1.026104278564453125e+02,1.187776923179626465e-01,-1.527595162391662598e+00,-6.092162132263183594e+00,1.117542433348717168e-05,-2.109670192003250122e-01,-1.046648994088172913e-01,3.362922507221810520e-05,3.822125792503356934e-01,-2.453720271587371826e-01,-5.318389892578125000e+00,5.000000000000000000e-01,-3.498575836420059204e-02,0.000000000000000000e+00
2.755024909973144531e+00,1.789875030517578125e+01,3.862707214355468750e+02,3.862707214355468750e+02,1.396910250186920166e-01,-1.026104278564453125e+02,1.187776923179626465e-01,-1.527595162391662598e+00,-6.092162132263183594e+00,1.117542433348717168e-05,-2.109670192003250122e-01,-1.046648994088172913e-01,3.362922507221810520e-05,3.822125792503356934e-01,-2.453720271587371826e-01,-5.318389892578125000e+00,5.000000000000000000e-01,-3.498575836420059204e-02,0.000000000000000000e+00
2.755024909973144531e+00,1.789875030517578125e+01,3.862707214355468750e+02,3.862707214355468750e+02,1.396910250186920166e-01,-1.026104278564453125e+02,1.187776923179626465e-01,-1.527595162391662598e+00,-6.092162132263183594e+00,1.117542433348717168e-05,-2.109670192003250122e-01,-1.046648994088172913e-01,3.362922507221810520e-05,3.822125792503356934e-01,-2.453720271587371826e-01,-5.318389892578125000e+00,5.000000000000000000e-01,-3.498575836420059204e-02,0.000000000000000000e+00
2.830169916152954102e+00,1.778327178955078125e+01,3.857957763671875000e+02,3.857957763671875000e+02,1.112706065177917480e-01,-1.029798736572265625e+02,1.045987382531166077e-01,-1.553465127944946289e+00,-6.113586425781250000e+00,1.291074295295402408e-05,-3.442672491073608398e-01,-2.851060032844543457e-01,2.309293267899192870e-05,2.634433209896087646e-01,-1.503782421350479126e-01,-4.442167758941650391e+00,5.000000000000000000e-01,-3.109924308955669403e-02,0.000000000000000000e+00
2.830169916152954102e+00,1.778327178955078125e+01,3.857957763671875000e+02,3.857957763671875000e+02,1.112706065177917480e-01,-1.029798736572265625e+02,1.045987382531166077e-01,-1.553465127944946289e+00,-6.113586425781250000e+00,1.291074295295402408e-05,-3.442672491073608398e-01,-2.851060032844543457e-01,2.309293267899192870e-05,2.634433209896087646e-01,-1.503782421350479126e-01,-4.442167758941650391e+00,5.000000000000000000e-01,-3.109924308955669403e-02,0.000000000000000000e+00
2.830169916152954102e+00,1.778327178955078125e+01,3.857957763671875000e+02,3.857957763671875000e+02,1.112706065177917480e-01,-1.029798736572265625e+02,1.045987382531166077e-01,-1.553465127944946289e+00,-6.113586425781250000e+00,1.291074295295402408e-05,-3.442672491073608398e-01,-2.851060032844543457e-01,2.309293267899192870e-05,2.634433209896087646e-01,-1.503782421350479126e-01,-4.442167758941650391e+00,5.000000000000000000e-01,-3.109924308955669403e-02,0.000000000000000000e+00
2.830169916152954102e+00,1.778327178955078125e+01,3.857957763671875000e+02,3.857957763671875000e+02,1.112706065177917480e-01,-1.029798736572265625e+02,1.045987382531166077e-01,-1.553465127944946289e+00,-6.113586425781250000e+00,1.291074295295402408e-05,-3.442672491073608398e-01,-2.851060032844543457e-01,2.309293267899192870e-05,2.634433209896087646e-01,-1.503782421350479126e-01,-4.442167758941650391e+00,5.000000000000000000e-01,-3.109924308955669403e-02,0.000000000000000000e+00
2.830169916152954102e+00,1.778327178955078125e+01,3.857957763671875000e+02,3.857957763671875000e+02,1.112706065177917480e-01,-1.029798736572265625e+02,1.045987382531166077e-01,-1.553465127944946289e+00,-6.113586425781250000e+00,1.291074295295402408e-05,-3.442672491073608398e-01,-2.851060032844543457e-01,2.309293267899192870e-05,2.634433209896087646e-01,-1.503782421350479126e-01,-4.442167758941650391e+00,5.000000000000000000e-01,-3.109924308955669403e-02,0.000000000000000000e+00
