# Time,X,Y,Z,Roll,Pitch,Yaw,Vx,Vy,Vz,Ax,Ay,Az,Wx,Wy,Wz,Throttle,Steer,Brake
0.000000000000000000e+00,6.599375000000000000e+02,3.989783477783203125e+01,3.989783477783203125e+01,4.146265983581542969e-01,-1.005518798828125000e+02,-7.655334472656250000e-01,-1.470187783241271973e+00,-7.972410678863525391e+00,-1.934159517986699939e-04,-2.963777482509613037e-01,8.282586932182312012e-01,-9.839977137744426727e-04,-1.382124423980712891e+00,-1.577151268720626831e-01,-2.904423236846923828e+00,1.000000000000000000e+00,-1.149266585707664490e-02,0.000000000000000000e+00
1.045818328857421875e-01,6.599375000000000000e+02,3.989783477783203125e+01,3.989783477783203125e+01,4.146265983581542969e-01,-1.005518798828125000e+02,-7.655334472656250000e-01,-1.470187783241271973e+00,-7.972410678863525391e+00,-1.934159517986699939e-04,-2.963777482509613037e-01,8.282586932182312012e-01,-9.839977137744426727e-04,-1.382124423980712891e+00,-1.577151268720626831e-01,-2.904423236846923828e+00,1.000000000000000000e+00,-1.149266585707664490e-02,0.000000000000000000e+00
1.045818328857421875e-01,6.599375000000000000e+02,3.989783477783203125e+01,3.989783477783203125e+01,4.146265983581542969e-01,-1.005518798828125000e+02,-7.655334472656250000e-01,-1.470187783241271973e+00,-7.972410678863525391e+00,-1.934159517986699939e-04,-2.963777482509613037e-01,8.282586932182312012e-01,-9.839977137744426727e-04,-1.382124423980712891e+00,-1.577151268720626831e-01,-2.904423236846923828e+00,1.000000000000000000e+00,-1.149266585707664490e-02,0.000000000000000000e+00
1.045818328857421875e-01,6.599375000000000000e+02,3.989783477783203125e+01,3.989783477783203125e+01,4.146265983581542969e-01,-1.005518798828125000e+02,-7.655334472656250000e-01,-1.470187783241271973e+00,-7.972410678863525391e+00,-1.934159517986699939e-04,-2.963777482509613037e-01,8.282586932182312012e-01,-9.839977137744426727e-04,-1.382124423980712891e+00,-1.577151268720626831e-01,-2.904423236846923828e+00,1.000000000000000000e+00,-1.149266585707664490e-02,0.000000000000000000e+00
1.045818328857421875e-01,6.599375000000000000e+02,3.989783477783203125e+01,3.989783477783203125e+01,4.146265983581542969e-01,-1.005518798828125000e+02,-7.655334472656250000e-01,-1.470187783241271973e+00,-7.972410678863525391e+00,-1.934159517986699939e-04,-2.963777482509613037e-01,8.282586932182312012e-01,-9.839977137744426727e-04,-1.382124423980712891e+00,-1.577151268720626831e-01,-2.904423236846923828e+00,1.000000000000000000e+00,-1.149266585707664490e-02,0.000000000000000000e+00
1.045818328857421875e-01,6.599375000000000000e+02,3.989783477783203125e+01,3.989783477783203125e+01,4.146265983581542969e-01,-1.005518798828125000e+02,-7.655334472656250000e-01,-1.470187783241271973e+00,-7.972410678863525391e+00,-1.934159517986699939e-04,-2.963777482509613037e-01,8.282586932182312012e-01,-9.839977137744426727e-04,-1.382124423980712891e+00,-1.577151268720626831e-01,-2.904423236846923828e+00,1.000000000000000000e+00,-1.149266585707664490e-02,0.000000000000000000e+00
1.045818328857421875e-01,6.597873535156250000e+02,3.909617996215820312e+01,3.909617996215820312e+01,3.499378859996795654e-01,-1.006441879272460938e+02,-7.459717988967895508e-01,-1.505386948585510254e+00,-8.048463821411132812e+00,-1.204862055601552129e-04,-3.361620604991912842e-01,-7.263292074203491211e-01,6.964998901821672916e-04,1.474086642265319824e+00,4.049008786678314209e-01,-4.330956041812896729e-01,1.000000000000000000e+00,-6.673177122138440609e-04,0.000000000000000000e+00
2.092907428741455078e-01,6.597873535156250000e+02,3.909617996215820312e+01,3.909617996215820312e+01,3.499378859996795654e-01,-1.006441879272460938e+02,-7.459717988967895508e-01,-1.505386948585510254e+00,-8.048463821411132812e+00,-1.204862055601552129e-04,-3.361620604991912842e-01,-7.263292074203491211e-01,6.964998901821672916e-04,1.474086642265319824e+00,4.049008786678314209e-01,-4.330956041812896729e-01,1.000000000000000000e+00,-6.673177122138440609e-04,0.000000000000000000e+00
2.092907428741455078e-01,6.597873535156250000e+02,3.909617996215820312e+01,3.909617996215820312e+01,3.499378859996795654e-01,-1.006441879272460938e+02,-7.459717988967895508e-01,-1.505386948585510254e+00,-8.048463821411132812e+00,-1.204862055601552129e-04,-3.361620604991912842e-01,-7.263292074203491211e-01,6.964998901821672916e-04,1.474086642265319824e+00,4.049008786678314209e-01,-4.330956041812896729e-01,1.000000000000000000e+00,-6.673177122138440609e-04,0.000000000000000000e+00
2.092907428741455078e-01,6.597873535156250000e+02,3.909617996215820312e+01,3.909617996215820312e+01,3.499378859996795654e-01,-1.006441879272460938e+02,-7.459717988967895508e-01,-1.505386948585510254e+00,-8.048463821411132812e+00,-1.204862055601552129e-04,-3.361620604991912842e-01,-7.263292074203491211e-01,6.964998901821672916e-04,1.474086642265319824e+00,4.049008786678314209e-01,-4.330956041812896729e-01,1.000000000000000000e+00,-6.673177122138440609e-04,0.000000000000000000e+00
2.092907428741455078e-01,6.597873535156250000e+02,3.909617996215820312e+01,3.909617996215820312e+01,3.499378859996795654e-01,-1.006441879272460938e+02,-7.459717988967895508e-01,-1.505386948585510254e+00,-8.048463821411132812e+00,-1.204862055601552129e-04,-3.361620604991912842e-01,-7.263292074203491211e-01,6.964998901821672916e-04,1.474086642265319824e+00,4.049008786678314209e-01,-4.330956041812896729e-01,1.000000000000000000e+00,-6.673177122138440609e-04,0.000000000000000000e+00
2.092907428741455078e-01,6.596292114257812500e+02,3.828162384033203125e+01,3.828162384033203125e+01,8.478313684463500977e-02,-1.010481719970703125e+02,-6.855467557907104492e-01,-1.580630660057067871e+00,-8.197005271911621094e+00,6.407623004633933306e-06,-1.008377671241760254e+00,-1.990676522254943848e+00,1.700566266663372517e-03,2.167945384979248047e+00,5.386324226856231689e-02,-5.171627998352050781e+00,1.000000000000000000e+00,-2.382507361471652985e-02,0.000000000000000000e+00
2.839093208312988281e-01,6.596292114257812500e+02,3.828162384033203125e+01,3.828162384033203125e+01,8.478313684463500977e-02,-1.010481719970703125e+02,-6.855467557907104492e-01,-1.580630660057067871e+00,-8.197005271911621094e+00,6.407623004633933306e-06,-1.008377671241760254e+00,-1.990676522254943848e+00,1.700566266663372517e-03,2.167945384979248047e+00,5.386324226856231689e-02,-5.171627998352050781e+00,1.000000000000000000e+00,-2.382507361471652985e-02,0.000000000000000000e+00
2.839093208312988281e-01,6.596292114257812500e+02,3.828162384033203125e+01,3.828162384033203125e+01,8.478313684463500977e-02,-1.010481719970703125e+02,-6.855467557907104492e-01,-1.580630660057067871e+00,-8.197005271911621094e+00,6.407623004633933306e-06,-1.008377671241760254e+00,-1.990676522254943848e+00,1.700566266663372517e-03,2.167945384979248047e+00,5.386324226856231689e-02,-5.171627998352050781e+00,1.000000000000000000e+00,-2.382507361471652985e-02,0.000000000000000000e+00
2.839093208312988281e-01,6.596292114257812500e+02,3.828162384033203125e+01,3.828162384033203125e+01,8.478313684463500977e-02,-1.010481719970703125e+02,-6.855467557907104492e-01,-1.580630660057067871e+00,-8.197005271911621094e+00,6.407623004633933306e-06,-1.008377671241760254e+00,-1.990676522254943848e+00,1.700566266663372517e-03,2.167945384979248047e+00,5.386324226856231689e-02,-5.171627998352050781e+00,1.000000000000000000e+00,-2.382507361471652985e-02,0.000000000000000000e+00
2.839093208312988281e-01,6.596292114257812500e+02,3.828162384033203125e+01,3.828162384033203125e+01,8.478313684463500977e-02,-1.010481719970703125e+02,-6.855467557907104492e-01,-1.580630660057067871e+00,-8.197005271911621094e+00,6.407623004633933306e-06,-1.008377671241760254e+00,-1.990676522254943848e+00,1.700566266663372517e-03,2.167945384979248047e+00,5.386324226856231689e-02,-5.171627998352050781e+00,1.000000000000000000e+00,-2.382507361471652985e-02,0.000000000000000000e+00
3.569011688232421875e-01,6.595061035156250000e+02,3.766366195678710938e+01,3.766366195678710938e+01,-1.071178540587425232e-01,-1.013363265991210938e+02,-6.648254990577697754e-01,-1.649313449859619141e+00,-8.335007667541503906e+00,3.667283817776478827e-05,-9.409652352333068848e-01,-1.890654921531677246e+00,4.146382852923125029e-04,2.226237535476684570e+00,-3.301117420196533203e-01,-3.436049699783325195e+00,5.000000000000000000e-01,-1.295827236026525497e-02,0.000000000000000000e+00
3.569011688232421875e-01,6.595061035156250000e+02,3.766366195678710938e+01,3.766366195678710938e+01,-1.071178540587425232e-01,-1.013363265991210938e+02,-6.648254990577697754e-01,-1.649313449859619141e+00,-8.335007667541503906e+00,3.667283817776478827e-05,-9.409652352333068848e-01,-1.890654921531677246e+00,4.146382852923125029e-04,2.226237535476684570e+00,-3.301117420196533203e-01,-3.436049699783325195e+00,5.000000000000000000e-01,-1.295827236026525497e-02,0.000000000000000000e+00
3.569011688232421875e-01,6.595061035156250000e+02,3.766366195678710938e+01,3.766366195678710938e+01,-1.071178540587425232e-01,-1.013363265991210938e+02,-6.648254990577697754e-01,-1.649313449859619141e+00,-8.335007667541503906e+00,3.667283817776478827e-05,-9.409652352333068848e-01,-1.890654921531677246e+00,4.146382852923125029e-04,2.226237535476684570e+00,-3.301117420196533203e-01,-3.436049699783325195e+00,5.000000000000000000e-01,-1.295827236026525497e-02,0.000000000000000000e+00
3.569011688232421875e-01,6.595061035156250000e+02,3.766366195678710938e+01,3.766366195678710938e+01,-1.071178540587425232e-01,-1.013363265991210938e+02,-6.648254990577697754e-01,-1.649313449859619141e+00,-8.335007667541503906e+00,3.667283817776478827e-05,-9.409652352333068848e-01,-1.890654921531677246e+00,4.146382852923125029e-04,2.226237535476684570e+00,-3.301117420196533203e-01,-3.436049699783325195e+00,5.000000000000000000e-01,-1.295827236026525497e-02,0.000000000000000000e+00
4.765405654907226562e-01,6.593840332031250000e+02,3.705855560302734375e+01,3.705855560302734375e+01,-1.424230933189392090e-01,-1.014638442993164062e+02,-6.522216796875000000e-01,-1.662579059600830078e+00,-8.264174461364746094e+00,6.172232679091393948e-05,-1.108799502253532410e-01,5.920558571815490723e-01,2.093749208142980933e-04,-4.643746614456176758e-01,3.401738405227661133e-01,-1.197014808654785156e+00,5.000000000000000000e-01,-2.791849663481116295e-03,0.000000000000000000e+00
4.765405654907226562e-01,6.593840332031250000e+02,3.705855560302734375e+01,3.705855560302734375e+01,-1.424230933189392090e-01,-1.014638442993164062e+02,-6.522216796875000000e-01,-1.662579059600830078e+00,-8.264174461364746094e+00,6.172232679091393948e-05,-1.108799502253532410e-01,5.920558571815490723e-01,2.093749208142980933e-04,-4.643746614456176758e-01,3.401738405227661133e-01,-1.197014808654785156e+00,5.000000000000000000e-01,-2.791849663481116295e-03,0.000000000000000000e+00
4.765405654907226562e-01,6.593840332031250000e+02,3.705855560302734375e+01,3.705855560302734375e+01,-1.424230933189392090e-01,-1.014638442993164062e+02,-6.522216796875000000e-01,-1.662579059600830078e+00,-8.264174461364746094e+00,6.172232679091393948e-05,-1.108799502253532410e-01,5.920558571815490723e-01,2.093749208142980933e-04,-4.643746614456176758e-01,3.401738405227661133e-01,-1.197014808654785156e+00,5.000000000000000000e-01,-2.791849663481116295e-03,0.000000000000000000e+00
4.765405654907226562e-01,6.593840332031250000e+02,3.705855560302734375e+01,3.705855560302734375e+01,-1.424230933189392090e-01,-1.014638442993164062e+02,-6.522216796875000000e-01,-1.662579059600830078e+00,-8.264174461364746094e+00,6.172232679091393948e-05,-1.108799502253532410e-01,5.920558571815490723e-01,2.093749208142980933e-04,-4.643746614456176758e-01,3.401738405227661133e-01,-1.197014808654785156e+00,5.000000000000000000e-01,-2.791849663481116295e-03,0.000000000000000000e+00
4.765405654907226562e-01,6.593840332031250000e+02,3.705855560302734375e+01,3.705855560302734375e+01,-1.424230933189392090e-01,-1.014638442993164062e+02,-6.522216796875000000e-01,-1.662579059600830078e+00,-8.264174461364746094e+00,6.172232679091393948e-05,-1.108799502253532410e-01,5.920558571815490723e-01,2.093749208142980933e-04,-4.643746614456176758e-01,3.401738405227661133e-01,-1.197014808654785156e+00,5.000000000000000000e-01,-2.791849663481116295e-03,0.000000000000000000e+00
4.765405654907226562e-01,6.593840332031250000e+02,3.705855560302734375e+01,3.705855560302734375e+01,-1.424230933189392090e-01,-1.014638442993164062e+02,-6.522216796875000000e-01,-1.662579059600830078e+00,-8.264174461364746094e+00,6.172232679091393948e-05,-1.108799502253532410e-01,5.920558571815490723e-01,2.093749208142980933e-04,-4.643746614456176758e-01,3.401738405227661133e-01,-1.197014808654785156e+00,5.000000000000000000e-01,-2.791849663481116295e-03,0.000000000000000000e+00
4.765405654907226562e-01,6.593840332031250000e+02,3.705855560302734375e+01,3.705855560302734375e+01,-1.424230933189392090e-01,-1.014638442993164062e+02,-6.522216796875000000e-01,-1.662579059600830078e+00,-8.264174461364746094e+00,6.172232679091393948e-05,-1.108799502253532410e-01,5.920558571815490723e-01,2.093749208142980933e-04,-4.643746614456176758e-01,3.401738405227661133e-01,-1.197014808654785156e+00,5.000000000000000000e-01,-2.791849663481116295e-03,0.000000000000000000e+00
6.200885772705078125e-01,6.592173461914062500e+02,3.623731231689453125e+01,3.623731231689453125e+01,1.400188659317791462e-03,-1.015025711059570312e+02,-5.852965712547302246e-01,-1.647010922431945801e+00,-8.124740600585937500e+00,1.027508114930242300e-04,1.084524765610694885e-01,9.713395833969116211e-01,2.858171646948903799e-04,-2.276929140090942383e+00,1.494427084922790527e+00,-1.579108983278274536e-01,5.000000000000000000e-01,0.000000000000000000e+00,0.000000000000000000e+00
6.200885772705078125e-01,6.592173461914062500e+02,3.623731231689453125e+01,3.623731231689453125e+01,1.400188659317791462e-03,-1.015025711059570312e+02,-5.852965712547302246e-01,-1.647010922431945801e+00,-8.124740600585937500e+00,1.027508114930242300e-04,1.084524765610694885e-01,9.713395833969116211e-01,2.858171646948903799e-04,-2.276929140090942383e+00,1.494427084922790527e+00,-1.579108983278274536e-01,5.000000000000000000e-01,0.000000000000000000e+00,0.000000000000000000e+00
6.200885772705078125e-01,6.592173461914062500e+02,3.623731231689453125e+01,3.623731231689453125e+01,1.400188659317791462e-03,-1.015025711059570312e+02,-5.852965712547302246e-01,-1.647010922431945801e+00,-8.124740600585937500e+00,1.027508114930242300e-04,1.084524765610694885e-01,9.713395833969116211e-01,2.858171646948903799e-04,-2.276929140090942383e+00,1.494427084922790527e+00,-1.579108983278274536e-01,5.000000000000000000e-01,0.000000000000000000e+00,0.000000000000000000e+00
6.200885772705078125e-01,6.592173461914062500e+02,3.623731231689453125e+01,3.623731231689453125e+01,1.400188659317791462e-03,-1.015025711059570312e+02,-5.852965712547302246e-01,-1.647010922431945801e+00,-8.124740600585937500e+00,1.027508114930242300e-04,1.084524765610694885e-01,9.713395833969116211e-01,2.858171646948903799e-04,-2.276929140090942383e+00,1.494427084922790527e+00,-1.579108983278274536e-01,5.000000000000000000e-01,0.000000000000000000e+00,0.000000000000000000e+00
6.200885772705078125e-01,6.592173461914062500e+02,3.623731231689453125e+01,3.623731231689453125e+01,1.400188659317791462e-03,-1.015025711059570312e+02,-5.852965712547302246e-01,-1.647010922431945801e+00,-8.124740600585937500e+00,1.027508114930242300e-04,1.084524765610694885e-01,9.713395833969116211e-01,2.858171646948903799e-04,-2.276929140090942383e+00,1.494427084922790527e+00,-1.579108983278274536e-01,5.000000000000000000e-01,0.000000000000000000e+00,0.000000000000000000e+00
6.200885772705078125e-01,6.592173461914062500e+02,3.623731231689453125e+01,3.623731231689453125e+01,1.400188659317791462e-03,-1.015025711059570312e+02,-5.852965712547302246e-01,-1.647010922431945801e+00,-8.124740600585937500e+00,1.027508114930242300e-04,1.084524765610694885e-01,9.713395833969116211e-01,2.858171646948903799e-04,-2.276929140090942383e+00,1.494427084922790527e+00,-1.579108983278274536e-01,5.000000000000000000e-01,0.000000000000000000e+00,0.000000000000000000e+00
7.946169376373291016e-01,6.590523071289062500e+02,3.542726898193359375e+01,3.542726898193359375e+01,1.847634315490722656e-01,-1.015057296752929688e+02,-4.443359076976776123e-01,-1.626963257789611816e+00,-8.030020713806152344e+00,7.475560414604842663e-05,1.148676574230194092e-01,5.427191853523254395e-01,-1.604049175512045622e-04,-1.820723056793212891e+00,2.030408859252929688e+00,-1.361370645463466644e-02,1.000000000000000000e+00,0.000000000000000000e+00,0.000000000000000000e+00
7.946169376373291016e-01,6.590523071289062500e+02,3.542726898193359375e+01,3.542726898193359375e+01,1.847634315490722656e-01,-1.015057296752929688e+02,-4.443359076976776123e-01,-1.626963257789611816e+00,-8.030020713806152344e+00,7.475560414604842663e-05,1.148676574230194092e-01,5.427191853523254395e-01,-1.604049175512045622e-04,-1.820723056793212891e+00,2.030408859252929688e+00,-1.361370645463466644e-02,1.000000000000000000e+00,0.000000000000000000e+00,0.000000000000000000e+00
7.946169376373291016e-01,6.590523071289062500e+02,3.542726898193359375e+01,3.542726898193359375e+01,1.847634315490722656e-01,-1.015057296752929688e+02,-4.443359076976776123e-01,-1.626963257789611816e+00,-8.030020713806152344e+00,7.475560414604842663e-05,1.148676574230194092e-01,5.427191853523254395e-01,-1.604049175512045622e-04,-1.820723056793212891e+00,2.030408859252929688e+00,-1.361370645463466644e-02,1.000000000000000000e+00,0.000000000000000000e+00,0.000000000000000000e+00
8.783230781555175781e-01,6.588776245117187500e+02,3.461577606201171875e+01,3.461577606201171875e+01,1.464051008224487305e-01,-1.022622451782226562e+02,-4.081420004367828369e-01,-1.732797980308532715e+00,-8.124773979187011719e+00,2.479139880051661748e-07,-1.264360308647155762e+00,-1.131975054740905762e+00,-8.901102119125425816e-04,1.393527090549468994e-01,-7.080110311508178711e-01,-9.931716918945312500e+00,1.000000000000000000e+00,-4.632873460650444031e-02,0.000000000000000000e+00
8.783230781555175781e-01,6.588776245117187500e+02,3.461577606201171875e+01,3.461577606201171875e+01,1.464051008224487305e-01,-1.022622451782226562e+02,-4.081420004367828369e-01,-1.732797980308532715e+00,-8.124773979187011719e+00,2.479139880051661748e-07,-1.264360308647155762e+00,-1.131975054740905762e+00,-8.901102119125425816e-04,1.393527090549468994e-01,-7.080110311508178711e-01,-9.931716918945312500e+00,1.000000000000000000e+00,-4.632873460650444031e-02,0.000000000000000000e+00
8.783230781555175781e-01,6.588776245117187500e+02,3.461577606201171875e+01,3.461577606201171875e+01,1.464051008224487305e-01,-1.022622451782226562e+02,-4.081420004367828369e-01,-1.732797980308532715e+00,-8.124773979187011719e+00,2.479139880051661748e-07,-1.264360308647155762e+00,-1.131975054740905762e+00,-8.901102119125425816e-04,1.393527090549468994e-01,-7.080110311508178711e-01,-9.931716918945312500e+00,1.000000000000000000e+00,-4.632873460650444031e-02,0.000000000000000000e+00
9.483780860900878906e-01,6.587199707031250000e+02,3.392767333984375000e+01,3.392767333984375000e+01,-1.760822720825672150e-02,-1.031067657470703125e+02,-5.856628417968750000e-01,-1.890726327896118164e+00,-8.280440330505371094e+00,-8.207128848880529404e-05,-2.254347801208496094e+00,-2.222058773040771484e+00,-1.175065175630152225e-03,1.222776651382446289e+00,-3.511266946792602539e+00,-1.026069831848144531e+01,1.000000000000000000e+00,-4.266357421875000000e-02,0.000000000000000000e+00
9.483780860900878906e-01,6.587199707031250000e+02,3.392767333984375000e+01,3.392767333984375000e+01,-1.760822720825672150e-02,-1.031067657470703125e+02,-5.856628417968750000e-01,-1.890726327896118164e+00,-8.280440330505371094e+00,-8.207128848880529404e-05,-2.254347801208496094e+00,-2.222058773040771484e+00,-1.175065175630152225e-03,1.222776651382446289e+00,-3.511266946792602539e+00,-1.026069831848144531e+01,1.000000000000000000e+00,-4.266357421875000000e-02,0.000000000000000000e+00
9.483780860900878906e-01,6.587199707031250000e+02,3.392767333984375000e+01,3.392767333984375000e+01,-1.760822720825672150e-02,-1.031067657470703125e+02,-5.856628417968750000e-01,-1.890726327896118164e+00,-8.280440330505371094e+00,-8.207128848880529404e-05,-2.254347801208496094e+00,-2.222058773040771484e+00,-1.175065175630152225e-03,1.222776651382446289e+00,-3.511266946792602539e+00,-1.026069831848144531e+01,1.000000000000000000e+00,-4.266357421875000000e-02,0.000000000000000000e+00
9.483780860900878906e-01,6.587199707031250000e+02,3.392767333984375000e+01,3.392767333984375000e+01,-1.760822720825672150e-02,-1.031067657470703125e+02,-5.856628417968750000e-01,-1.890726327896118164e+00,-8.280440330505371094e+00,-8.207128848880529404e-05,-2.254347801208496094e+00,-2.222058773040771484e+00,-1.175065175630152225e-03,1.222776651382446289e+00,-3.511266946792602539e+00,-1.026069831848144531e+01,1.000000000000000000e+00,-4.266357421875000000e-02,0.000000000000000000e+00
9.483780860900878906e-01,6.585812988281250000e+02,3.334384918212890625e+01,3.334384918212890625e+01,-1.670186072587966919e-01,-1.035535659790039062e+02,-8.309936523437500000e-01,-2.000017881393432617e+00,-8.392489433288574219e+00,-1.838807656895369291e-04,-1.386966109275817871e+00,-1.421960711479187012e+00,-1.292014610953629017e-03,1.161619663238525391e+00,-4.010277271270751953e+00,-5.045953273773193359e+00,1.000000000000000000e+00,-1.483281422406435013e-02,0.000000000000000000e+00
1.027177095413208008e+00,6.585812988281250000e+02,3.334384918212890625e+01,3.334384918212890625e+01,-1.670186072587966919e-01,-1.035535659790039062e+02,-8.309936523437500000e-01,-2.000017881393432617e+00,-8.392489433288574219e+00,-1.838807656895369291e-04,-1.386966109275817871e+00,-1.421960711479187012e+00,-1.292014610953629017e-03,1.161619663238525391e+00,-4.010277271270751953e+00,-5.045953273773193359e+00,1.000000000000000000e+00,-1.483281422406435013e-02,0.000000000000000000e+00
1.027177095413208008e+00,6.585812988281250000e+02,3.334384918212890625e+01,3.334384918212890625e+01,-1.670186072587966919e-01,-1.035535659790039062e+02,-8.309936523437500000e-01,-2.000017881393432617e+00,-8.392489433288574219e+00,-1.838807656895369291e-04,-1.386966109275817871e+00,-1.421960711479187012e+00,-1.292014610953629017e-03,1.161619663238525391e+00,-4.010277271270751953e+00,-5.045953273773193359e+00,1.000000000000000000e+00,-1.483281422406435013e-02,0.000000000000000000e+00
1.095043420791625977e+00,6.584207763671875000e+02,3.267760848999023438e+01,3.267760848999023438e+01,-3.023314774036407471e-01,-1.036670150756835938e+02,-1.054565191268920898e+00,-2.069221973419189453e+00,-8.509759902954101562e+00,-2.466099103912711143e-04,-1.019711732864379883e+00,-1.727962493896484375e+00,-9.243044187314808369e-04,8.888138532638549805e-01,-2.385786771774291992e+00,-2.216160148382186890e-01,1.000000000000000000e+00,3.405507421121001244e-03,0.000000000000000000e+00
1.095043420791625977e+00,6.584207763671875000e+02,3.267760848999023438e+01,3.267760848999023438e+01,-3.023314774036407471e-01,-1.036670150756835938e+02,-1.054565191268920898e+00,-2.069221973419189453e+00,-8.509759902954101562e+00,-2.466099103912711143e-04,-1.019711732864379883e+00,-1.727962493896484375e+00,-9.243044187314808369e-04,8.888138532638549805e-01,-2.385786771774291992e+00,-2.216160148382186890e-01,1.000000000000000000e+00,3.405507421121001244e-03,0.000000000000000000e+00
1.095043420791625977e+00,6.584207763671875000e+02,3.267760848999023438e+01,3.267760848999023438e+01,-3.023314774036407471e-01,-1.036670150756835938e+02,-1.054565191268920898e+00,-2.069221973419189453e+00,-8.509759902954101562e+00,-2.466099103912711143e-04,-1.019711732864379883e+00,-1.727962493896484375e+00,-9.243044187314808369e-04,8.888138532638549805e-01,-2.385786771774291992e+00,-2.216160148382186890e-01,1.000000000000000000e+00,3.405507421121001244e-03,0.000000000000000000e+00
1.095043420791625977e+00,6.584207763671875000e+02,3.267760848999023438e+01,3.267760848999023438e+01,-3.023314774036407471e-01,-1.036670150756835938e+02,-1.054565191268920898e+00,-2.069221973419189453e+00,-8.509759902954101562e+00,-2.466099103912711143e-04,-1.019711732864379883e+00,-1.727962493896484375e+00,-9.243044187314808369e-04,8.888138532638549805e-01,-2.385786771774291992e+00,-2.216160148382186890e-01,1.000000000000000000e+00,3.405507421121001244e-03,0.000000000000000000e+00
1.168572425842285156e+00,6.582778930664062500e+02,3.209627914428710938e+01,3.209627914428710938e+01,-3.779006898403167725e-01,-1.037925491333007812e+02,-1.132629394531250000e+00,-2.115356683731079102e+00,-8.613742828369140625e+00,-1.562669349368661642e-04,-6.274355053901672363e-01,-1.414175510406494141e+00,1.228671171702444553e-03,7.605737447738647461e-01,-7.066535949707031250e-01,-2.397330999374389648e+00,1.000000000000000000e+00,-1.211293507367372513e-02,0.000000000000000000e+00
1.168572425842285156e+00,6.582778930664062500e+02,3.209627914428710938e+01,3.209627914428710938e+01,-3.779006898403167725e-01,-1.037925491333007812e+02,-1.132629394531250000e+00,-2.115356683731079102e+00,-8.613742828369140625e+00,-1.562669349368661642e-04,-6.274355053901672363e-01,-1.414175510406494141e+00,1.228671171702444553e-03,7.605737447738647461e-01,-7.066535949707031250e-01,-2.397330999374389648e+00,1.000000000000000000e+00,-1.211293507367372513e-02,0.000000000000000000e+00
1.168572425842285156e+00,6.582778930664062500e+02,3.209627914428710938e+01,3.209627914428710938e+01,-3.779006898403167725e-01,-1.037925491333007812e+02,-1.132629394531250000e+00,-2.115356683731079102e+00,-8.613742828369140625e+00,-1.562669349368661642e-04,-6.274355053901672363e-01,-1.414175510406494141e+00,1.228671171702444553e-03,7.605737447738647461e-01,-7.066535949707031250e-01,-2.397330999374389648e+00,1.000000000000000000e+00,-1.211293507367372513e-02,0.000000000000000000e+00
1.168572425842285156e+00,6.582778930664062500e+02,3.209627914428710938e+01,3.209627914428710938e+01,-3.779006898403167725e-01,-1.037925491333007812e+02,-1.132629394531250000e+00,-2.115356683731079102e+00,-8.613742828369140625e+00,-1.562669349368661642e-04,-6.274355053901672363e-01,-1.414175510406494141e+00,1.228671171702444553e-03,7.605737447738647461e-01,-7.066535949707031250e-01,-2.397330999374389648e+00,1.000000000000000000e+00,-1.211293507367372513e-02,0.000000000000000000e+00
1.168572425842285156e+00,6.581193847656250000e+02,3.145879173278808594e+01,3.145879173278808594e+01,-4.221808016300201416e-01,-1.039556350708007812e+02,-1.104461550712585449e+00,-2.156789779663085938e+00,-8.718247413635253906e+00,1.728757160890381783e-05,-5.520846843719482422e-01,-1.392494916915893555e+00,2.312566386535763741e-03,6.101709604263305664e-01,7.522751688957214355e-01,-2.173190593719482422e+00,1.000000000000000000e+00,-8.892313577234745026e-03,0.000000000000000000e+00
1.243620872497558594e+00,6.581193847656250000e+02,3.145879173278808594e+01,3.145879173278808594e+01,-4.221808016300201416e-01,-1.039556350708007812e+02,-1.104461550712585449e+00,-2.156789779663085938e+00,-8.718247413635253906e+00,1.728757160890381783e-05,-5.520846843719482422e-01,-1.392494916915893555e+00,2.312566386535763741e-03,6.101709604263305664e-01,7.522751688957214355e-01,-2.173190593719482422e+00,1.000000000000000000e+00,-8.892313577234745026e-03,0.000000000000000000e+00
1.243620872497558594e+00,6.581193847656250000e+02,3.145879173278808594e+01,3.145879173278808594e+01,-4.221808016300201416e-01,-1.039556350708007812e+02,-1.104461550712585449e+00,-2.156789779663085938e+00,-8.718247413635253906e+00,1.728757160890381783e-05,-5.520846843719482422e-01,-1.392494916915893555e+00,2.312566386535763741e-03,6.101709604263305664e-01,7.522751688957214355e-01,-2.173190593719482422e+00,1.000000000000000000e+00,-8.892313577234745026e-03,0.000000000000000000e+00
1.243620872497558594e+00,6.581193847656250000e+02,3.145879173278808594e+01,3.145879173278808594e+01,-4.221808016300201416e-01,-1.039556350708007812e+02,-1.104461550712585449e+00,-2.156789779663085938e+00,-8.718247413635253906e+00,1.728757160890381783e-05,-5.520846843719482422e-01,-1.392494916915893555e+00,2.312566386535763741e-03,6.101709604263305664e-01,7.522751688957214355e-01,-2.173190593719482422e+00,1.000000000000000000e+00,-8.892313577234745026e-03,0.000000000000000000e+00
1.312042951583862305e+00,6.579545288085937500e+02,3.080027961730957031e+01,3.080027961730957031e+01,-4.360392391681671143e-01,-1.040549850463867188e+02,-9.918213486671447754e-01,-2.194052457809448242e+00,-8.819350242614746094e+00,1.792733819456771016e-04,-5.446001887321472168e-01,-1.477634549140930176e+00,2.367449458688497543e-03,4.988906979560852051e-01,1.773902654647827148e+00,-1.025629162788391113e+00,1.000000000000000000e+00,-3.213246585801243782e-03,0.000000000000000000e+00
1.312042951583862305e+00,6.579545288085937500e+02,3.080027961730957031e+01,3.080027961730957031e+01,-4.360392391681671143e-01,-1.040549850463867188e+02,-9.918213486671447754e-01,-2.194052457809448242e+00,-8.819350242614746094e+00,1.792733819456771016e-04,-5.446001887321472168e-01,-1.477634549140930176e+00,2.367449458688497543e-03,4.988906979560852051e-01,1.773902654647827148e+00,-1.025629162788391113e+00,1.000000000000000000e+00,-3.213246585801243782e-03,0.000000000000000000e+00
1.383129358291625977e+00,6.577996826171875000e+02,3.019409561157226562e+01,3.019409561157226562e+01,-4.306024312973022461e-01,-1.043278121948242188e+02,-8.737183213233947754e-01,-2.249969482421875000e+00,-8.899177551269531250e+00,2.433157642371952534e-04,-7.866064310073852539e-01,-1.122961640357971191e+00,9.009089553728699684e-04,2.445009946823120117e-01,1.589595198631286621e+00,-5.055991172790527344e+00,1.000000000000000000e+00,-2.447128295898437500e-02,0.000000000000000000e+00
1.383129358291625977e+00,6.577996826171875000e+02,3.019409561157226562e+01,3.019409561157226562e+01,-4.306024312973022461e-01,-1.043278121948242188e+02,-8.737183213233947754e-01,-2.249969482421875000e+00,-8.899177551269531250e+00,2.433157642371952534e-04,-7.866064310073852539e-01,-1.122961640357971191e+00,9.009089553728699684e-04,2.445009946823120117e-01,1.589595198631286621e+00,-5.055991172790527344e+00,1.000000000000000000e+00,-2.447128295898437500e-02,0.000000000000000000e+00
1.383129358291625977e+00,6.577996826171875000e+02,3.019409561157226562e+01,3.019409561157226562e+01,-4.306024312973022461e-01,-1.043278121948242188e+02,-8.737183213233947754e-01,-2.249969482421875000e+00,-8.899177551269531250e+00,2.433157642371952534e-04,-7.866064310073852539e-01,-1.122961640357971191e+00,9.009089553728699684e-04,2.445009946823120117e-01,1.589595198631286621e+00,-5.055991172790527344e+00,1.000000000000000000e+00,-2.447128295898437500e-02,0.000000000000000000e+00
1.450951814651489258e+00,6.576342163085937500e+02,2.955883979797363281e+01,2.955883979797363281e+01,-4.138206541538238525e-01,-1.046716384887695312e+02,-7.859800457954406738e-01,-2.316958427429199219e+00,-8.973940849304199219e+00,2.201148890890181065e-04,-9.877104163169860840e-01,-1.102338433265686035e+00,-3.420824941713362932e-04,-3.785107284784317017e-02,9.524818658828735352e-01,-4.802930831909179688e+00,1.000000000000000000e+00,-1.834742166101932526e-02,0.000000000000000000e+00
1.450951814651489258e+00,6.576342163085937500e+02,2.955883979797363281e+01,2.955883979797363281e+01,-4.138206541538238525e-01,-1.046716384887695312e+02,-7.859800457954406738e-01,-2.316958427429199219e+00,-8.973940849304199219e+00,2.201148890890181065e-04,-9.877104163169860840e-01,-1.102338433265686035e+00,-3.420824941713362932e-04,-3.785107284784317017e-02,9.524818658828735352e-01,-4.802930831909179688e+00,1.000000000000000000e+00,-1.834742166101932526e-02,0.000000000000000000e+00
1.450951814651489258e+00,6.576342163085937500e+02,2.955883979797363281e+01,2.955883979797363281e+01,-4.138206541538238525e-01,-1.046716384887695312e+02,-7.859800457954406738e-01,-2.316958427429199219e+00,-8.973940849304199219e+00,2.201148890890181065e-04,-9.877104163169860840e-01,-1.102338433265686035e+00,-3.420824941713362932e-04,-3.785107284784317017e-02,9.524818658828735352e-01,-4.802930831909179688e+00,1.000000000000000000e+00,-1.834742166101932526e-02,0.000000000000000000e+00
1.527701377868652344e+00,6.574727783203125000e+02,2.894778442382812500e+01,2.894778442382812500e+01,-3.927836716175079346e-01,-1.048947219848632812e+02,-7.439268827438354492e-01,-2.376980304718017578e+00,-9.040764808654785156e+00,1.550082670291885734e-04,-7.820484638214111328e-01,-8.706754446029663086e-01,-8.482995908707380295e-04,-2.010220438241958618e-01,5.112656950950622559e-01,-2.734512567520141602e+00,1.000000000000000000e+00,-7.585398387163877487e-03,0.000000000000000000e+00
1.527701377868652344e+00,6.574727783203125000e+02,2.894778442382812500e+01,2.894778442382812500e+01,-3.927836716175079346e-01,-1.048947219848632812e+02,-7.439268827438354492e-01,-2.376980304718017578e+00,-9.040764808654785156e+00,1.550082670291885734e-04,-7.820484638214111328e-01,-8.706754446029663086e-01,-8.482995908707380295e-04,-2.010220438241958618e-01,5.112656950950622559e-01,-2.734512567520141602e+00,1.000000000000000000e+00,-7.585398387163877487e-03,0.000000000000000000e+00
1.527701377868652344e+00,6.574727783203125000e+02,2.894778442382812500e+01,2.894778442382812500e+01,-3.927836716175079346e-01,-1.048947219848632812e+02,-7.439268827438354492e-01,-2.376980304718017578e+00,-9.040764808654785156e+00,1.550082670291885734e-04,-7.820484638214111328e-01,-8.706754446029663086e-01,-8.482995908707380295e-04,-2.010220438241958618e-01,5.112656950950622559e-01,-2.734512567520141602e+00,1.000000000000000000e+00,-7.585398387163877487e-03,0.000000000000000000e+00
1.600134611129760742e+00,6.572841186523437500e+02,2.825135421752929688e+01,2.825135421752929688e+01,-3.667264878749847412e-01,-1.052646636962890625e+02,-7.470702528953552246e-01,-2.457866907119750977e+00,-9.106420516967773438e+00,7.718808046774938703e-05,-1.116705656051635742e+00,-9.064307212829589844e-01,-1.074371277354657650e-03,-4.151876568794250488e-01,-2.282114475965499878e-01,-5.526455879211425781e+00,1.000000000000000000e+00,-2.307993546128273010e-02,0.000000000000000000e+00
1.600134611129760742e+00,6.572841186523437500e+02,2.825135421752929688e+01,2.825135421752929688e+01,-3.667264878749847412e-01,-1.052646636962890625e+02,-7.470702528953552246e-01,-2.457866907119750977e+00,-9.106420516967773438e+00,7.718808046774938703e-05,-1.116705656051635742e+00,-9.064307212829589844e-01,-1.074371277354657650e-03,-4.151876568794250488e-01,-2.282114475965499878e-01,-5.526455879211425781e+00,1.000000000000000000e+00,-2.307993546128273010e-02,0.000000000000000000e+00
1.600134611129760742e+00,6.572841186523437500e+02,2.825135421752929688e+01,2.825135421752929688e+01,-3.667264878749847412e-01,-1.052646636962890625e+02,-7.470702528953552246e-01,-2.457866907119750977e+00,-9.106420516967773438e+00,7.718808046774938703e-05,-1.116705656051635742e+00,-9.064307212829589844e-01,-1.074371277354657650e-03,-4.151876568794250488e-01,-2.282114475965499878e-01,-5.526455879211425781e+00,1.000000000000000000e+00,-2.307993546128273010e-02,0.000000000000000000e+00
1.600134611129760742e+00,6.572841186523437500e+02,2.825135421752929688e+01,2.825135421752929688e+01,-3.667264878749847412e-01,-1.052646636962890625e+02,-7.470702528953552246e-01,-2.457866907119750977e+00,-9.106420516967773438e+00,7.718808046774938703e-05,-1.116705656051635742e+00,-9.064307212829589844e-01,-1.074371277354657650e-03,-4.151876568794250488e-01,-2.282114475965499878e-01,-5.526455879211425781e+00,1.000000000000000000e+00,-2.307993546128273010e-02,0.000000000000000000e+00
1.600134611129760742e+00,6.572841186523437500e+02,2.825135421752929688e+01,2.825135421752929688e+01,-3.667264878749847412e-01,-1.052646636962890625e+02,-7.470702528953552246e-01,-2.457866907119750977e+00,-9.106420516967773438e+00,7.718808046774938703e-05,-1.116705656051635742e+00,-9.064307212829589844e-01,-1.074371277354657650e-03,-4.151876568794250488e-01,-2.282114475965499878e-01,-5.526455879211425781e+00,1.000000000000000000e+00,-2.307993546128273010e-02,0.000000000000000000e+00
1.600134611129760742e+00,6.571011352539062500e+02,2.758955955505371094e+01,2.758955955505371094e+01,-3.426500856876373291e-01,-1.055775527954101562e+02,-7.865294814109802246e-01,-2.527970314025878906e+00,-9.164443969726562500e+00,9.840493476076517254e-06,-6.075931787490844727e-01,-5.028949975967407227e-01,-5.837082280777394772e-04,-4.982263147830963135e-01,-5.703970193862915039e-01,-3.921453952789306641e+00,1.000000000000000000e+00,-1.274871826171875000e-02,0.000000000000000000e+00
1.715513467788696289e+00,6.571011352539062500e+02,2.758955955505371094e+01,2.758955955505371094e+01,-3.426500856876373291e-01,-1.055775527954101562e+02,-7.865294814109802246e-01,-2.527970314025878906e+00,-9.164443969726562500e+00,9.840493476076517254e-06,-6.075931787490844727e-01,-5.028949975967407227e-01,-5.837082280777394772e-04,-4.982263147830963135e-01,-5.703970193862915039e-01,-3.921453952789306641e+00,1.000000000000000000e+00,-1.274871826171875000e-02,0.000000000000000000e+00
1.715513467788696289e+00,6.571011352539062500e+02,2.758955955505371094e+01,2.758955955505371094e+01,-3.426500856876373291e-01,-1.055775527954101562e+02,-7.865294814109802246e-01,-2.527970314025878906e+00,-9.164443969726562500e+00,9.840493476076517254e-06,-6.075931787490844727e-01,-5.028949975967407227e-01,-5.837082280777394772e-04,-4.982263147830963135e-01,-5.703970193862915039e-01,-3.921453952789306641e+00,1.000000000000000000e+00,-1.274871826171875000e-02,0.000000000000000000e+00
1.715513467788696289e+00,6.568432006835937500e+02,2.666851997375488281e+01,2.666851997375488281e+01,-3.106369972229003906e-01,-1.057506942749023438e+02,-8.269958496093750000e-01,-2.595462322235107422e+00,-9.244245529174804688e+00,-2.719425719988066703e-05,-6.915047764778137207e-01,-8.176251053810119629e-01,-3.794479998759925365e-04,-3.154883384704589844e-01,1.295131817460060120e-02,-1.025036692619323730e+00,1.000000000000000000e+00,-1.880137133412063122e-03,0.000000000000000000e+00
1.813115119934082031e+00,6.568432006835937500e+02,2.666851997375488281e+01,2.666851997375488281e+01,-3.106369972229003906e-01,-1.057506942749023438e+02,-8.269958496093750000e-01,-2.595462322235107422e+00,-9.244245529174804688e+00,-2.719425719988066703e-05,-6.915047764778137207e-01,-8.176251053810119629e-01,-3.794479998759925365e-04,-3.154883384704589844e-01,1.295131817460060120e-02,-1.025036692619323730e+00,1.000000000000000000e+00,-1.880137133412063122e-03,0.000000000000000000e+00
1.813115119934082031e+00,6.568432006835937500e+02,2.666851997375488281e+01,2.666851997375488281e+01,-3.106369972229003906e-01,-1.057506942749023438e+02,-8.269958496093750000e-01,-2.595462322235107422e+00,-9.244245529174804688e+00,-2.719425719988066703e-05,-6.915047764778137207e-01,-8.176251053810119629e-01,-3.794479998759925365e-04,-3.154883384704589844e-01,1.295131817460060120e-02,-1.025036692619323730e+00,1.000000000000000000e+00,-1.880137133412063122e-03,0.000000000000000000e+00
1.813115119934082031e+00,6.568432006835937500e+02,2.666851997375488281e+01,2.666851997375488281e+01,-3.106369972229003906e-01,-1.057506942749023438e+02,-8.269958496093750000e-01,-2.595462322235107422e+00,-9.244245529174804688e+00,-2.719425719988066703e-05,-6.915047764778137207e-01,-8.176251053810119629e-01,-3.794479998759925365e-04,-3.154883384704589844e-01,1.295131817460060120e-02,-1.025036692619323730e+00,1.000000000000000000e+00,-1.880137133412063122e-03,0.000000000000000000e+00
1.813115119934082031e+00,6.565826416015625000e+02,2.576303672790527344e+01,2.576303672790527344e+01,-2.825307548046112061e-01,-1.061557083129882812e+02,-8.287047743797302246e-01,-2.672793626785278320e+00,-9.309866905212402344e+00,-1.201434133690781891e-05,-9.314810037612915039e-01,-7.904310822486877441e-01,1.828470849432051182e-04,-2.827813029289245605e-01,2.158675901591777802e-02,-5.143371105194091797e+00,1.000000000000000000e+00,-2.133814431726932526e-02,0.000000000000000000e+00
1.896134853363037109e+00,6.565826416015625000e+02,2.576303672790527344e+01,2.576303672790527344e+01,-2.825307548046112061e-01,-1.061557083129882812e+02,-8.287047743797302246e-01,-2.672793626785278320e+00,-9.309866905212402344e+00,-1.201434133690781891e-05,-9.314810037612915039e-01,-7.904310822486877441e-01,1.828470849432051182e-04,-2.827813029289245605e-01,2.158675901591777802e-02,-5.143371105194091797e+00,1.000000000000000000e+00,-2.133814431726932526e-02,0.000000000000000000e+00
1.896134853363037109e+00,6.565826416015625000e+02,2.576303672790527344e+01,2.576303672790527344e+01,-2.825307548046112061e-01,-1.061557083129882812e+02,-8.287047743797302246e-01,-2.672793626785278320e+00,-9.309866905212402344e+00,-1.201434133690781891e-05,-9.314810037612915039e-01,-7.904310822486877441e-01,1.828470849432051182e-04,-2.827813029289245605e-01,2.158675901591777802e-02,-5.143371105194091797e+00,1.000000000000000000e+00,-2.133814431726932526e-02,0.000000000000000000e+00
1.896134853363037109e+00,6.565826416015625000e+02,2.576303672790527344e+01,2.576303672790527344e+01,-2.825307548046112061e-01,-1.061557083129882812e+02,-8.287047743797302246e-01,-2.672793626785278320e+00,-9.309866905212402344e+00,-1.201434133690781891e-05,-9.314810037612915039e-01,-7.904310822486877441e-01,1.828470849432051182e-04,-2.827813029289245605e-01,2.158675901591777802e-02,-5.143371105194091797e+00,1.000000000000000000e+00,-2.133814431726932526e-02,0.000000000000000000e+00
1.896134853363037109e+00,6.565826416015625000e+02,2.576303672790527344e+01,2.576303672790527344e+01,-2.825307548046112061e-01,-1.061557083129882812e+02,-8.287047743797302246e-01,-2.672793626785278320e+00,-9.309866905212402344e+00,-1.201434133690781891e-05,-9.314810037612915039e-01,-7.904310822486877441e-01,1.828470849432051182e-04,-2.827813029289245605e-01,2.158675901591777802e-02,-5.143371105194091797e+00,1.000000000000000000e+00,-2.133814431726932526e-02,0.000000000000000000e+00
1.896134853363037109e+00,6.565826416015625000e+02,2.576303672790527344e+01,2.576303672790527344e+01,-2.825307548046112061e-01,-1.061557083129882812e+02,-8.287047743797302246e-01,-2.672793626785278320e+00,-9.309866905212402344e+00,-1.201434133690781891e-05,-9.314810037612915039e-01,-7.904310822486877441e-01,1.828470849432051182e-04,-2.827813029289245605e-01,2.158675901591777802e-02,-5.143371105194091797e+00,1.000000000000000000e+00,-2.133814431726932526e-02,0.000000000000000000e+00
1.896134853363037109e+00,6.565826416015625000e+02,2.576303672790527344e+01,2.576303672790527344e+01,-2.825307548046112061e-01,-1.061557083129882812e+02,-8.287047743797302246e-01,-2.672793626785278320e+00,-9.309866905212402344e+00,-1.201434133690781891e-05,-9.314810037612915039e-01,-7.904310822486877441e-01,1.828470849432051182e-04,-2.827813029289245605e-01,2.158675901591777802e-02,-5.143371105194091797e+00,1.000000000000000000e+00,-2.133814431726932526e-02,0.000000000000000000e+00
1.896134853363037109e+00,6.565826416015625000e+02,2.576303672790527344e+01,2.576303672790527344e+01,-2.825307548046112061e-01,-1.061557083129882812e+02,-8.287047743797302246e-01,-2.672793626785278320e+00,-9.309866905212402344e+00,-1.201434133690781891e-05,-9.314810037612915039e-01,-7.904310822486877441e-01,1.828470849432051182e-04,-2.827813029289245605e-01,2.158675901591777802e-02,-5.143371105194091797e+00,1.000000000000000000e+00,-2.133814431726932526e-02,0.000000000000000000e+00
2.195794820785522461e+00,6.558168334960937500e+02,2.322454071044921875e+01,2.322454071044921875e+01,-2.168584913015365601e-01,-1.073367614746093750e+02,-9.703977704048156738e-01,-2.921204090118408203e+00,-9.441672325134277344e+00,-8.762986544752493501e-05,-1.457449197769165039e+00,-7.088811993598937988e-01,-6.393005605787038803e-04,-4.362924695014953613e-01,-6.792994737625122070e-01,-2.837867259979248047e+00,1.000000000000000000e+00,-7.199096493422985077e-03,0.000000000000000000e+00
2.195794820785522461e+00,6.558168334960937500e+02,2.322454071044921875e+01,2.322454071044921875e+01,-2.168584913015365601e-01,-1.073367614746093750e+02,-9.703977704048156738e-01,-2.921204090118408203e+00,-9.441672325134277344e+00,-8.762986544752493501e-05,-1.457449197769165039e+00,-7.088811993598937988e-01,-6.393005605787038803e-04,-4.362924695014953613e-01,-6.792994737625122070e-01,-2.837867259979248047e+00,1.000000000000000000e+00,-7.199096493422985077e-03,0.000000000000000000e+00
2.195794820785522461e+00,6.558168334960937500e+02,2.322454071044921875e+01,2.322454071044921875e+01,-2.168584913015365601e-01,-1.073367614746093750e+02,-9.703977704048156738e-01,-2.921204090118408203e+00,-9.441672325134277344e+00,-8.762986544752493501e-05,-1.457449197769165039e+00,-7.088811993598937988e-01,-6.393005605787038803e-04,-4.362924695014953613e-01,-6.792994737625122070e-01,-2.837867259979248047e+00,1.000000000000000000e+00,-7.199096493422985077e-03,0.000000000000000000e+00
2.195794820785522461e+00,6.558168334960937500e+02,2.322454071044921875e+01,2.322454071044921875e+01,-2.168584913015365601e-01,-1.073367614746093750e+02,-9.703977704048156738e-01,-2.921204090118408203e+00,-9.441672325134277344e+00,-8.762986544752493501e-05,-1.457449197769165039e+00,-7.088811993598937988e-01,-6.393005605787038803e-04,-4.362924695014953613e-01,-6.792994737625122070e-01,-2.837867259979248047e+00,1.000000000000000000e+00,-7.199096493422985077e-03,0.000000000000000000e+00
2.195794820785522461e+00,6.558168334960937500e+02,2.322454071044921875e+01,2.322454071044921875e+01,-2.168584913015365601e-01,-1.073367614746093750e+02,-9.703977704048156738e-01,-2.921204090118408203e+00,-9.441672325134277344e+00,-8.762986544752493501e-05,-1.457449197769165039e+00,-7.088811993598937988e-01,-6.393005605787038803e-04,-4.362924695014953613e-01,-6.792994737625122070e-01,-2.837867259979248047e+00,1.000000000000000000e+00,-7.199096493422985077e-03,0.000000000000000000e+00
2.195794820785522461e+00,6.558168334960937500e+02,2.322454071044921875e+01,2.322454071044921875e+01,-2.168584913015365601e-01,-1.073367614746093750e+02,-9.703977704048156738e-01,-2.921204090118408203e+00,-9.441672325134277344e+00,-8.762986544752493501e-05,-1.457449197769165039e+00,-7.088811993598937988e-01,-6.393005605787038803e-04,-4.362924695014953613e-01,-6.792994737625122070e-01,-2.837867259979248047e+00,1.000000000000000000e+00,-7.199096493422985077e-03,0.000000000000000000e+00
2.195794820785522461e+00,6.558168334960937500e+02,2.322454071044921875e+01,2.322454071044921875e+01,-2.168584913015365601e-01,-1.073367614746093750e+02,-9.703977704048156738e-01,-2.921204090118408203e+00,-9.441672325134277344e+00,-8.762986544752493501e-05,-1.457449197769165039e+00,-7.088811993598937988e-01,-6.393005605787038803e-04,-4.362924695014953613e-01,-6.792994737625122070e-01,-2.837867259979248047e+00,1.000000000000000000e+00,-7.199096493422985077e-03,0.000000000000000000e+00
2.195794820785522461e+00,6.558168334960937500e+02,2.322454071044921875e+01,2.322454071044921875e+01,-2.168584913015365601e-01,-1.073367614746093750e+02,-9.703977704048156738e-01,-2.921204090118408203e+00,-9.441672325134277344e+00,-8.762986544752493501e-05,-1.457449197769165039e+00,-7.088811993598937988e-01,-6.393005605787038803e-04,-4.362924695014953613e-01,-6.792994737625122070e-01,-2.837867259979248047e+00,1.000000000000000000e+00,-7.199096493422985077e-03,0.000000000000000000e+00
2.195794820785522461e+00,6.558168334960937500e+02,2.322454071044921875e+01,2.322454071044921875e+01,-2.168584913015365601e-01,-1.073367614746093750e+02,-9.703977704048156738e-01,-2.921204090118408203e+00,-9.441672325134277344e+00,-8.762986544752493501e-05,-1.457449197769165039e+00,-7.088811993598937988e-01,-6.393005605787038803e-04,-4.362924695014953613e-01,-6.792994737625122070e-01,-2.837867259979248047e+00,1.000000000000000000e+00,-7.199096493422985077e-03,0.000000000000000000e+00
2.195794820785522461e+00,6.558168334960937500e+02,2.322454071044921875e+01,2.322454071044921875e+01,-2.168584913015365601e-01,-1.073367614746093750e+02,-9.703977704048156738e-01,-2.921204090118408203e+00,-9.441672325134277344e+00,-8.762986544752493501e-05,-1.457449197769165039e+00,-7.088811993598937988e-01,-6.393005605787038803e-04,-4.362924695014953613e-01,-6.792994737625122070e-01,-2.837867259979248047e+00,1.000000000000000000e+00,-7.199096493422985077e-03,0.000000000000000000e+00
2.374083757400512695e+00,6.556590576171875000e+02,2.272312736511230469e+01,2.272312736511230469e+01,-2.059370279312133789e-01,-1.075518264770507812e+02,-1.010131716728210449e+00,-2.969340562820434570e+00,-9.461314201354980469e+00,-9.290415619034320116e-05,-2.699913680553436279e-01,-1.101687848567962646e-01,-2.958282675535883754e-05,-4.054819941520690918e-01,-6.091430783271789551e-01,-4.493576526641845703e+00,1.000000000000000000e+00,-1.868515089154243469e-02,0.000000000000000000e+00
2.374083757400512695e+00,6.556590576171875000e+02,2.272312736511230469e+01,2.272312736511230469e+01,-2.059370279312133789e-01,-1.075518264770507812e+02,-1.010131716728210449e+00,-2.969340562820434570e+00,-9.461314201354980469e+00,-9.290415619034320116e-05,-2.699913680553436279e-01,-1.101687848567962646e-01,-2.958282675535883754e-05,-4.054819941520690918e-01,-6.091430783271789551e-01,-4.493576526641845703e+00,1.000000000000000000e+00,-1.868515089154243469e-02,0.000000000000000000e+00
2.374083757400512695e+00,6.556590576171875000e+02,2.272312736511230469e+01,2.272312736511230469e+01,-2.059370279312133789e-01,-1.075518264770507812e+02,-1.010131716728210449e+00,-2.969340562820434570e+00,-9.461314201354980469e+00,-9.290415619034320116e-05,-2.699913680553436279e-01,-1.101687848567962646e-01,-2.958282675535883754e-05,-4.054819941520690918e-01,-6.091430783271789551e-01,-4.493576526641845703e+00,1.000000000000000000e+00,-1.868515089154243469e-02,0.000000000000000000e+00
2.447860002517700195e+00,6.553549804687500000e+02,2.177546501159667969e+01,2.177546501159667969e+01,-1.856376975774765015e-01,-1.079466934204101562e+02,-1.055236697196960449e+00,-3.049361228942871094e+00,-9.496931076049804688e+00,-7.336347334785386920e-05,-1.084640026092529297e+00,-4.827688932418823242e-01,2.648641529958695173e-04,-2.758561968803405762e-01,-2.160725891590118408e-01,-3.802141666412353516e+00,1.000000000000000000e+00,-1.297454815357923508e-02,0.000000000000000000e+00
2.447860002517700195e+00,6.553549804687500000e+02,2.177546501159667969e+01,2.177546501159667969e+01,-1.856376975774765015e-01,-1.079466934204101562e+02,-1.055236697196960449e+00,-3.049361228942871094e+00,-9.496931076049804688e+00,-7.336347334785386920e-05,-1.084640026092529297e+00,-4.827688932418823242e-01,2.648641529958695173e-04,-2.758561968803405762e-01,-2.160725891590118408e-01,-3.802141666412353516e+00,1.000000000000000000e+00,-1.297454815357923508e-02,0.000000000000000000e+00
2.500878810882568359e+00,6.551273803710937500e+02,2.107372665405273438e+01,2.107372665405273438e+01,-1.717246025800704956e-01,-1.080648803710937500e+02,-1.040954589843750000e+00,-3.088431119918823242e+00,-9.526012420654296875e+00,-2.555469836806878448e-05,-7.369062304496765137e-01,-5.485099554061889648e-01,9.017323609441518784e-04,-1.317047141492366791e-02,5.562807917594909668e-01,-7.975409626960754395e-01,1.000000000000000000e+00,6.820678827352821827e-04,0.000000000000000000e+00
2.500878810882568359e+00,6.551273803710937500e+02,2.107372665405273438e+01,2.107372665405273438e+01,-1.717246025800704956e-01,-1.080648803710937500e+02,-1.040954589843750000e+00,-3.088431119918823242e+00,-9.526012420654296875e+00,-2.555469836806878448e-05,-7.369062304496765137e-01,-5.485099554061889648e-01,9.017323609441518784e-04,-1.317047141492366791e-02,5.562807917594909668e-01,-7.975409626960754395e-01,1.000000000000000000e+00,6.820678827352821827e-04,0.000000000000000000e+00
2.560195446014404297e+00,6.549610595703125000e+02,2.056851005554199219e+01,2.056851005554199219e+01,-1.624150574207305908e-01,-1.082398529052734375e+02,-1.009643554687500000e+00,-3.125410795211791992e+00,-9.541975975036621094e+00,1.807926673791371286e-05,-6.234284043312072754e-01,-2.691244184970855713e-01,7.356108981184661388e-04,3.714840486645698547e-02,6.699606180191040039e-01,-4.220581054687500000e+00,1.000000000000000000e+00,-2.114105224609375000e-02,0.000000000000000000e+00
2.560195446014404297e+00,6.549610595703125000e+02,2.056851005554199219e+01,2.056851005554199219e+01,-1.624150574207305908e-01,-1.082398529052734375e+02,-1.009643554687500000e+00,-3.125410795211791992e+00,-9.541975975036621094e+00,1.807926673791371286e-05,-6.234284043312072754e-01,-2.691244184970855713e-01,7.356108981184661388e-04,3.714840486645698547e-02,6.699606180191040039e-01,-4.220581054687500000e+00,1.000000000000000000e+00,-2.114105224609375000e-02,0.000000000000000000e+00
2.560195446014404297e+00,6.549610595703125000e+02,2.056851005554199219e+01,2.056851005554199219e+01,-1.624150574207305908e-01,-1.082398529052734375e+02,-1.009643554687500000e+00,-3.125410795211791992e+00,-9.541975975036621094e+00,1.807926673791371286e-05,-6.234284043312072754e-01,-2.691244184970855713e-01,7.356108981184661388e-04,3.714840486645698547e-02,6.699606180191040039e-01,-4.220581054687500000e+00,1.000000000000000000e+00,-2.114105224609375000e-02,0.000000000000000000e+00
2.618730545043945312e+00,6.547720947265625000e+02,2.000249099731445312e+01,2.000249099731445312e+01,-1.520741581916809082e-01,-1.085109786987304688e+02,-9.700011014938354492e-01,-3.168153047561645508e+00,-9.557750701904296875e+00,4.305200855014845729e-05,-7.301986813545227051e-01,-2.694917619228363037e-01,4.266285104677081108e-04,3.167909383773803711e-02,6.371224522590637207e-01,-4.738659858703613281e+00,1.000000000000000000e+00,-1.784998551011085510e-02,0.000000000000000000e+00
2.618730545043945312e+00,6.547720947265625000e+02,2.000249099731445312e+01,2.000249099731445312e+01,-1.520741581916809082e-01,-1.085109786987304688e+02,-9.700011014938354492e-01,-3.168153047561645508e+00,-9.557750701904296875e+00,4.305200855014845729e-05,-7.301986813545227051e-01,-2.694917619228363037e-01,4.266285104677081108e-04,3.167909383773803711e-02,6.371224522590637207e-01,-4.738659858703613281e+00,1.000000000000000000e+00,-1.784998551011085510e-02,0.000000000000000000e+00
2.677334070205688477e+00,6.545834350585937500e+02,1.944299697875976562e+01,1.944299697875976562e+01,-1.422728300094604492e-01,-1.087324142456054688e+02,-9.381712675094604492e-01,-3.211573600769042969e+00,-9.571258544921875000e+00,4.608433664543554187e-05,-7.409204840660095215e-01,-2.304953932762145996e-01,5.174309990252368152e-05,-2.407844178378582001e-03,5.043170452117919922e-01,-3.458597421646118164e+00,1.000000000000000000e+00,-9.947204962372779846e-03,0.000000000000000000e+00
2.677334070205688477e+00,6.545834350585937500e+02,1.944299697875976562e+01,1.944299697875976562e+01,-1.422728300094604492e-01,-1.087324142456054688e+02,-9.381712675094604492e-01,-3.211573600769042969e+00,-9.571258544921875000e+00,4.608433664543554187e-05,-7.409204840660095215e-01,-2.304953932762145996e-01,5.174309990252368152e-05,-2.407844178378582001e-03,5.043170452117919922e-01,-3.458597421646118164e+00,1.000000000000000000e+00,-9.947204962372779846e-03,0.000000000000000000e+00
2.677334070205688477e+00,6.545834350585937500e+02,1.944299697875976562e+01,1.944299697875976562e+01,-1.422728300094604492e-01,-1.087324142456054688e+02,-9.381712675094604492e-01,-3.211573600769042969e+00,-9.571258544921875000e+00,4.608433664543554187e-05,-7.409204840660095215e-01,-2.304953932762145996e-01,5.174309990252368152e-05,-2.407844178378582001e-03,5.043170452117919922e-01,-3.458597421646118164e+00,1.000000000000000000e+00,-9.947204962372779846e-03,0.000000000000000000e+00
2.677334070205688477e+00,6.543908691406250000e+02,1.888251495361328125e+01,1.888251495361328125e+01,-1.330793946981430054e-01,-1.090557174682617188e+02,-9.335937500000000000e-01,-3.270900487899780273e+00,-9.577453613281250000e+00,2.324717388546559960e-05,-7.636278271675109863e-01,-7.974001020193099976e-02,-2.939492405857890844e-04,-1.926668286323547363e-01,-8.835973590612411499e-02,-6.254486560821533203e+00,1.000000000000000000e+00,-2.595927007496356964e-02,0.000000000000000000e+00
2.755024909973144531e+00,6.543908691406250000e+02,1.888251495361328125e+01,1.888251495361328125e+01,-1.330793946981430054e-01,-1.090557174682617188e+02,-9.335937500000000000e-01,-3.270900487899780273e+00,-9.577453613281250000e+00,2.324717388546559960e-05,-7.636278271675109863e-01,-7.974001020193099976e-02,-2.939492405857890844e-04,-1.926668286323547363e-01,-8.835973590612411499e-02,-6.254486560821533203e+00,1.000000000000000000e+00,-2.595927007496356964e-02,0.000000000000000000e+00
2.755024909973144531e+00,6.543908691406250000e+02,1.888251495361328125e+01,1.888251495361328125e+01,-1.330793946981430054e-01,-1.090557174682617188e+02,-9.335937500000000000e-01,-3.270900487899780273e+00,-9.577453613281250000e+00,2.324717388546559960e-05,-7.636278271675109863e-01,-7.974001020193099976e-02,-2.939492405857890844e-04,-1.926668286323547363e-01,-8.835973590612411499e-02,-6.254486560821533203e+00,1.000000000000000000e+00,-2.595927007496356964e-02,0.000000000000000000e+00
2.755024909973144531e+00,6.543908691406250000e+02,1.888251495361328125e+01,1.888251495361328125e+01,-1.330793946981430054e-01,-1.090557174682617188e+02,-9.335937500000000000e-01,-3.270900487899780273e+00,-9.577453613281250000e+00,2.324717388546559960e-05,-7.636278271675109863e-01,-7.974001020193099976e-02,-2.939492405857890844e-04,-1.926668286323547363e-01,-8.835973590612411499e-02,-6.254486560821533203e+00,1.000000000000000000e+00,-2.595927007496356964e-02,0.000000000000000000e+00
2.830169916152954102e+00,6.541416015625000000e+02,1.816954612731933594e+01,1.816954612731933594e+01,4.251450896263122559e-01,-1.094795227050781250e+02,-9.600831270217895508e-01,-2.994169950485229492e+00,-8.609210968017578125e+00,-4.377638470032252371e-05,3.682620286941528320e+00,1.288498973846435547e+01,-8.919229730963706970e-04,-1.440903949737548828e+01,4.669673919677734375e+00,-5.204873561859130859e+00,0.000000000000000000e+00,-1.746165007352828979e-02,1.000000000000000000e+00
2.830169916152954102e+00,6.541416015625000000e+02,1.816954612731933594e+01,1.816954612731933594e+01,4.251450896263122559e-01,-1.094795227050781250e+02,-9.600831270217895508e-01,-2.994169950485229492e+00,-8.609210968017578125e+00,-4.377638470032252371e-05,3.682620286941528320e+00,1.288498973846435547e+01,-8.919229730963706970e-04,-1.440903949737548828e+01,4.669673919677734375e+00,-5.204873561859130859e+00,0.000000000000000000e+00,-1.746165007352828979e-02,1.000000000000000000e+00
2.830169916152954102e+00,6.541416015625000000e+02,1.816954612731933594e+01,1.816954612731933594e+01,4.251450896263122559e-01,-1.094795227050781250e+02,-9.600831270217895508e-01,-2.994169950485229492e+00,-8.609210968017578125e+00,-4.377638470032252371e-05,3.682620286941528320e+00,1.288498973846435547e+01,-8.919229730963706970e-04,-1.440903949737548828e+01,4.669673919677734375e+00,-5.204873561859130859e+00,0.000000000000000000e+00,-1.746165007352828979e-02,1.000000000000000000e+00
2.830169916152954102e+00,6.541416015625000000e+02,1.816954612731933594e+01,1.816954612731933594e+01,4.251450896263122559e-01,-1.094795227050781250e+02,-9.600831270217895508e-01,-2.994169950485229492e+00,-8.609210968017578125e+00,-4.377638470032252371e-05,3.682620286941528320e+00,1.288498973846435547e+01,-8.919229730963706970e-04,-1.440903949737548828e+01,4.669673919677734375e+00,-5.204873561859130859e+00,0.000000000000000000e+00,-1.746165007352828979e-02,1.000000000000000000e+00
2.830169916152954102e+00,6.541416015625000000e+02,1.816954612731933594e+01,1.816954612731933594e+01,4.251450896263122559e-01,-1.094795227050781250e+02,-9.600831270217895508e-01,-2.994169950485229492e+00,-8.609210968017578125e+00,-4.377638470032252371e-05,3.682620286941528320e+00,1.288498973846435547e+01,-8.919229730963706970e-04,-1.440903949737548828e+01,4.669673919677734375e+00,-5.204873561859130859e+00,0.000000000000000000e+00,-1.746165007352828979e-02,1.000000000000000000e+00
