# Time,X,Y,Z,Roll,Pitch,Yaw,Vx,Vy,Vz,Ax,Ay,Az,Wx,Wy,Wz,Throttle,Steer,Brake
0.000000000000000000e+00,6.425632324218750000e+02,1.385621490478515625e+02,1.385621490478515625e+02,1.123702675104141235e-01,2.375871837139129639e-01,1.178272723336704075e-04,8.969036102294921875e+00,3.693886473774909973e-02,-6.846413270977791399e-06,-6.700388908386230469e+00,-2.690183930099010468e-02,-7.968781574163585901e-05,6.707919295877218246e-03,-2.172465801239013672e+00,3.391937911510467529e-02,0.000000000000000000e+00,-2.092974455081275664e-06,1.000000000000000000e+00
1.045818328857421875e-01,6.425632324218750000e+02,1.385621490478515625e+02,1.385621490478515625e+02,1.123702675104141235e-01,2.375871837139129639e-01,1.178272723336704075e-04,8.969036102294921875e+00,3.693886473774909973e-02,-6.846413270977791399e-06,-6.700388908386230469e+00,-2.690183930099010468e-02,-7.968781574163585901e-05,6.707919295877218246e-03,-2.172465801239013672e+00,3.391937911510467529e-02,0.000000000000000000e+00,-2.092974455081275664e-06,1.000000000000000000e+00
1.045818328857421875e-01,6.425632324218750000e+02,1.385621490478515625e+02,1.385621490478515625e+02,1.123702675104141235e-01,2.375871837139129639e-01,1.178272723336704075e-04,8.969036102294921875e+00,3.693886473774909973e-02,-6.846413270977791399e-06,-6.700388908386230469e+00,-2.690183930099010468e-02,-7.968781574163585901e-05,6.707919295877218246e-03,-2.172465801239013672e+00,3.391937911510467529e-02,0.000000000000000000e+00,-2.092974455081275664e-06,1.000000000000000000e+00
1.045818328857421875e-01,6.425632324218750000e+02,1.385621490478515625e+02,1.385621490478515625e+02,1.123702675104141235e-01,2.375871837139129639e-01,1.178272723336704075e-04,8.969036102294921875e+00,3.693886473774909973e-02,-6.846413270977791399e-06,-6.700388908386230469e+00,-2.690183930099010468e-02,-7.968781574163585901e-05,6.707919295877218246e-03,-2.172465801239013672e+00,3.391937911510467529e-02,0.000000000000000000e+00,-2.092974455081275664e-06,1.000000000000000000e+00
1.045818328857421875e-01,6.425632324218750000e+02,1.385621490478515625e+02,1.385621490478515625e+02,1.123702675104141235e-01,2.375871837139129639e-01,1.178272723336704075e-04,8.969036102294921875e+00,3.693886473774909973e-02,-6.846413270977791399e-06,-6.700388908386230469e+00,-2.690183930099010468e-02,-7.968781574163585901e-05,6.707919295877218246e-03,-2.172465801239013672e+00,3.391937911510467529e-02,0.000000000000000000e+00,-2.092974455081275664e-06,1.000000000000000000e+00
1.045818328857421875e-01,6.425632324218750000e+02,1.385621490478515625e+02,1.385621490478515625e+02,1.123702675104141235e-01,2.375871837139129639e-01,1.178272723336704075e-04,8.969036102294921875e+00,3.693886473774909973e-02,-6.846413270977791399e-06,-6.700388908386230469e+00,-2.690183930099010468e-02,-7.968781574163585901e-05,6.707919295877218246e-03,-2.172465801239013672e+00,3.391937911510467529e-02,0.000000000000000000e+00,-2.092974455081275664e-06,1.000000000000000000e+00
1.045818328857421875e-01,6.433988647460937500e+02,1.385655670166015625e+02,1.385655670166015625e+02,3.554635047912597656e-01,2.416221946477890015e-01,4.079570644535124302e-04,7.889956474304199219e+00,3.268562257289886475e-02,-4.792368417838588357e-05,-1.030551815032958984e+01,-4.061967507004737854e-02,-3.922996402252465487e-04,6.089810281991958618e-03,-2.367890596389770508e+00,4.334084689617156982e-02,0.000000000000000000e+00,-4.143480691709555686e-05,1.000000000000000000e+00
2.092907428741455078e-01,6.433988647460937500e+02,1.385655670166015625e+02,1.385655670166015625e+02,3.554635047912597656e-01,2.416221946477890015e-01,4.079570644535124302e-04,7.889956474304199219e+00,3.268562257289886475e-02,-4.792368417838588357e-05,-1.030551815032958984e+01,-4.061967507004737854e-02,-3.922996402252465487e-04,6.089810281991958618e-03,-2.367890596389770508e+00,4.334084689617156982e-02,0.000000000000000000e+00,-4.143480691709555686e-05,1.000000000000000000e+00
2.092907428741455078e-01,6.433988647460937500e+02,1.385655670166015625e+02,1.385655670166015625e+02,3.554635047912597656e-01,2.416221946477890015e-01,4.079570644535124302e-04,7.889956474304199219e+00,3.268562257289886475e-02,-4.792368417838588357e-05,-1.030551815032958984e+01,-4.061967507004737854e-02,-3.922996402252465487e-04,6.089810281991958618e-03,-2.367890596389770508e+00,4.334084689617156982e-02,0.000000000000000000e+00,-4.143480691709555686e-05,1.000000000000000000e+00
2.092907428741455078e-01,6.433988647460937500e+02,1.385655670166015625e+02,1.385655670166015625e+02,3.554635047912597656e-01,2.416221946477890015e-01,4.079570644535124302e-04,7.889956474304199219e+00,3.268562257289886475e-02,-4.792368417838588357e-05,-1.030551815032958984e+01,-4.061967507004737854e-02,-3.922996402252465487e-04,6.089810281991958618e-03,-2.367890596389770508e+00,4.334084689617156982e-02,0.000000000000000000e+00,-4.143480691709555686e-05,1.000000000000000000e+00
2.092907428741455078e-01,6.433988647460937500e+02,1.385655670166015625e+02,1.385655670166015625e+02,3.554635047912597656e-01,2.416221946477890015e-01,4.079570644535124302e-04,7.889956474304199219e+00,3.268562257289886475e-02,-4.792368417838588357e-05,-1.030551815032958984e+01,-4.061967507004737854e-02,-3.922996402252465487e-04,6.089810281991958618e-03,-2.367890596389770508e+00,4.334084689617156982e-02,0.000000000000000000e+00,-4.143480691709555686e-05,1.000000000000000000e+00
2.092907428741455078e-01,6.441223754882812500e+02,1.385685424804687500e+02,1.385685424804687500e+02,5.624318718910217285e-01,2.452018857002258301e-01,6.402389844879508018e-04,6.746633529663085938e+00,2.803501486778259277e-02,-8.917275408748537302e-05,-1.532222938537597656e+01,-6.232506409287452698e-02,-5.527989123947918415e-04,5.226779263466596603e-03,-1.830618023872375488e+00,3.230386599898338318e-02,0.000000000000000000e+00,-1.248100015800446272e-04,1.000000000000000000e+00
2.839093208312988281e-01,6.441223754882812500e+02,1.385685424804687500e+02,1.385685424804687500e+02,5.624318718910217285e-01,2.452018857002258301e-01,6.402389844879508018e-04,6.746633529663085938e+00,2.803501486778259277e-02,-8.917275408748537302e-05,-1.532222938537597656e+01,-6.232506409287452698e-02,-5.527989123947918415e-04,5.226779263466596603e-03,-1.830618023872375488e+00,3.230386599898338318e-02,0.000000000000000000e+00,-1.248100015800446272e-04,1.000000000000000000e+00
2.839093208312988281e-01,6.441223754882812500e+02,1.385685424804687500e+02,1.385685424804687500e+02,5.624318718910217285e-01,2.452018857002258301e-01,6.402389844879508018e-04,6.746633529663085938e+00,2.803501486778259277e-02,-8.917275408748537302e-05,-1.532222938537597656e+01,-6.232506409287452698e-02,-5.527989123947918415e-04,5.226779263466596603e-03,-1.830618023872375488e+00,3.230386599898338318e-02,0.000000000000000000e+00,-1.248100015800446272e-04,1.000000000000000000e+00
2.839093208312988281e-01,6.441223754882812500e+02,1.385685424804687500e+02,1.385685424804687500e+02,5.624318718910217285e-01,2.452018857002258301e-01,6.402389844879508018e-04,6.746633529663085938e+00,2.803501486778259277e-02,-8.917275408748537302e-05,-1.532222938537597656e+01,-6.232506409287452698e-02,-5.527989123947918415e-04,5.226779263466596603e-03,-1.830618023872375488e+00,3.230386599898338318e-02,0.000000000000000000e+00,-1.248100015800446272e-04,1.000000000000000000e+00
2.839093208312988281e-01,6.441223754882812500e+02,1.385685424804687500e+02,1.385685424804687500e+02,5.624318718910217285e-01,2.452018857002258301e-01,6.402389844879508018e-04,6.746633529663085938e+00,2.803501486778259277e-02,-8.917275408748537302e-05,-1.532222938537597656e+01,-6.232506409287452698e-02,-5.527989123947918415e-04,5.226779263466596603e-03,-1.830618023872375488e+00,3.230386599898338318e-02,0.000000000000000000e+00,-1.248100015800446272e-04,1.000000000000000000e+00
3.569011688232421875e-01,6.445870971679687500e+02,1.385704498291015625e+02,1.385704498291015625e+02,6.773839592933654785e-01,2.471059262752532959e-01,7.403509807772934437e-04,5.871403694152832031e+00,2.441279031336307526e-02,-9.698374196887016296e-05,-1.199078845977783203e+01,-4.962505772709846497e-02,-1.070117868948727846e-04,4.687100183218717575e-03,-1.386808872222900391e+00,2.239767834544181824e-02,0.000000000000000000e+00,-1.826714142225682735e-04,1.000000000000000000e+00
3.569011688232421875e-01,6.445870971679687500e+02,1.385704498291015625e+02,1.385704498291015625e+02,6.773839592933654785e-01,2.471059262752532959e-01,7.403509807772934437e-04,5.871403694152832031e+00,2.441279031336307526e-02,-9.698374196887016296e-05,-1.199078845977783203e+01,-4.962505772709846497e-02,-1.070117868948727846e-04,4.687100183218717575e-03,-1.386808872222900391e+00,2.239767834544181824e-02,0.000000000000000000e+00,-1.826714142225682735e-04,1.000000000000000000e+00
3.569011688232421875e-01,6.445870971679687500e+02,1.385704498291015625e+02,1.385704498291015625e+02,6.773839592933654785e-01,2.471059262752532959e-01,7.403509807772934437e-04,5.871403694152832031e+00,2.441279031336307526e-02,-9.698374196887016296e-05,-1.199078845977783203e+01,-4.962505772709846497e-02,-1.070117868948727846e-04,4.687100183218717575e-03,-1.386808872222900391e+00,2.239767834544181824e-02,0.000000000000000000e+00,-1.826714142225682735e-04,1.000000000000000000e+00
3.569011688232421875e-01,6.445870971679687500e+02,1.385704498291015625e+02,1.385704498291015625e+02,6.773839592933654785e-01,2.471059262752532959e-01,7.403509807772934437e-04,5.871403694152832031e+00,2.441279031336307526e-02,-9.698374196887016296e-05,-1.199078845977783203e+01,-4.962505772709846497e-02,-1.070117868948727846e-04,4.687100183218717575e-03,-1.386808872222900391e+00,2.239767834544181824e-02,0.000000000000000000e+00,-1.826714142225682735e-04,1.000000000000000000e+00
4.765405654907226562e-01,6.449782104492187500e+02,1.385720672607421875e+02,1.385720672607421875e+02,7.626178860664367676e-01,2.482843250036239624e-01,7.645275327377021313e-04,5.008014202117919922e+00,2.076989412307739258e-02,-8.808756683720275760e-05,-7.216598510742187500e+00,-3.044896945357322693e-02,7.435824227286502719e-05,4.023902118206024170e-03,-1.031839609146118164e+00,1.342904474586248398e-02,0.000000000000000000e+00,-2.339690981898456812e-04,1.000000000000000000e+00
4.765405654907226562e-01,6.449782104492187500e+02,1.385720672607421875e+02,1.385720672607421875e+02,7.626178860664367676e-01,2.482843250036239624e-01,7.645275327377021313e-04,5.008014202117919922e+00,2.076989412307739258e-02,-8.808756683720275760e-05,-7.216598510742187500e+00,-3.044896945357322693e-02,7.435824227286502719e-05,4.023902118206024170e-03,-1.031839609146118164e+00,1.342904474586248398e-02,0.000000000000000000e+00,-2.339690981898456812e-04,1.000000000000000000e+00
4.765405654907226562e-01,6.449782104492187500e+02,1.385720672607421875e+02,1.385720672607421875e+02,7.626178860664367676e-01,2.482843250036239624e-01,7.645275327377021313e-04,5.008014202117919922e+00,2.076989412307739258e-02,-8.808756683720275760e-05,-7.216598510742187500e+00,-3.044896945357322693e-02,7.435824227286502719e-05,4.023902118206024170e-03,-1.031839609146118164e+00,1.342904474586248398e-02,0.000000000000000000e+00,-2.339690981898456812e-04,1.000000000000000000e+00
4.765405654907226562e-01,6.449782104492187500e+02,1.385720672607421875e+02,1.385720672607421875e+02,7.626178860664367676e-01,2.482843250036239624e-01,7.645275327377021313e-04,5.008014202117919922e+00,2.076989412307739258e-02,-8.808756683720275760e-05,-7.216598510742187500e+00,-3.044896945357322693e-02,7.435824227286502719e-05,4.023902118206024170e-03,-1.031839609146118164e+00,1.342904474586248398e-02,0.000000000000000000e+00,-2.339690981898456812e-04,1.000000000000000000e+00
4.765405654907226562e-01,6.449782104492187500e+02,1.385720672607421875e+02,1.385720672607421875e+02,7.626178860664367676e-01,2.482843250036239624e-01,7.645275327377021313e-04,5.008014202117919922e+00,2.076989412307739258e-02,-8.808756683720275760e-05,-7.216598510742187500e+00,-3.044896945357322693e-02,7.435824227286502719e-05,4.023902118206024170e-03,-1.031839609146118164e+00,1.342904474586248398e-02,0.000000000000000000e+00,-2.339690981898456812e-04,1.000000000000000000e+00
4.765405654907226562e-01,6.449782104492187500e+02,1.385720672607421875e+02,1.385720672607421875e+02,7.626178860664367676e-01,2.482843250036239624e-01,7.645275327377021313e-04,5.008014202117919922e+00,2.076989412307739258e-02,-8.808756683720275760e-05,-7.216598510742187500e+00,-3.044896945357322693e-02,7.435824227286502719e-05,4.023902118206024170e-03,-1.031839609146118164e+00,1.342904474586248398e-02,0.000000000000000000e+00,-2.339690981898456812e-04,1.000000000000000000e+00
4.765405654907226562e-01,6.449782104492187500e+02,1.385720672607421875e+02,1.385720672607421875e+02,7.626178860664367676e-01,2.482843250036239624e-01,7.645275327377021313e-04,5.008014202117919922e+00,2.076989412307739258e-02,-8.808756683720275760e-05,-7.216598510742187500e+00,-3.044896945357322693e-02,7.435824227286502719e-05,4.023902118206024170e-03,-1.031839609146118164e+00,1.342904474586248398e-02,0.000000000000000000e+00,-2.339690981898456812e-04,1.000000000000000000e+00
6.200885772705078125e-01,6.454105834960937500e+02,1.385738525390625000e+02,1.385738525390625000e+02,8.367459177970886230e-01,2.491468042135238647e-01,7.738455897197127342e-04,3.829686403274536133e+00,1.583037525415420532e-02,-5.181173793971538544e-03,-8.208597183227539062e+00,-3.441022336483001709e-02,-3.548001870512962341e-02,2.389497822150588036e-03,-6.100956201553344727e-01,6.896373350173234940e-03,0.000000000000000000e+00,-2.694110735319554806e-04,1.000000000000000000e+00
6.200885772705078125e-01,6.454105834960937500e+02,1.385738525390625000e+02,1.385738525390625000e+02,8.367459177970886230e-01,2.491468042135238647e-01,7.738455897197127342e-04,3.829686403274536133e+00,1.583037525415420532e-02,-5.181173793971538544e-03,-8.208597183227539062e+00,-3.441022336483001709e-02,-3.548001870512962341e-02,2.389497822150588036e-03,-6.100956201553344727e-01,6.896373350173234940e-03,0.000000000000000000e+00,-2.694110735319554806e-04,1.000000000000000000e+00
6.200885772705078125e-01,6.454105834960937500e+02,1.385738525390625000e+02,1.385738525390625000e+02,8.367459177970886230e-01,2.491468042135238647e-01,7.738455897197127342e-04,3.829686403274536133e+00,1.583037525415420532e-02,-5.181173793971538544e-03,-8.208597183227539062e+00,-3.441022336483001709e-02,-3.548001870512962341e-02,2.389497822150588036e-03,-6.100956201553344727e-01,6.896373350173234940e-03,0.000000000000000000e+00,-2.694110735319554806e-04,1.000000000000000000e+00
6.200885772705078125e-01,6.454105834960937500e+02,1.385738525390625000e+02,1.385738525390625000e+02,8.367459177970886230e-01,2.491468042135238647e-01,7.738455897197127342e-04,3.829686403274536133e+00,1.583037525415420532e-02,-5.181173793971538544e-03,-8.208597183227539062e+00,-3.441022336483001709e-02,-3.548001870512962341e-02,2.389497822150588036e-03,-6.100956201553344727e-01,6.896373350173234940e-03,0.000000000000000000e+00,-2.694110735319554806e-04,1.000000000000000000e+00
6.200885772705078125e-01,6.454105834960937500e+02,1.385738525390625000e+02,1.385738525390625000e+02,8.367459177970886230e-01,2.491468042135238647e-01,7.738455897197127342e-04,3.829686403274536133e+00,1.583037525415420532e-02,-5.181173793971538544e-03,-8.208597183227539062e+00,-3.441022336483001709e-02,-3.548001870512962341e-02,2.389497822150588036e-03,-6.100956201553344727e-01,6.896373350173234940e-03,0.000000000000000000e+00,-2.694110735319554806e-04,1.000000000000000000e+00
6.200885772705078125e-01,6.454105834960937500e+02,1.385738525390625000e+02,1.385738525390625000e+02,8.367459177970886230e-01,2.491468042135238647e-01,7.738455897197127342e-04,3.829686403274536133e+00,1.583037525415420532e-02,-5.181173793971538544e-03,-8.208597183227539062e+00,-3.441022336483001709e-02,-3.548001870512962341e-02,2.389497822150588036e-03,-6.100956201553344727e-01,6.896373350173234940e-03,0.000000000000000000e+00,-2.694110735319554806e-04,1.000000000000000000e+00
7.946169376373291016e-01,6.457237548828125000e+02,1.385751495361328125e+02,1.385751495361328125e+02,8.891266584396362305e-01,2.495753169059753418e-01,7.643714779987931252e-04,2.623275756835937500e+00,1.076854765415191650e-02,-3.950223617721349001e-04,-6.912404537200927734e+00,-2.900289371609687805e-02,2.742334455251693726e-02,1.881184638477861881e-03,-4.762407243251800537e-01,4.058038350194692612e-03,0.000000000000000000e+00,-3.123985952697694302e-04,1.000000000000000000e+00
7.946169376373291016e-01,6.457237548828125000e+02,1.385751495361328125e+02,1.385751495361328125e+02,8.891266584396362305e-01,2.495753169059753418e-01,7.643714779987931252e-04,2.623275756835937500e+00,1.076854765415191650e-02,-3.950223617721349001e-04,-6.912404537200927734e+00,-2.900289371609687805e-02,2.742334455251693726e-02,1.881184638477861881e-03,-4.762407243251800537e-01,4.058038350194692612e-03,0.000000000000000000e+00,-3.123985952697694302e-04,1.000000000000000000e+00
7.946169376373291016e-01,6.457237548828125000e+02,1.385751495361328125e+02,1.385751495361328125e+02,8.891266584396362305e-01,2.495753169059753418e-01,7.643714779987931252e-04,2.623275756835937500e+00,1.076854765415191650e-02,-3.950223617721349001e-04,-6.912404537200927734e+00,-2.900289371609687805e-02,2.742334455251693726e-02,1.881184638477861881e-03,-4.762407243251800537e-01,4.058038350194692612e-03,0.000000000000000000e+00,-3.123985952697694302e-04,1.000000000000000000e+00
8.783230781555175781e-01,6.459152832031250000e+02,1.385759277343750000e+02,1.385759277343750000e+02,9.284002184867858887e-01,2.501924932003021240e-01,8.254615240730345249e-04,1.406726002693176270e+00,5.815546959638595581e-03,9.279993246309459209e-04,-1.453357887268066406e+01,-5.917129665613174438e-02,1.580555178225040436e-02,1.091239158995449543e-03,-3.324613571166992188e-01,6.824586540460586548e-03,0.000000000000000000e+00,-2.764618839137256145e-04,1.000000000000000000e+00
8.783230781555175781e-01,6.459152832031250000e+02,1.385759277343750000e+02,1.385759277343750000e+02,9.284002184867858887e-01,2.501924932003021240e-01,8.254615240730345249e-04,1.406726002693176270e+00,5.815546959638595581e-03,9.279993246309459209e-04,-1.453357887268066406e+01,-5.917129665613174438e-02,1.580555178225040436e-02,1.091239158995449543e-03,-3.324613571166992188e-01,6.824586540460586548e-03,0.000000000000000000e+00,-2.764618839137256145e-04,1.000000000000000000e+00
8.783230781555175781e-01,6.459152832031250000e+02,1.385759277343750000e+02,1.385759277343750000e+02,9.284002184867858887e-01,2.501924932003021240e-01,8.254615240730345249e-04,1.406726002693176270e+00,5.815546959638595581e-03,9.279993246309459209e-04,-1.453357887268066406e+01,-5.917129665613174438e-02,1.580555178225040436e-02,1.091239158995449543e-03,-3.324613571166992188e-01,6.824586540460586548e-03,0.000000000000000000e+00,-2.764618839137256145e-04,1.000000000000000000e+00
9.483780860900878906e-01,6.459821166992187500e+02,1.385761871337890625e+02,1.385761871337890625e+02,9.571143388748168945e-01,2.507528662681579590e-01,8.677148143760859966e-04,3.007510602474212646e-01,1.196231925860047340e-03,2.628913149237632751e-03,-1.578723526000976562e+01,-6.593840569257736206e-02,2.427968941628932953e-02,4.009732510894536972e-03,-6.167600154876708984e-01,7.638018578290939331e-02,0.000000000000000000e+00,-2.896485675591975451e-04,1.000000000000000000e+00
9.483780860900878906e-01,6.459821166992187500e+02,1.385761871337890625e+02,1.385761871337890625e+02,9.571143388748168945e-01,2.507528662681579590e-01,8.677148143760859966e-04,3.007510602474212646e-01,1.196231925860047340e-03,2.628913149237632751e-03,-1.578723526000976562e+01,-6.593840569257736206e-02,2.427968941628932953e-02,4.009732510894536972e-03,-6.167600154876708984e-01,7.638018578290939331e-02,0.000000000000000000e+00,-2.896485675591975451e-04,1.000000000000000000e+00
9.483780860900878906e-01,6.459821166992187500e+02,1.385761871337890625e+02,1.385761871337890625e+02,9.571143388748168945e-01,2.507528662681579590e-01,8.677148143760859966e-04,3.007510602474212646e-01,1.196231925860047340e-03,2.628913149237632751e-03,-1.578723526000976562e+01,-6.593840569257736206e-02,2.427968941628932953e-02,4.009732510894536972e-03,-6.167600154876708984e-01,7.638018578290939331e-02,0.000000000000000000e+00,-2.896485675591975451e-04,1.000000000000000000e+00
9.483780860900878906e-01,6.459821166992187500e+02,1.385761871337890625e+02,1.385761871337890625e+02,9.571143388748168945e-01,2.507528662681579590e-01,8.677148143760859966e-04,3.007510602474212646e-01,1.196231925860047340e-03,2.628913149237632751e-03,-1.578723526000976562e+01,-6.593840569257736206e-02,2.427968941628932953e-02,4.009732510894536972e-03,-6.167600154876708984e-01,7.638018578290939331e-02,0.000000000000000000e+00,-2.896485675591975451e-04,1.000000000000000000e+00
9.483780860900878906e-01,6.459839477539062500e+02,1.385762023925781250e+02,1.385762023925781250e+02,9.318153262138366699e-01,2.505590319633483887e-01,9.106386569328606129e-04,-2.180653391405940056e-03,-4.883269866695627570e-06,1.295499503612518311e-03,-3.844359397888183594e+00,-1.524277031421661377e-02,-1.692170463502407074e-02,-5.794596858322620392e-03,1.335066914558410645e+00,-3.567633102647960186e-04,0.000000000000000000e+00,-2.969354391098022461e-04,1.000000000000000000e+00
1.027177095413208008e+00,6.459839477539062500e+02,1.385762023925781250e+02,1.385762023925781250e+02,9.318153262138366699e-01,2.505590319633483887e-01,9.106386569328606129e-04,-2.180653391405940056e-03,-4.883269866695627570e-06,1.295499503612518311e-03,-3.844359397888183594e+00,-1.524277031421661377e-02,-1.692170463502407074e-02,-5.794596858322620392e-03,1.335066914558410645e+00,-3.567633102647960186e-04,0.000000000000000000e+00,-2.969354391098022461e-04,1.000000000000000000e+00
1.027177095413208008e+00,6.459839477539062500e+02,1.385762023925781250e+02,1.385762023925781250e+02,9.318153262138366699e-01,2.505590319633483887e-01,9.106386569328606129e-04,-2.180653391405940056e-03,-4.883269866695627570e-06,1.295499503612518311e-03,-3.844359397888183594e+00,-1.524277031421661377e-02,-1.692170463502407074e-02,-5.794596858322620392e-03,1.335066914558410645e+00,-3.567633102647960186e-04,0.000000000000000000e+00,-2.969354391098022461e-04,1.000000000000000000e+00
1.095043420791625977e+00,6.459830322265625000e+02,1.385762023925781250e+02,1.385762023925781250e+02,7.643868923187255859e-01,2.505857646465301514e-01,7.063244120217859745e-04,-4.042016342282295227e-03,-9.725485142553225160e-06,-3.982011403422802687e-04,-2.742690034210681915e-02,-7.134930638130754232e-05,-2.495642192661762238e-02,-6.641811225563287735e-03,2.399293422698974609e+00,4.543077084235846996e-04,0.000000000000000000e+00,-2.974948729388415813e-04,1.000000000000000000e+00
1.095043420791625977e+00,6.459830322265625000e+02,1.385762023925781250e+02,1.385762023925781250e+02,7.643868923187255859e-01,2.505857646465301514e-01,7.063244120217859745e-04,-4.042016342282295227e-03,-9.725485142553225160e-06,-3.982011403422802687e-04,-2.742690034210681915e-02,-7.134930638130754232e-05,-2.495642192661762238e-02,-6.641811225563287735e-03,2.399293422698974609e+00,4.543077084235846996e-04,0.000000000000000000e+00,-2.974948729388415813e-04,1.000000000000000000e+00
1.095043420791625977e+00,6.459830322265625000e+02,1.385762023925781250e+02,1.385762023925781250e+02,7.643868923187255859e-01,2.505857646465301514e-01,7.063244120217859745e-04,-4.042016342282295227e-03,-9.725485142553225160e-06,-3.982011403422802687e-04,-2.742690034210681915e-02,-7.134930638130754232e-05,-2.495642192661762238e-02,-6.641811225563287735e-03,2.399293422698974609e+00,4.543077084235846996e-04,0.000000000000000000e+00,-2.974948729388415813e-04,1.000000000000000000e+00
1.095043420791625977e+00,6.459830322265625000e+02,1.385762023925781250e+02,1.385762023925781250e+02,7.643868923187255859e-01,2.505857646465301514e-01,7.063244120217859745e-04,-4.042016342282295227e-03,-9.725485142553225160e-06,-3.982011403422802687e-04,-2.742690034210681915e-02,-7.134930638130754232e-05,-2.495642192661762238e-02,-6.641811225563287735e-03,2.399293422698974609e+00,4.543077084235846996e-04,0.000000000000000000e+00,-2.974948729388415813e-04,1.000000000000000000e+00
1.168572425842285156e+00,6.459821777343750000e+02,1.385762023925781250e+02,1.385762023925781250e+02,6.015142202377319336e-01,2.506102323532104492e-01,4.453561559785157442e-04,-4.131777212023735046e-03,-1.026086465572007000e-05,1.628359081223607063e-03,-1.220754580572247505e-03,-7.281201305886497721e-06,2.756137028336524963e-02,-6.658117286860942841e-03,2.351402759552001953e+00,3.737714432645589113e-04,0.000000000000000000e+00,-2.978399279527366161e-04,1.000000000000000000e+00
1.168572425842285156e+00,6.459821777343750000e+02,1.385762023925781250e+02,1.385762023925781250e+02,6.015142202377319336e-01,2.506102323532104492e-01,4.453561559785157442e-04,-4.131777212023735046e-03,-1.026086465572007000e-05,1.628359081223607063e-03,-1.220754580572247505e-03,-7.281201305886497721e-06,2.756137028336524963e-02,-6.658117286860942841e-03,2.351402759552001953e+00,3.737714432645589113e-04,0.000000000000000000e+00,-2.978399279527366161e-04,1.000000000000000000e+00
1.168572425842285156e+00,6.459821777343750000e+02,1.385762023925781250e+02,1.385762023925781250e+02,6.015142202377319336e-01,2.506102323532104492e-01,4.453561559785157442e-04,-4.131777212023735046e-03,-1.026086465572007000e-05,1.628359081223607063e-03,-1.220754580572247505e-03,-7.281201305886497721e-06,2.756137028336524963e-02,-6.658117286860942841e-03,2.351402759552001953e+00,3.737714432645589113e-04,0.000000000000000000e+00,-2.978399279527366161e-04,1.000000000000000000e+00
1.168572425842285156e+00,6.459821777343750000e+02,1.385762023925781250e+02,1.385762023925781250e+02,6.015142202377319336e-01,2.506102323532104492e-01,4.453561559785157442e-04,-4.131777212023735046e-03,-1.026086465572007000e-05,1.628359081223607063e-03,-1.220754580572247505e-03,-7.281201305886497721e-06,2.756137028336524963e-02,-6.658117286860942841e-03,2.351402759552001953e+00,3.737714432645589113e-04,0.000000000000000000e+00,-2.978399279527366161e-04,1.000000000000000000e+00
1.168572425842285156e+00,6.459813232421875000e+02,1.385761871337890625e+02,1.385761871337890625e+02,4.430265426635742188e-01,2.506289184093475342e-01,2.152247616322711110e-04,-3.583088517189025879e-03,-9.645530553825665265e-06,-2.128288178937509656e-05,7.311126682907342911e-03,8.199158401112072170e-06,-2.198102883994579315e-02,-6.065452005714178085e-03,1.992243289947509766e+00,2.367872657487168908e-04,0.000000000000000000e+00,-2.981524448841810226e-04,1.000000000000000000e+00
1.243620872497558594e+00,6.459813232421875000e+02,1.385761871337890625e+02,1.385761871337890625e+02,4.430265426635742188e-01,2.506289184093475342e-01,2.152247616322711110e-04,-3.583088517189025879e-03,-9.645530553825665265e-06,-2.128288178937509656e-05,7.311126682907342911e-03,8.199158401112072170e-06,-2.198102883994579315e-02,-6.065452005714178085e-03,1.992243289947509766e+00,2.367872657487168908e-04,0.000000000000000000e+00,-2.981524448841810226e-04,1.000000000000000000e+00
1.243620872497558594e+00,6.459813232421875000e+02,1.385761871337890625e+02,1.385761871337890625e+02,4.430265426635742188e-01,2.506289184093475342e-01,2.152247616322711110e-04,-3.583088517189025879e-03,-9.645530553825665265e-06,-2.128288178937509656e-05,7.311126682907342911e-03,8.199158401112072170e-06,-2.198102883994579315e-02,-6.065452005714178085e-03,1.992243289947509766e+00,2.367872657487168908e-04,0.000000000000000000e+00,-2.981524448841810226e-04,1.000000000000000000e+00
1.243620872497558594e+00,6.459813232421875000e+02,1.385761871337890625e+02,1.385761871337890625e+02,4.430265426635742188e-01,2.506289184093475342e-01,2.152247616322711110e-04,-3.583088517189025879e-03,-9.645530553825665265e-06,-2.128288178937509656e-05,7.311126682907342911e-03,8.199158401112072170e-06,-2.198102883994579315e-02,-6.065452005714178085e-03,1.992243289947509766e+00,2.367872657487168908e-04,0.000000000000000000e+00,-2.981524448841810226e-04,1.000000000000000000e+00
1.312042951583862305e+00,6.459805908203125000e+02,1.385761871337890625e+02,1.385761871337890625e+02,3.138403594493865967e-01,2.506401538848876953e-01,6.928244692971929908e-05,-2.830907236784696579e-03,-9.019663593790028244e-06,-1.553588372189551592e-04,1.099325437098741531e-02,9.147149285126943141e-06,-1.959542511031031609e-03,-5.260803271085023880e-03,1.539465069770812988e+00,1.305164623772725463e-04,0.000000000000000000e+00,-2.983823360409587622e-04,1.000000000000000000e+00
1.312042951583862305e+00,6.459805908203125000e+02,1.385761871337890625e+02,1.385761871337890625e+02,3.138403594493865967e-01,2.506401538848876953e-01,6.928244692971929908e-05,-2.830907236784696579e-03,-9.019663593790028244e-06,-1.553588372189551592e-04,1.099325437098741531e-02,9.147149285126943141e-06,-1.959542511031031609e-03,-5.260803271085023880e-03,1.539465069770812988e+00,1.305164623772725463e-04,0.000000000000000000e+00,-2.983823360409587622e-04,1.000000000000000000e+00
1.312042951583862305e+00,6.459800415039062500e+02,1.385761871337890625e+02,1.385761871337890625e+02,2.247405350208282471e-01,2.506461441516876221e-01,-5.211060749577001161e-11,-2.167401835322380066e-03,-7.688319783483166248e-06,8.869578596204519272e-04,9.333786554634571075e-03,1.872852772066835314e-05,1.466267183423042297e-02,-4.234604537487030029e-03,1.157670855522155762e+00,7.297280535567551851e-05,0.000000000000000000e+00,-2.985060273203998804e-04,1.000000000000000000e+00
1.383129358291625977e+00,6.459800415039062500e+02,1.385761871337890625e+02,1.385761871337890625e+02,2.247405350208282471e-01,2.506461441516876221e-01,-5.211060749577001161e-11,-2.167401835322380066e-03,-7.688319783483166248e-06,8.869578596204519272e-04,9.333786554634571075e-03,1.872852772066835314e-05,1.466267183423042297e-02,-4.234604537487030029e-03,1.157670855522155762e+00,7.297280535567551851e-05,0.000000000000000000e+00,-2.985060273203998804e-04,1.000000000000000000e+00
1.383129358291625977e+00,6.459800415039062500e+02,1.385761871337890625e+02,1.385761871337890625e+02,2.247405350208282471e-01,2.506461441516876221e-01,-5.211060749577001161e-11,-2.167401835322380066e-03,-7.688319783483166248e-06,8.869578596204519272e-04,9.333786554634571075e-03,1.872852772066835314e-05,1.466267183423042297e-02,-4.234604537487030029e-03,1.157670855522155762e+00,7.297280535567551851e-05,0.000000000000000000e+00,-2.985060273203998804e-04,1.000000000000000000e+00
1.450951814651489258e+00,6.459796142578125000e+02,1.385761871337890625e+02,1.385761871337890625e+02,1.562952101230621338e-01,2.506493031978607178e-01,-3.051756903005298227e-05,-1.591624110005795956e-03,-6.212947482708841562e-06,-3.987698801211081445e-05,8.489484898746013641e-03,2.175344889110419899e-05,-1.366560347378253937e-02,-3.330945502966642380e-03,8.410548567771911621e-01,3.800073682214133441e-05,0.000000000000000000e+00,-2.986284380313009024e-04,1.000000000000000000e+00
1.450951814651489258e+00,6.459796142578125000e+02,1.385761871337890625e+02,1.385761871337890625e+02,1.562952101230621338e-01,2.506493031978607178e-01,-3.051756903005298227e-05,-1.591624110005795956e-03,-6.212947482708841562e-06,-3.987698801211081445e-05,8.489484898746013641e-03,2.175344889110419899e-05,-1.366560347378253937e-02,-3.330945502966642380e-03,8.410548567771911621e-01,3.800073682214133441e-05,0.000000000000000000e+00,-2.986284380313009024e-04,1.000000000000000000e+00
1.450951814651489258e+00,6.459796142578125000e+02,1.385761871337890625e+02,1.385761871337890625e+02,1.562952101230621338e-01,2.506493031978607178e-01,-3.051756903005298227e-05,-1.591624110005795956e-03,-6.212947482708841562e-06,-3.987698801211081445e-05,8.489484898746013641e-03,2.175344889110419899e-05,-1.366560347378253937e-02,-3.330945502966642380e-03,8.410548567771911621e-01,3.800073682214133441e-05,0.000000000000000000e+00,-2.986284380313009024e-04,1.000000000000000000e+00
1.527701377868652344e+00,6.459793701171875000e+02,1.385761871337890625e+02,1.385761871337890625e+02,1.092966794967651367e-01,2.506509721279144287e-01,-6.103512714616954327e-05,-1.153389457613229752e-03,-4.790092134498991072e-06,3.616128524299710989e-04,5.709930323064327240e-03,1.853893809311557561e-05,5.231168121099472046e-03,-2.513377694413065910e-03,6.043703556060791016e-01,2.042931191681418568e-05,0.000000000000000000e+00,-2.987476473208516836e-04,1.000000000000000000e+00
1.527701377868652344e+00,6.459793701171875000e+02,1.385761871337890625e+02,1.385761871337890625e+02,1.092966794967651367e-01,2.506509721279144287e-01,-6.103512714616954327e-05,-1.153389457613229752e-03,-4.790092134498991072e-06,3.616128524299710989e-04,5.709930323064327240e-03,1.853893809311557561e-05,5.231168121099472046e-03,-2.513377694413065910e-03,6.043703556060791016e-01,2.042931191681418568e-05,0.000000000000000000e+00,-2.987476473208516836e-04,1.000000000000000000e+00
1.527701377868652344e+00,6.459793701171875000e+02,1.385761871337890625e+02,1.385761871337890625e+02,1.092966794967651367e-01,2.506509721279144287e-01,-6.103512714616954327e-05,-1.153389457613229752e-03,-4.790092134498991072e-06,3.616128524299710989e-04,5.709930323064327240e-03,1.853893809311557561e-05,5.231168121099472046e-03,-2.513377694413065910e-03,6.043703556060791016e-01,2.042931191681418568e-05,0.000000000000000000e+00,-2.987476473208516836e-04,1.000000000000000000e+00
1.600134611129760742e+00,6.459792480468750000e+02,1.385761871337890625e+02,1.385761871337890625e+02,7.206532359123229980e-02,2.506520152091979980e-01,-6.103516352595761418e-05,-7.899134652689099312e-04,-3.488290985842468217e-06,-1.050835475325584412e-03,5.018083378672599792e-03,1.797242839529644698e-05,-1.950000412762165070e-02,-1.781495753675699234e-03,4.117028117179870605e-01,9.762294212123379111e-06,0.000000000000000000e+00,-2.987718908116221428e-04,1.000000000000000000e+00
1.600134611129760742e+00,6.459792480468750000e+02,1.385761871337890625e+02,1.385761871337890625e+02,7.206532359123229980e-02,2.506520152091979980e-01,-6.103516352595761418e-05,-7.899134652689099312e-04,-3.488290985842468217e-06,-1.050835475325584412e-03,5.018083378672599792e-03,1.797242839529644698e-05,-1.950000412762165070e-02,-1.781495753675699234e-03,4.117028117179870605e-01,9.762294212123379111e-06,0.000000000000000000e+00,-2.987718908116221428e-04,1.000000000000000000e+00
1.600134611129760742e+00,6.459792480468750000e+02,1.385761871337890625e+02,1.385761871337890625e+02,7.206532359123229980e-02,2.506520152091979980e-01,-6.103516352595761418e-05,-7.899134652689099312e-04,-3.488290985842468217e-06,-1.050835475325584412e-03,5.018083378672599792e-03,1.797242839529644698e-05,-1.950000412762165070e-02,-1.781495753675699234e-03,4.117028117179870605e-01,9.762294212123379111e-06,0.000000000000000000e+00,-2.987718908116221428e-04,1.000000000000000000e+00
1.600134611129760742e+00,6.459792480468750000e+02,1.385761871337890625e+02,1.385761871337890625e+02,7.206532359123229980e-02,2.506520152091979980e-01,-6.103516352595761418e-05,-7.899134652689099312e-04,-3.488290985842468217e-06,-1.050835475325584412e-03,5.018083378672599792e-03,1.797242839529644698e-05,-1.950000412762165070e-02,-1.781495753675699234e-03,4.117028117179870605e-01,9.762294212123379111e-06,0.000000000000000000e+00,-2.987718908116221428e-04,1.000000000000000000e+00
1.600134611129760742e+00,6.459792480468750000e+02,1.385761871337890625e+02,1.385761871337890625e+02,7.206532359123229980e-02,2.506520152091979980e-01,-6.103516352595761418e-05,-7.899134652689099312e-04,-3.488290985842468217e-06,-1.050835475325584412e-03,5.018083378672599792e-03,1.797242839529644698e-05,-1.950000412762165070e-02,-1.781495753675699234e-03,4.117028117179870605e-01,9.762294212123379111e-06,0.000000000000000000e+00,-2.987718908116221428e-04,1.000000000000000000e+00
1.600134611129760742e+00,6.459791870117187500e+02,1.385761871337890625e+02,1.385761871337890625e+02,5.865766108036041260e-02,2.506520152091979980e-01,-6.103516352595761418e-05,-2.045055734924972057e-04,-1.344692122984270100e-06,6.624215893680229783e-05,5.073788110166788101e-03,1.857878487498965114e-05,9.681822732090950012e-03,-6.552228005602955818e-04,1.078033000230789185e-01,-3.365577867953106761e-06,0.000000000000000000e+00,-2.987122861668467522e-04,1.000000000000000000e+00
1.715513467788696289e+00,6.459791870117187500e+02,1.385761871337890625e+02,1.385761871337890625e+02,5.865766108036041260e-02,2.506520152091979980e-01,-6.103516352595761418e-05,-2.045055734924972057e-04,-1.344692122984270100e-06,6.624215893680229783e-05,5.073788110166788101e-03,1.857878487498965114e-05,9.681822732090950012e-03,-6.552228005602955818e-04,1.078033000230789185e-01,-3.365577867953106761e-06,0.000000000000000000e+00,-2.987122861668467522e-04,1.000000000000000000e+00
1.715513467788696289e+00,6.459791870117187500e+02,1.385761871337890625e+02,1.385761871337890625e+02,5.865766108036041260e-02,2.506520152091979980e-01,-6.103516352595761418e-05,-2.045055734924972057e-04,-1.344692122984270100e-06,6.624215893680229783e-05,5.073788110166788101e-03,1.857878487498965114e-05,9.681822732090950012e-03,-6.552228005602955818e-04,1.078033000230789185e-01,-3.365577867953106761e-06,0.000000000000000000e+00,-2.987122861668467522e-04,1.000000000000000000e+00
1.715513467788696289e+00,6.459791870117187500e+02,1.385761871337890625e+02,1.385761871337890625e+02,5.865766108036041260e-02,2.506520152091979980e-01,-6.103516352595761418e-05,-2.045055734924972057e-04,-1.344692122984270100e-06,6.624215893680229783e-05,5.073788110166788101e-03,1.857878487498965114e-05,9.681822732090950012e-03,-6.552228005602955818e-04,1.078033000230789185e-01,-3.365577867953106761e-06,0.000000000000000000e+00,-2.987122861668467522e-04,1.000000000000000000e+00
1.813115119934082031e+00,6.459791259765625000e+02,1.385761871337890625e+02,1.385761871337890625e+02,4.358343407511711121e-02,2.506519854068756104e-01,-3.051758176297880709e-05,-3.082941693719476461e-04,-1.822428430386935361e-06,-9.345213184133172035e-04,-1.063389820046722889e-03,-4.894756330031668767e-06,-1.025355141609907150e-02,-8.683861815370619297e-04,1.605246365070343018e-01,6.973596669013204519e-07,0.000000000000000000e+00,-2.986388572026044130e-04,1.000000000000000000e+00
1.813115119934082031e+00,6.459791259765625000e+02,1.385761871337890625e+02,1.385761871337890625e+02,4.358343407511711121e-02,2.506519854068756104e-01,-3.051758176297880709e-05,-3.082941693719476461e-04,-1.822428430386935361e-06,-9.345213184133172035e-04,-1.063389820046722889e-03,-4.894756330031668767e-06,-1.025355141609907150e-02,-8.683861815370619297e-04,1.605246365070343018e-01,6.973596669013204519e-07,0.000000000000000000e+00,-2.986388572026044130e-04,1.000000000000000000e+00
1.813115119934082031e+00,6.459791259765625000e+02,1.385761871337890625e+02,1.385761871337890625e+02,4.358343407511711121e-02,2.506519854068756104e-01,-3.051758176297880709e-05,-3.082941693719476461e-04,-1.822428430386935361e-06,-9.345213184133172035e-04,-1.063389820046722889e-03,-4.894756330031668767e-06,-1.025355141609907150e-02,-8.683861815370619297e-04,1.605246365070343018e-01,6.973596669013204519e-07,0.000000000000000000e+00,-2.986388572026044130e-04,1.000000000000000000e+00
1.813115119934082031e+00,6.459791259765625000e+02,1.385761871337890625e+02,1.385761871337890625e+02,4.358343407511711121e-02,2.506519854068756104e-01,-3.051758176297880709e-05,-3.082941693719476461e-04,-1.822428430386935361e-06,-9.345213184133172035e-04,-1.063389820046722889e-03,-4.894756330031668767e-06,-1.025355141609907150e-02,-8.683861815370619297e-04,1.605246365070343018e-01,6.973596669013204519e-07,0.000000000000000000e+00,-2.986388572026044130e-04,1.000000000000000000e+00
1.896134853363037109e+00,6.459790649414062500e+02,1.385761871337890625e+02,1.385761871337890625e+02,2.925369888544082642e-02,2.506521642208099365e-01,-3.051758176297880709e-05,-2.567823103163391352e-04,-1.359597831651626620e-06,2.612165699247270823e-04,6.204773089848458767e-04,5.574946953856851906e-06,1.440305635333061218e-02,-6.680142832919955254e-04,1.330875903367996216e-01,9.612650728740845807e-07,0.000000000000000000e+00,-2.986384206451475620e-04,1.000000000000000000e+00
1.896134853363037109e+00,6.459790649414062500e+02,1.385761871337890625e+02,1.385761871337890625e+02,2.925369888544082642e-02,2.506521642208099365e-01,-3.051758176297880709e-05,-2.567823103163391352e-04,-1.359597831651626620e-06,2.612165699247270823e-04,6.204773089848458767e-04,5.574946953856851906e-06,1.440305635333061218e-02,-6.680142832919955254e-04,1.330875903367996216e-01,9.612650728740845807e-07,0.000000000000000000e+00,-2.986384206451475620e-04,1.000000000000000000e+00
1.896134853363037109e+00,6.459790649414062500e+02,1.385761871337890625e+02,1.385761871337890625e+02,2.925369888544082642e-02,2.506521642208099365e-01,-3.051758176297880709e-05,-2.567823103163391352e-04,-1.359597831651626620e-06,2.612165699247270823e-04,6.204773089848458767e-04,5.574946953856851906e-06,1.440305635333061218e-02,-6.680142832919955254e-04,1.330875903367996216e-01,9.612650728740845807e-07,0.000000000000000000e+00,-2.986384206451475620e-04,1.000000000000000000e+00
1.896134853363037109e+00,6.459790649414062500e+02,1.385761871337890625e+02,1.385761871337890625e+02,2.925369888544082642e-02,2.506521642208099365e-01,-3.051758176297880709e-05,-2.567823103163391352e-04,-1.359597831651626620e-06,2.612165699247270823e-04,6.204773089848458767e-04,5.574946953856851906e-06,1.440305635333061218e-02,-6.680142832919955254e-04,1.330875903367996216e-01,9.612650728740845807e-07,0.000000000000000000e+00,-2.986384206451475620e-04,1.000000000000000000e+00
1.896134853363037109e+00,6.459790649414062500e+02,1.385761871337890625e+02,1.385761871337890625e+02,2.925369888544082642e-02,2.506521642208099365e-01,-3.051758176297880709e-05,-2.567823103163391352e-04,-1.359597831651626620e-06,2.612165699247270823e-04,6.204773089848458767e-04,5.574946953856851906e-06,1.440305635333061218e-02,-6.680142832919955254e-04,1.330875903367996216e-01,9.612650728740845807e-07,0.000000000000000000e+00,-2.986384206451475620e-04,1.000000000000000000e+00
1.896134853363037109e+00,6.459790649414062500e+02,1.385761871337890625e+02,1.385761871337890625e+02,2.925369888544082642e-02,2.506521642208099365e-01,-3.051758176297880709e-05,-2.567823103163391352e-04,-1.359597831651626620e-06,2.612165699247270823e-04,6.204773089848458767e-04,5.574946953856851906e-06,1.440305635333061218e-02,-6.680142832919955254e-04,1.330875903367996216e-01,9.612650728740845807e-07,0.000000000000000000e+00,-2.986384206451475620e-04,1.000000000000000000e+00
1.896134853363037109e+00,6.459790649414062500e+02,1.385761871337890625e+02,1.385761871337890625e+02,2.925369888544082642e-02,2.506521642208099365e-01,-3.051758176297880709e-05,-2.567823103163391352e-04,-1.359597831651626620e-06,2.612165699247270823e-04,6.204773089848458767e-04,5.574946953856851906e-06,1.440305635333061218e-02,-6.680142832919955254e-04,1.330875903367996216e-01,9.612650728740845807e-07,0.000000000000000000e+00,-2.986384206451475620e-04,1.000000000000000000e+00
2.195794820785522461e+00,6.459790039062500000e+02,1.385761871337890625e+02,1.385761871337890625e+02,1.030675508081912994e-02,2.506522536277770996e-01,-3.051757812500000000e-05,-5.588598287431523204e-05,-3.387503397789259907e-07,5.785573739558458328e-04,1.305604237131774426e-03,4.721020559372846037e-06,6.975920405238866806e-03,-1.595544163137674332e-04,2.901601977646350861e-02,-3.519765812143305084e-07,0.000000000000000000e+00,-3.008685016538947821e-04,1.000000000000000000e+00
2.195794820785522461e+00,6.459790039062500000e+02,1.385761871337890625e+02,1.385761871337890625e+02,1.030675508081912994e-02,2.506522536277770996e-01,-3.051757812500000000e-05,-5.588598287431523204e-05,-3.387503397789259907e-07,5.785573739558458328e-04,1.305604237131774426e-03,4.721020559372846037e-06,6.975920405238866806e-03,-1.595544163137674332e-04,2.901601977646350861e-02,-3.519765812143305084e-07,0.000000000000000000e+00,-3.008685016538947821e-04,1.000000000000000000e+00
2.195794820785522461e+00,6.459790039062500000e+02,1.385761871337890625e+02,1.385761871337890625e+02,1.030675508081912994e-02,2.506522536277770996e-01,-3.051757812500000000e-05,-5.588598287431523204e-05,-3.387503397789259907e-07,5.785573739558458328e-04,1.305604237131774426e-03,4.721020559372846037e-06,6.975920405238866806e-03,-1.595544163137674332e-04,2.901601977646350861e-02,-3.519765812143305084e-07,0.000000000000000000e+00,-3.008685016538947821e-04,1.000000000000000000e+00
2.195794820785522461e+00,6.459790039062500000e+02,1.385761871337890625e+02,1.385761871337890625e+02,1.030675508081912994e-02,2.506522536277770996e-01,-3.051757812500000000e-05,-5.588598287431523204e-05,-3.387503397789259907e-07,5.785573739558458328e-04,1.305604237131774426e-03,4.721020559372846037e-06,6.975920405238866806e-03,-1.595544163137674332e-04,2.901601977646350861e-02,-3.519765812143305084e-07,0.000000000000000000e+00,-3.008685016538947821e-04,1.000000000000000000e+00
2.195794820785522461e+00,6.459790039062500000e+02,1.385761871337890625e+02,1.385761871337890625e+02,1.030675508081912994e-02,2.506522536277770996e-01,-3.051757812500000000e-05,-5.588598287431523204e-05,-3.387503397789259907e-07,5.785573739558458328e-04,1.305604237131774426e-03,4.721020559372846037e-06,6.975920405238866806e-03,-1.595544163137674332e-04,2.901601977646350861e-02,-3.519765812143305084e-07,0.000000000000000000e+00,-3.008685016538947821e-04,1.000000000000000000e+00
2.195794820785522461e+00,6.459790039062500000e+02,1.385761871337890625e+02,1.385761871337890625e+02,1.030675508081912994e-02,2.506522536277770996e-01,-3.051757812500000000e-05,-5.588598287431523204e-05,-3.387503397789259907e-07,5.785573739558458328e-04,1.305604237131774426e-03,4.721020559372846037e-06,6.975920405238866806e-03,-1.595544163137674332e-04,2.901601977646350861e-02,-3.519765812143305084e-07,0.000000000000000000e+00,-3.008685016538947821e-04,1.000000000000000000e+00
2.195794820785522461e+00,6.459790039062500000e+02,1.385761871337890625e+02,1.385761871337890625e+02,1.030675508081912994e-02,2.506522536277770996e-01,-3.051757812500000000e-05,-5.588598287431523204e-05,-3.387503397789259907e-07,5.785573739558458328e-04,1.305604237131774426e-03,4.721020559372846037e-06,6.975920405238866806e-03,-1.595544163137674332e-04,2.901601977646350861e-02,-3.519765812143305084e-07,0.000000000000000000e+00,-3.008685016538947821e-04,1.000000000000000000e+00
2.195794820785522461e+00,6.459790039062500000e+02,1.385761871337890625e+02,1.385761871337890625e+02,1.030675508081912994e-02,2.506522536277770996e-01,-3.051757812500000000e-05,-5.588598287431523204e-05,-3.387503397789259907e-07,5.785573739558458328e-04,1.305604237131774426e-03,4.721020559372846037e-06,6.975920405238866806e-03,-1.595544163137674332e-04,2.901601977646350861e-02,-3.519765812143305084e-07,0.000000000000000000e+00,-3.008685016538947821e-04,1.000000000000000000e+00
2.195794820785522461e+00,6.459790039062500000e+02,1.385761871337890625e+02,1.385761871337890625e+02,1.030675508081912994e-02,2.506522536277770996e-01,-3.051757812500000000e-05,-5.588598287431523204e-05,-3.387503397789259907e-07,5.785573739558458328e-04,1.305604237131774426e-03,4.721020559372846037e-06,6.975920405238866806e-03,-1.595544163137674332e-04,2.901601977646350861e-02,-3.519765812143305084e-07,0.000000000000000000e+00,-3.008685016538947821e-04,1.000000000000000000e+00
2.195794820785522461e+00,6.459790039062500000e+02,1.385761871337890625e+02,1.385761871337890625e+02,1.030675508081912994e-02,2.506522536277770996e-01,-3.051757812500000000e-05,-5.588598287431523204e-05,-3.387503397789259907e-07,5.785573739558458328e-04,1.305604237131774426e-03,4.721020559372846037e-06,6.975920405238866806e-03,-1.595544163137674332e-04,2.901601977646350861e-02,-3.519765812143305084e-07,0.000000000000000000e+00,-3.008685016538947821e-04,1.000000000000000000e+00
2.374083757400512695e+00,6.459789428710937500e+02,1.385761871337890625e+02,1.385761871337890625e+02,8.667510002851486206e-03,2.506522536277770996e-01,0.000000000000000000e+00,-6.046922135283239186e-05,-3.897030467214790406e-07,1.610589912161231041e-03,-2.570680226199328899e-05,-2.857872516415227437e-07,5.788539536297321320e-03,-1.961686502909287810e-04,3.129086643457412720e-02,-1.071586339662644605e-07,0.000000000000000000e+00,-3.008685016538947821e-04,1.000000000000000000e+00
2.374083757400512695e+00,6.459789428710937500e+02,1.385761871337890625e+02,1.385761871337890625e+02,8.667510002851486206e-03,2.506522536277770996e-01,0.000000000000000000e+00,-6.046922135283239186e-05,-3.897030467214790406e-07,1.610589912161231041e-03,-2.570680226199328899e-05,-2.857872516415227437e-07,5.788539536297321320e-03,-1.961686502909287810e-04,3.129086643457412720e-02,-1.071586339662644605e-07,0.000000000000000000e+00,-3.008685016538947821e-04,1.000000000000000000e+00
2.374083757400512695e+00,6.459789428710937500e+02,1.385761871337890625e+02,1.385761871337890625e+02,8.667510002851486206e-03,2.506522536277770996e-01,0.000000000000000000e+00,-6.046922135283239186e-05,-3.897030467214790406e-07,1.610589912161231041e-03,-2.570680226199328899e-05,-2.857872516415227437e-07,5.788539536297321320e-03,-1.961686502909287810e-04,3.129086643457412720e-02,-1.071586339662644605e-07,0.000000000000000000e+00,-3.008685016538947821e-04,1.000000000000000000e+00
2.447860002517700195e+00,6.459789428710937500e+02,1.385761871337890625e+02,1.385761871337890625e+02,5.757849197834730148e-03,2.506522536277770996e-01,0.000000000000000000e+00,-5.092014907859265804e-05,-2.989523864016518928e-07,-9.475082042627036572e-04,1.294328831136226654e-04,1.230079760716762394e-06,-3.467373922467231750e-02,-1.447115937480702996e-04,2.628142945468425751e-02,4.746798154542375414e-08,0.000000000000000000e+00,-3.008685016538947821e-04,1.000000000000000000e+00
2.447860002517700195e+00,6.459789428710937500e+02,1.385761871337890625e+02,1.385761871337890625e+02,5.757849197834730148e-03,2.506522536277770996e-01,0.000000000000000000e+00,-5.092014907859265804e-05,-2.989523864016518928e-07,-9.475082042627036572e-04,1.294328831136226654e-04,1.230079760716762394e-06,-3.467373922467231750e-02,-1.447115937480702996e-04,2.628142945468425751e-02,4.746798154542375414e-08,0.000000000000000000e+00,-3.008685016538947821e-04,1.000000000000000000e+00
2.500878810882568359e+00,6.459789428710937500e+02,1.385761871337890625e+02,1.385761871337890625e+02,4.098113160580396652e-03,2.506522536277770996e-01,0.000000000000000000e+00,-3.924124757759273052e-05,-1.975427039724308997e-07,1.329950522631406784e-03,2.202784526161849499e-04,1.912711468321504071e-06,4.295567423105239868e-02,-1.025940364343114197e-04,2.023690380156040192e-02,7.750705321996065322e-08,0.000000000000000000e+00,-3.008685016538947821e-04,1.000000000000000000e+00
2.500878810882568359e+00,6.459789428710937500e+02,1.385761871337890625e+02,1.385761871337890625e+02,4.098113160580396652e-03,2.506522536277770996e-01,0.000000000000000000e+00,-3.924124757759273052e-05,-1.975427039724308997e-07,1.329950522631406784e-03,2.202784526161849499e-04,1.912711468321504071e-06,4.295567423105239868e-02,-1.025940364343114197e-04,2.023690380156040192e-02,7.750705321996065322e-08,0.000000000000000000e+00,-3.008685016538947821e-04,1.000000000000000000e+00
2.500878810882568359e+00,6.459789428710937500e+02,1.385761871337890625e+02,1.385761871337890625e+02,3.162377513945102692e-03,2.506522536277770996e-01,0.000000000000000000e+00,-3.147056122543290257e-05,-8.834504683363775257e-08,2.025049645453691483e-03,1.310034858761355281e-04,1.840928007368347608e-06,1.171845197677612305e-02,-3.791553535847924650e-05,1.622389256954193115e-02,7.888552744361732039e-08,0.000000000000000000e+00,-3.008685016538947821e-04,1.000000000000000000e+00
2.560195446014404297e+00,6.459789428710937500e+02,1.385761871337890625e+02,1.385761871337890625e+02,3.162377513945102692e-03,2.506522536277770996e-01,0.000000000000000000e+00,-3.147056122543290257e-05,-8.834504683363775257e-08,2.025049645453691483e-03,1.310034858761355281e-04,1.840928007368347608e-06,1.171845197677612305e-02,-3.791553535847924650e-05,1.622389256954193115e-02,7.888552744361732039e-08,0.000000000000000000e+00,-3.008685016538947821e-04,1.000000000000000000e+00
2.560195446014404297e+00,6.459789428710937500e+02,1.385761871337890625e+02,1.385761871337890625e+02,3.162377513945102692e-03,2.506522536277770996e-01,0.000000000000000000e+00,-3.147056122543290257e-05,-8.834504683363775257e-08,2.025049645453691483e-03,1.310034858761355281e-04,1.840928007368347608e-06,1.171845197677612305e-02,-3.791553535847924650e-05,1.622389256954193115e-02,7.888552744361732039e-08,0.000000000000000000e+00,-3.008685016538947821e-04,1.000000000000000000e+00
2.618730545043945312e+00,6.459789428710937500e+02,1.385761871337890625e+02,1.385761871337890625e+02,2.335924655199050903e-03,2.506522536277770996e-01,0.000000000000000000e+00,-2.429593223496340215e-05,-1.354483174509368837e-07,-2.555467945057898760e-04,1.225696905748918653e-04,-8.047013011491799261e-07,-3.896117582917213440e-02,-7.069945422699674964e-05,1.251802127808332443e-02,6.531283247568353545e-08,0.000000000000000000e+00,-3.008685016538947821e-04,1.000000000000000000e+00
2.618730545043945312e+00,6.459789428710937500e+02,1.385761871337890625e+02,1.385761871337890625e+02,2.335924655199050903e-03,2.506522536277770996e-01,0.000000000000000000e+00,-2.429593223496340215e-05,-1.354483174509368837e-07,-2.555467945057898760e-04,1.225696905748918653e-04,-8.047013011491799261e-07,-3.896117582917213440e-02,-7.069945422699674964e-05,1.251802127808332443e-02,6.531283247568353545e-08,0.000000000000000000e+00,-3.008685016538947821e-04,1.000000000000000000e+00
2.677334070205688477e+00,6.459789428710937500e+02,1.385761871337890625e+02,1.385761871337890625e+02,2.158339601010084152e-03,2.506522536277770996e-01,0.000000000000000000e+00,-9.117658919421955943e-06,3.372455736894153233e-08,1.457001053495332599e-05,2.589993237052112818e-04,2.886735501306247897e-06,4.609224852174520493e-03,1.945201802300289273e-05,4.745513666421175003e-03,-1.242862452954796026e-07,0.000000000000000000e+00,-3.008685016538947821e-04,1.000000000000000000e+00
2.677334070205688477e+00,6.459789428710937500e+02,1.385761871337890625e+02,1.385761871337890625e+02,2.158339601010084152e-03,2.506522536277770996e-01,0.000000000000000000e+00,-9.117658919421955943e-06,3.372455736894153233e-08,1.457001053495332599e-05,2.589993237052112818e-04,2.886735501306247897e-06,4.609224852174520493e-03,1.945201802300289273e-05,4.745513666421175003e-03,-1.242862452954796026e-07,0.000000000000000000e+00,-3.008685016538947821e-04,1.000000000000000000e+00
2.677334070205688477e+00,6.459789428710937500e+02,1.385761871337890625e+02,1.385761871337890625e+02,2.158339601010084152e-03,2.506522536277770996e-01,0.000000000000000000e+00,-9.117658919421955943e-06,3.372455736894153233e-08,1.457001053495332599e-05,2.589993237052112818e-04,2.886735501306247897e-06,4.609224852174520493e-03,1.945201802300289273e-05,4.745513666421175003e-03,-1.242862452954796026e-07,0.000000000000000000e+00,-3.008685016538947821e-04,1.000000000000000000e+00
2.677334070205688477e+00,6.459789428710937500e+02,1.385761871337890625e+02,1.385761871337890625e+02,2.158339601010084152e-03,2.506522536277770996e-01,0.000000000000000000e+00,-9.117658919421955943e-06,3.372455736894153233e-08,1.457001053495332599e-05,2.589993237052112818e-04,2.886735501306247897e-06,4.609224852174520493e-03,1.945201802300289273e-05,4.745513666421175003e-03,-1.242862452954796026e-07,0.000000000000000000e+00,-3.008685016538947821e-04,1.000000000000000000e+00
2.755024909973144531e+00,6.459789428710937500e+02,1.385761871337890625e+02,1.385761871337890625e+02,1.823660451918840408e-03,2.506522536277770996e-01,0.000000000000000000e+00,-1.166351103165652603e-05,-1.156244664457517501e-07,2.126382014466798864e-06,-3.276901406934484839e-05,-1.922350520544569008e-06,-1.601685362402349710e-04,-6.270300218602642417e-05,6.035409867763519287e-03,-4.720379109812711249e-08,0.000000000000000000e+00,-3.008685016538947821e-04,1.000000000000000000e+00
2.755024909973144531e+00,6.459789428710937500e+02,1.385761871337890625e+02,1.385761871337890625e+02,1.823660451918840408e-03,2.506522536277770996e-01,0.000000000000000000e+00,-1.166351103165652603e-05,-1.156244664457517501e-07,2.126382014466798864e-06,-3.276901406934484839e-05,-1.922350520544569008e-06,-1.601685362402349710e-04,-6.270300218602642417e-05,6.035409867763519287e-03,-4.720379109812711249e-08,0.000000000000000000e+00,-3.008685016538947821e-04,1.000000000000000000e+00
2.755024909973144531e+00,6.459789428710937500e+02,1.385761871337890625e+02,1.385761871337890625e+02,1.823660451918840408e-03,2.506522536277770996e-01,0.000000000000000000e+00,-1.166351103165652603e-05,-1.156244664457517501e-07,2.126382014466798864e-06,-3.276901406934484839e-05,-1.922350520544569008e-06,-1.601685362402349710e-04,-6.270300218602642417e-05,6.035409867763519287e-03,-4.720379109812711249e-08,0.000000000000000000e+00,-3.008685016538947821e-04,1.000000000000000000e+00
2.830169916152954102e+00,6.459789428710937500e+02,1.385761871337890625e+02,1.385761871337890625e+02,1.366037758998572826e-03,2.506522536277770996e-01,0.000000000000000000e+00,-1.110344146582065150e-05,-1.373464328935369849e-07,-5.517578683793544769e-04,7.453184025507653132e-06,-2.890673158617573790e-07,-7.370872423052787781e-03,-5.367801713873632252e-05,5.731334444135427475e-03,-8.173264731681229023e-09,0.000000000000000000e+00,-3.008685016538947821e-04,1.000000000000000000e+00
2.830169916152954102e+00,6.459789428710937500e+02,1.385761871337890625e+02,1.385761871337890625e+02,1.366037758998572826e-03,2.506522536277770996e-01,0.000000000000000000e+00,-1.110344146582065150e-05,-1.373464328935369849e-07,-5.517578683793544769e-04,7.453184025507653132e-06,-2.890673158617573790e-07,-7.370872423052787781e-03,-5.367801713873632252e-05,5.731334444135427475e-03,-8.173264731681229023e-09,0.000000000000000000e+00,-3.008685016538947821e-04,1.000000000000000000e+00
2.830169916152954102e+00,6.459789428710937500e+02,1.385761871337890625e+02,1.385761871337890625e+02,1.366037758998572826e-03,2.506522536277770996e-01,0.000000000000000000e+00,-1.110344146582065150e-05,-1.373464328935369849e-07,-5.517578683793544769e-04,7.453184025507653132e-06,-2.890673158617573790e-07,-7.370872423052787781e-03,-5.367801713873632252e-05,5.731334444135427475e-03,-8.173264731681229023e-09,0.000000000000000000e+00,-3.008685016538947821e-04,1.000000000000000000e+00
2.830169916152954102e+00,6.459789428710937500e+02,1.385761871337890625e+02,1.385761871337890625e+02,1.366037758998572826e-03,2.506522536277770996e-01,0.000000000000000000e+00,-1.110344146582065150e-05,-1.373464328935369849e-07,-5.517578683793544769e-04,7.453184025507653132e-06,-2.890673158617573790e-07,-7.370872423052787781e-03,-5.367801713873632252e-05,5.731334444135427475e-03,-8.173264731681229023e-09,0.000000000000000000e+00,-3.008685016538947821e-04,1.000000000000000000e+00
2.830169916152954102e+00,6.459789428710937500e+02,1.385761871337890625e+02,1.385761871337890625e+02,1.366037758998572826e-03,2.506522536277770996e-01,0.000000000000000000e+00,-1.110344146582065150e-05,-1.373464328935369849e-07,-5.517578683793544769e-04,7.453184025507653132e-06,-2.890673158617573790e-07,-7.370872423052787781e-03,-5.367801713873632252e-05,5.731334444135427475e-03,-8.173264731681229023e-09,0.000000000000000000e+00,-3.008685016538947821e-04,1.000000000000000000e+00
2.917726278305053711e+00,6.459789428710937500e+02,1.385761871337890625e+02,1.385761871337890625e+02,9.835471864789724350e-04,2.506522536277770996e-01,0.000000000000000000e+00,-8.958695616456680000e-06,1.240055080842239477e-08,2.231929975096136332e-04,2.449560088280122727e-05,1.710292281131842174e-06,8.850879035890102386e-03,6.936229056009324268e-06,4.619237966835498810e-03,7.388002654096226252e-09,0.000000000000000000e+00,-3.008685016538947821e-04,1.000000000000000000e+00
