# Time,X,Y,Z,Roll,Pitch,Yaw,Vx,Vy,Vz,Ax,Ay,Az,Wx,Wy,Wz,Throttle,Steer,Brake
0.000000000000000000e+00,6.482507934570312500e+02,5.362656116485595703e+00,5.362656116485595703e+00,-3.891636729240417480e-01,-1.235745315551757812e+02,-5.670870780944824219e+00,-7.909914970397949219e+00,-1.255308723449707031e+01,-1.649584434926509857e-02,-5.319048881530761719e+00,-4.059473872184753418e-01,1.564022898674011230e-02,-7.495458722114562988e-01,-8.537515640258789062e+00,-2.589479446411132812e+01,5.000000000000000000e-01,-1.738494932651519775e-01,0.000000000000000000e+00
1.045818328857421875e-01,6.482507934570312500e+02,5.362656116485595703e+00,5.362656116485595703e+00,-3.891636729240417480e-01,-1.235745315551757812e+02,-5.670870780944824219e+00,-7.909914970397949219e+00,-1.255308723449707031e+01,-1.649584434926509857e-02,-5.319048881530761719e+00,-4.059473872184753418e-01,1.564022898674011230e-02,-7.495458722114562988e-01,-8.537515640258789062e+00,-2.589479446411132812e+01,5.000000000000000000e-01,-1.738494932651519775e-01,0.000000000000000000e+00
1.045818328857421875e-01,6.482507934570312500e+02,5.362656116485595703e+00,5.362656116485595703e+00,-3.891636729240417480e-01,-1.235745315551757812e+02,-5.670870780944824219e+00,-7.909914970397949219e+00,-1.255308723449707031e+01,-1.649584434926509857e-02,-5.319048881530761719e+00,-4.059473872184753418e-01,1.564022898674011230e-02,-7.495458722114562988e-01,-8.537515640258789062e+00,-2.589479446411132812e+01,5.000000000000000000e-01,-1.738494932651519775e-01,0.000000000000000000e+00
1.045818328857421875e-01,6.482507934570312500e+02,5.362656116485595703e+00,5.362656116485595703e+00,-3.891636729240417480e-01,-1.235745315551757812e+02,-5.670870780944824219e+00,-7.909914970397949219e+00,-1.255308723449707031e+01,-1.649584434926509857e-02,-5.319048881530761719e+00,-4.059473872184753418e-01,1.564022898674011230e-02,-7.495458722114562988e-01,-8.537515640258789062e+00,-2.589479446411132812e+01,5.000000000000000000e-01,-1.738494932651519775e-01,0.000000000000000000e+00
1.045818328857421875e-01,6.482507934570312500e+02,5.362656116485595703e+00,5.362656116485595703e+00,-3.891636729240417480e-01,-1.235745315551757812e+02,-5.670870780944824219e+00,-7.909914970397949219e+00,-1.255308723449707031e+01,-1.649584434926509857e-02,-5.319048881530761719e+00,-4.059473872184753418e-01,1.564022898674011230e-02,-7.495458722114562988e-01,-8.537515640258789062e+00,-2.589479446411132812e+01,5.000000000000000000e-01,-1.738494932651519775e-01,0.000000000000000000e+00
1.045818328857421875e-01,6.482507934570312500e+02,5.362656116485595703e+00,5.362656116485595703e+00,-3.891636729240417480e-01,-1.235745315551757812e+02,-5.670870780944824219e+00,-7.909914970397949219e+00,-1.255308723449707031e+01,-1.649584434926509857e-02,-5.319048881530761719e+00,-4.059473872184753418e-01,1.564022898674011230e-02,-7.495458722114562988e-01,-8.537515640258789062e+00,-2.589479446411132812e+01,5.000000000000000000e-01,-1.738494932651519775e-01,0.000000000000000000e+00
1.045818328857421875e-01,6.474028930664062500e+02,4.118865966796875000e+00,4.118865966796875000e+00,-3.155888617038726807e-01,-1.260855331420898438e+02,-6.194462776184082031e+00,-8.572201728820800781e+00,-1.247339916229248047e+01,-1.780488714575767517e-02,-6.325027465820312500e+00,7.610438466072082520e-01,-1.250173244625329971e-02,4.935739934444427490e-01,-4.671695709228515625e+00,-2.049586677551269531e+01,5.000000000000000000e-01,-1.553827971220016479e-01,0.000000000000000000e+00
2.092907428741455078e-01,6.474028930664062500e+02,4.118865966796875000e+00,4.118865966796875000e+00,-3.155888617038726807e-01,-1.260855331420898438e+02,-6.194462776184082031e+00,-8.572201728820800781e+00,-1.247339916229248047e+01,-1.780488714575767517e-02,-6.325027465820312500e+00,7.610438466072082520e-01,-1.250173244625329971e-02,4.935739934444427490e-01,-4.671695709228515625e+00,-2.049586677551269531e+01,5.000000000000000000e-01,-1.553827971220016479e-01,0.000000000000000000e+00
2.092907428741455078e-01,6.474028930664062500e+02,4.118865966796875000e+00,4.118865966796875000e+00,-3.155888617038726807e-01,-1.260855331420898438e+02,-6.194462776184082031e+00,-8.572201728820800781e+00,-1.247339916229248047e+01,-1.780488714575767517e-02,-6.325027465820312500e+00,7.610438466072082520e-01,-1.250173244625329971e-02,4.935739934444427490e-01,-4.671695709228515625e+00,-2.049586677551269531e+01,5.000000000000000000e-01,-1.553827971220016479e-01,0.000000000000000000e+00
2.092907428741455078e-01,6.474028930664062500e+02,4.118865966796875000e+00,4.118865966796875000e+00,-3.155888617038726807e-01,-1.260855331420898438e+02,-6.194462776184082031e+00,-8.572201728820800781e+00,-1.247339916229248047e+01,-1.780488714575767517e-02,-6.325027465820312500e+00,7.610438466072082520e-01,-1.250173244625329971e-02,4.935739934444427490e-01,-4.671695709228515625e+00,-2.049586677551269531e+01,5.000000000000000000e-01,-1.553827971220016479e-01,0.000000000000000000e+00
2.092907428741455078e-01,6.474028930664062500e+02,4.118865966796875000e+00,4.118865966796875000e+00,-3.155888617038726807e-01,-1.260855331420898438e+02,-6.194462776184082031e+00,-8.572201728820800781e+00,-1.247339916229248047e+01,-1.780488714575767517e-02,-6.325027465820312500e+00,7.610438466072082520e-01,-1.250173244625329971e-02,4.935739934444427490e-01,-4.671695709228515625e+00,-2.049586677551269531e+01,5.000000000000000000e-01,-1.553827971220016479e-01,0.000000000000000000e+00
2.092907428741455078e-01,6.465021972656250000e+02,2.900743722915649414e+00,2.900743722915649414e+00,-3.448152542114257812e-01,-1.281501770019531250e+02,-5.761387348175048828e+00,-9.011703491210937500e+00,-1.215381526947021484e+01,-2.500833384692668915e-02,-5.889977931976318359e+00,4.282899856567382812e+00,-9.653690457344055176e-02,6.619982719421386719e+00,1.083390235900878906e+00,-2.568918418884277344e+01,5.000000000000000000e-01,-1.456087678670883179e-01,0.000000000000000000e+00
2.839093208312988281e-01,6.465021972656250000e+02,2.900743722915649414e+00,2.900743722915649414e+00,-3.448152542114257812e-01,-1.281501770019531250e+02,-5.761387348175048828e+00,-9.011703491210937500e+00,-1.215381526947021484e+01,-2.500833384692668915e-02,-5.889977931976318359e+00,4.282899856567382812e+00,-9.653690457344055176e-02,6.619982719421386719e+00,1.083390235900878906e+00,-2.568918418884277344e+01,5.000000000000000000e-01,-1.456087678670883179e-01,0.000000000000000000e+00
2.839093208312988281e-01,6.465021972656250000e+02,2.900743722915649414e+00,2.900743722915649414e+00,-3.448152542114257812e-01,-1.281501770019531250e+02,-5.761387348175048828e+00,-9.011703491210937500e+00,-1.215381526947021484e+01,-2.500833384692668915e-02,-5.889977931976318359e+00,4.282899856567382812e+00,-9.653690457344055176e-02,6.619982719421386719e+00,1.083390235900878906e+00,-2.568918418884277344e+01,5.000000000000000000e-01,-1.456087678670883179e-01,0.000000000000000000e+00
2.839093208312988281e-01,6.465021972656250000e+02,2.900743722915649414e+00,2.900743722915649414e+00,-3.448152542114257812e-01,-1.281501770019531250e+02,-5.761387348175048828e+00,-9.011703491210937500e+00,-1.215381526947021484e+01,-2.500833384692668915e-02,-5.889977931976318359e+00,4.282899856567382812e+00,-9.653690457344055176e-02,6.619982719421386719e+00,1.083390235900878906e+00,-2.568918418884277344e+01,5.000000000000000000e-01,-1.456087678670883179e-01,0.000000000000000000e+00
2.839093208312988281e-01,6.465021972656250000e+02,2.900743722915649414e+00,2.900743722915649414e+00,-3.448152542114257812e-01,-1.281501770019531250e+02,-5.761387348175048828e+00,-9.011703491210937500e+00,-1.215381526947021484e+01,-2.500833384692668915e-02,-5.889977931976318359e+00,4.282899856567382812e+00,-9.653690457344055176e-02,6.619982719421386719e+00,1.083390235900878906e+00,-2.568918418884277344e+01,5.000000000000000000e-01,-1.456087678670883179e-01,0.000000000000000000e+00
3.569011688232421875e-01,6.457891845703125000e+02,2.016564369201660156e+00,2.016564369201660156e+00,-3.593430519104003906e-01,-1.307532501220703125e+02,-5.603977203369140625e+00,-9.509687423706054688e+00,-1.194966411590576172e+01,-1.910315267741680145e-02,-6.822459697723388672e+00,2.796903371810913086e+00,8.090192824602127075e-02,1.812944531440734863e+00,-5.194802284240722656e+00,-3.812360763549804688e+01,5.000000000000000000e-01,-1.594314575195312500e-01,0.000000000000000000e+00
3.569011688232421875e-01,6.457891845703125000e+02,2.016564369201660156e+00,2.016564369201660156e+00,-3.593430519104003906e-01,-1.307532501220703125e+02,-5.603977203369140625e+00,-9.509687423706054688e+00,-1.194966411590576172e+01,-1.910315267741680145e-02,-6.822459697723388672e+00,2.796903371810913086e+00,8.090192824602127075e-02,1.812944531440734863e+00,-5.194802284240722656e+00,-3.812360763549804688e+01,5.000000000000000000e-01,-1.594314575195312500e-01,0.000000000000000000e+00
3.569011688232421875e-01,6.457891845703125000e+02,2.016564369201660156e+00,2.016564369201660156e+00,-3.593430519104003906e-01,-1.307532501220703125e+02,-5.603977203369140625e+00,-9.509687423706054688e+00,-1.194966411590576172e+01,-1.910315267741680145e-02,-6.822459697723388672e+00,2.796903371810913086e+00,8.090192824602127075e-02,1.812944531440734863e+00,-5.194802284240722656e+00,-3.812360763549804688e+01,5.000000000000000000e-01,-1.594314575195312500e-01,0.000000000000000000e+00
3.569011688232421875e-01,6.457891845703125000e+02,2.016564369201660156e+00,2.016564369201660156e+00,-3.593430519104003906e-01,-1.307532501220703125e+02,-5.603977203369140625e+00,-9.509687423706054688e+00,-1.194966411590576172e+01,-1.910315267741680145e-02,-6.822459697723388672e+00,2.796903371810913086e+00,8.090192824602127075e-02,1.812944531440734863e+00,-5.194802284240722656e+00,-3.812360763549804688e+01,5.000000000000000000e-01,-1.594314575195312500e-01,0.000000000000000000e+00
4.765405654907226562e-01,6.450546264648437500e+02,1.168121576309204102e+00,1.168121576309204102e+00,-3.001116514205932617e-01,-1.333606719970703125e+02,-5.966678142547607422e+00,-1.005965042114257812e+01,-1.168122863769531250e+01,-1.046730950474739075e-02,-4.596838474273681641e+00,2.243704795837402344e+00,7.218226790428161621e-02,-4.173634052276611328e+00,-8.588901519775390625e+00,-3.437859725952148438e+01,5.000000000000000000e-01,-1.102712005376815796e-01,0.000000000000000000e+00
4.765405654907226562e-01,6.450546264648437500e+02,1.168121576309204102e+00,1.168121576309204102e+00,-3.001116514205932617e-01,-1.333606719970703125e+02,-5.966678142547607422e+00,-1.005965042114257812e+01,-1.168122863769531250e+01,-1.046730950474739075e-02,-4.596838474273681641e+00,2.243704795837402344e+00,7.218226790428161621e-02,-4.173634052276611328e+00,-8.588901519775390625e+00,-3.437859725952148438e+01,5.000000000000000000e-01,-1.102712005376815796e-01,0.000000000000000000e+00
4.765405654907226562e-01,6.450546264648437500e+02,1.168121576309204102e+00,1.168121576309204102e+00,-3.001116514205932617e-01,-1.333606719970703125e+02,-5.966678142547607422e+00,-1.005965042114257812e+01,-1.168122863769531250e+01,-1.046730950474739075e-02,-4.596838474273681641e+00,2.243704795837402344e+00,7.218226790428161621e-02,-4.173634052276611328e+00,-8.588901519775390625e+00,-3.437859725952148438e+01,5.000000000000000000e-01,-1.102712005376815796e-01,0.000000000000000000e+00
4.765405654907226562e-01,6.450546264648437500e+02,1.168121576309204102e+00,1.168121576309204102e+00,-3.001116514205932617e-01,-1.333606719970703125e+02,-5.966678142547607422e+00,-1.005965042114257812e+01,-1.168122863769531250e+01,-1.046730950474739075e-02,-4.596838474273681641e+00,2.243704795837402344e+00,7.218226790428161621e-02,-4.173634052276611328e+00,-8.588901519775390625e+00,-3.437859725952148438e+01,5.000000000000000000e-01,-1.102712005376815796e-01,0.000000000000000000e+00
4.765405654907226562e-01,6.450546264648437500e+02,1.168121576309204102e+00,1.168121576309204102e+00,-3.001116514205932617e-01,-1.333606719970703125e+02,-5.966678142547607422e+00,-1.005965042114257812e+01,-1.168122863769531250e+01,-1.046730950474739075e-02,-4.596838474273681641e+00,2.243704795837402344e+00,7.218226790428161621e-02,-4.173634052276611328e+00,-8.588901519775390625e+00,-3.437859725952148438e+01,5.000000000000000000e-01,-1.102712005376815796e-01,0.000000000000000000e+00
4.765405654907226562e-01,6.450546264648437500e+02,1.168121576309204102e+00,1.168121576309204102e+00,-3.001116514205932617e-01,-1.333606719970703125e+02,-5.966678142547607422e+00,-1.005965042114257812e+01,-1.168122863769531250e+01,-1.046730950474739075e-02,-4.596838474273681641e+00,2.243704795837402344e+00,7.218226790428161621e-02,-4.173634052276611328e+00,-8.588901519775390625e+00,-3.437859725952148438e+01,5.000000000000000000e-01,-1.102712005376815796e-01,0.000000000000000000e+00
4.765405654907226562e-01,6.450546264648437500e+02,1.168121576309204102e+00,1.168121576309204102e+00,-3.001116514205932617e-01,-1.333606719970703125e+02,-5.966678142547607422e+00,-1.005965042114257812e+01,-1.168122863769531250e+01,-1.046730950474739075e-02,-4.596838474273681641e+00,2.243704795837402344e+00,7.218226790428161621e-02,-4.173634052276611328e+00,-8.588901519775390625e+00,-3.437859725952148438e+01,5.000000000000000000e-01,-1.102712005376815796e-01,0.000000000000000000e+00
6.200885772705078125e-01,6.440075073242187500e+02,4.414848238229751587e-02,4.414848238229751587e-02,-2.113055437803268433e-01,-1.354641723632812500e+02,-6.294559955596923828e+00,-1.050580406188964844e+01,-1.110063838958740234e+01,-1.398295350372791290e-02,-3.108044862747192383e+00,4.044571876525878906e+00,-2.449106797575950623e-02,6.226441860198974609e-01,-1.161579012870788574e+00,-1.534758949279785156e+01,5.000000000000000000e-01,-6.697591394186019897e-02,0.000000000000000000e+00
6.200885772705078125e-01,6.440075073242187500e+02,4.414848238229751587e-02,4.414848238229751587e-02,-2.113055437803268433e-01,-1.354641723632812500e+02,-6.294559955596923828e+00,-1.050580406188964844e+01,-1.110063838958740234e+01,-1.398295350372791290e-02,-3.108044862747192383e+00,4.044571876525878906e+00,-2.449106797575950623e-02,6.226441860198974609e-01,-1.161579012870788574e+00,-1.534758949279785156e+01,5.000000000000000000e-01,-6.697591394186019897e-02,0.000000000000000000e+00
6.200885772705078125e-01,6.440075073242187500e+02,4.414848238229751587e-02,4.414848238229751587e-02,-2.113055437803268433e-01,-1.354641723632812500e+02,-6.294559955596923828e+00,-1.050580406188964844e+01,-1.110063838958740234e+01,-1.398295350372791290e-02,-3.108044862747192383e+00,4.044571876525878906e+00,-2.449106797575950623e-02,6.226441860198974609e-01,-1.161579012870788574e+00,-1.534758949279785156e+01,5.000000000000000000e-01,-6.697591394186019897e-02,0.000000000000000000e+00
6.200885772705078125e-01,6.440075073242187500e+02,4.414848238229751587e-02,4.414848238229751587e-02,-2.113055437803268433e-01,-1.354641723632812500e+02,-6.294559955596923828e+00,-1.050580406188964844e+01,-1.110063838958740234e+01,-1.398295350372791290e-02,-3.108044862747192383e+00,4.044571876525878906e+00,-2.449106797575950623e-02,6.226441860198974609e-01,-1.161579012870788574e+00,-1.534758949279785156e+01,5.000000000000000000e-01,-6.697591394186019897e-02,0.000000000000000000e+00
6.200885772705078125e-01,6.440075073242187500e+02,4.414848238229751587e-02,4.414848238229751587e-02,-2.113055437803268433e-01,-1.354641723632812500e+02,-6.294559955596923828e+00,-1.050580406188964844e+01,-1.110063838958740234e+01,-1.398295350372791290e-02,-3.108044862747192383e+00,4.044571876525878906e+00,-2.449106797575950623e-02,6.226441860198974609e-01,-1.161579012870788574e+00,-1.534758949279785156e+01,5.000000000000000000e-01,-6.697591394186019897e-02,0.000000000000000000e+00
6.200885772705078125e-01,6.440075073242187500e+02,4.414848238229751587e-02,4.414848238229751587e-02,-2.113055437803268433e-01,-1.354641723632812500e+02,-6.294559955596923828e+00,-1.050580406188964844e+01,-1.110063838958740234e+01,-1.398295350372791290e-02,-3.108044862747192383e+00,4.044571876525878906e+00,-2.449106797575950623e-02,6.226441860198974609e-01,-1.161579012870788574e+00,-1.534758949279785156e+01,5.000000000000000000e-01,-6.697591394186019897e-02,0.000000000000000000e+00
7.946169376373291016e-01,6.429309692382812500e+02,-1.027151942253112793e+00,-1.027151942253112793e+00,-2.637067735195159912e-01,-1.367544708251953125e+02,-5.691136360168457031e+00,-1.075752067565917969e+01,-1.063031673431396484e+01,-1.714109815657138824e-02,-1.442267656326293945e+00,2.694814920425415039e+00,-1.809530891478061676e-02,7.456751823425292969e+00,3.214679479598999023e+00,-1.391153240203857422e+01,5.000000000000000000e-01,-6.046447902917861938e-02,0.000000000000000000e+00
7.946169376373291016e-01,6.429309692382812500e+02,-1.027151942253112793e+00,-1.027151942253112793e+00,-2.637067735195159912e-01,-1.367544708251953125e+02,-5.691136360168457031e+00,-1.075752067565917969e+01,-1.063031673431396484e+01,-1.714109815657138824e-02,-1.442267656326293945e+00,2.694814920425415039e+00,-1.809530891478061676e-02,7.456751823425292969e+00,3.214679479598999023e+00,-1.391153240203857422e+01,5.000000000000000000e-01,-6.046447902917861938e-02,0.000000000000000000e+00
7.946169376373291016e-01,6.429309692382812500e+02,-1.027151942253112793e+00,-1.027151942253112793e+00,-2.637067735195159912e-01,-1.367544708251953125e+02,-5.691136360168457031e+00,-1.075752067565917969e+01,-1.063031673431396484e+01,-1.714109815657138824e-02,-1.442267656326293945e+00,2.694814920425415039e+00,-1.809530891478061676e-02,7.456751823425292969e+00,3.214679479598999023e+00,-1.391153240203857422e+01,5.000000000000000000e-01,-6.046447902917861938e-02,0.000000000000000000e+00
8.783230781555175781e-01,6.418384399414062500e+02,-2.051862239837646484e+00,-2.051862239837646484e+00,-2.649225294589996338e-01,-1.381195068359375000e+02,-5.194337844848632812e+00,-1.084233379364013672e+01,-1.013791370391845703e+01,-3.311101114377379417e-03,-1.013224601745605469e+00,5.882519721984863281e+00,1.652208268642425537e-01,1.629938721656799316e+00,3.047760486602783203e+00,-1.289043903350830078e+01,5.000000000000000000e-01,-4.977315291762351990e-02,0.000000000000000000e+00
8.783230781555175781e-01,6.418384399414062500e+02,-2.051862239837646484e+00,-2.051862239837646484e+00,-2.649225294589996338e-01,-1.381195068359375000e+02,-5.194337844848632812e+00,-1.084233379364013672e+01,-1.013791370391845703e+01,-3.311101114377379417e-03,-1.013224601745605469e+00,5.882519721984863281e+00,1.652208268642425537e-01,1.629938721656799316e+00,3.047760486602783203e+00,-1.289043903350830078e+01,5.000000000000000000e-01,-4.977315291762351990e-02,0.000000000000000000e+00
8.783230781555175781e-01,6.418384399414062500e+02,-2.051862239837646484e+00,-2.051862239837646484e+00,-2.649225294589996338e-01,-1.381195068359375000e+02,-5.194337844848632812e+00,-1.084233379364013672e+01,-1.013791370391845703e+01,-3.311101114377379417e-03,-1.013224601745605469e+00,5.882519721984863281e+00,1.652208268642425537e-01,1.629938721656799316e+00,3.047760486602783203e+00,-1.289043903350830078e+01,5.000000000000000000e-01,-4.977315291762351990e-02,0.000000000000000000e+00
9.483780860900878906e-01,6.409220581054687500e+02,-2.869940757751464844e+00,-2.869940757751464844e+00,-1.072681173682212830e-01,-1.393830566406250000e+02,-5.052462100982666016e+00,-1.083401966094970703e+01,-9.671534538269042969e+00,9.073707042261958122e-04,1.186800599098205566e-01,6.657328128814697266e+00,6.021656095981597900e-02,-7.800140976905822754e-01,2.005016326904296875e+00,-1.555293750762939453e+01,5.000000000000000000e-01,-7.861175388097763062e-02,0.000000000000000000e+00
9.483780860900878906e-01,6.409220581054687500e+02,-2.869940757751464844e+00,-2.869940757751464844e+00,-1.072681173682212830e-01,-1.393830566406250000e+02,-5.052462100982666016e+00,-1.083401966094970703e+01,-9.671534538269042969e+00,9.073707042261958122e-04,1.186800599098205566e-01,6.657328128814697266e+00,6.021656095981597900e-02,-7.800140976905822754e-01,2.005016326904296875e+00,-1.555293750762939453e+01,5.000000000000000000e-01,-7.861175388097763062e-02,0.000000000000000000e+00
9.483780860900878906e-01,6.409220581054687500e+02,-2.869940757751464844e+00,-2.869940757751464844e+00,-1.072681173682212830e-01,-1.393830566406250000e+02,-5.052462100982666016e+00,-1.083401966094970703e+01,-9.671534538269042969e+00,9.073707042261958122e-04,1.186800599098205566e-01,6.657328128814697266e+00,6.021656095981597900e-02,-7.800140976905822754e-01,2.005016326904296875e+00,-1.555293750762939453e+01,5.000000000000000000e-01,-7.861175388097763062e-02,0.000000000000000000e+00
9.483780860900878906e-01,6.409220581054687500e+02,-2.869940757751464844e+00,-2.869940757751464844e+00,-1.072681173682212830e-01,-1.393830566406250000e+02,-5.052462100982666016e+00,-1.083401966094970703e+01,-9.671534538269042969e+00,9.073707042261958122e-04,1.186800599098205566e-01,6.657328128814697266e+00,6.021656095981597900e-02,-7.800140976905822754e-01,2.005016326904296875e+00,-1.555293750762939453e+01,5.000000000000000000e-01,-7.861175388097763062e-02,0.000000000000000000e+00
9.483780860900878906e-01,6.401484375000000000e+02,-3.525189399719238281e+00,-3.525189399719238281e+00,-1.150545328855514526e-01,-1.408426055908203125e+02,-5.095583915710449219e+00,-1.098673057556152344e+01,-9.362481117248535156e+00,-8.793895132839679718e-03,-1.937980055809020996e+00,3.922046899795532227e+00,-1.231140568852424622e-01,3.357829749584197998e-01,-2.111104488372802734e+00,-2.285593986511230469e+01,5.000000000000000000e-01,-1.110544875264167786e-01,0.000000000000000000e+00
1.027177095413208008e+00,6.401484375000000000e+02,-3.525189399719238281e+00,-3.525189399719238281e+00,-1.150545328855514526e-01,-1.408426055908203125e+02,-5.095583915710449219e+00,-1.098673057556152344e+01,-9.362481117248535156e+00,-8.793895132839679718e-03,-1.937980055809020996e+00,3.922046899795532227e+00,-1.231140568852424622e-01,3.357829749584197998e-01,-2.111104488372802734e+00,-2.285593986511230469e+01,5.000000000000000000e-01,-1.110544875264167786e-01,0.000000000000000000e+00
1.027177095413208008e+00,6.401484375000000000e+02,-3.525189399719238281e+00,-3.525189399719238281e+00,-1.150545328855514526e-01,-1.408426055908203125e+02,-5.095583915710449219e+00,-1.098673057556152344e+01,-9.362481117248535156e+00,-8.793895132839679718e-03,-1.937980055809020996e+00,3.922046899795532227e+00,-1.231140568852424622e-01,3.357829749584197998e-01,-2.111104488372802734e+00,-2.285593986511230469e+01,5.000000000000000000e-01,-1.110544875264167786e-01,0.000000000000000000e+00
1.095043420791625977e+00,6.392648925781250000e+02,-4.235166072845458984e+00,-4.235166072845458984e+00,-1.678450554609298706e-01,-1.425990905761718750e+02,-5.333011627197265625e+00,-1.117384052276611328e+01,-8.994245529174804688e+00,-1.966194948181509972e-03,-2.757036685943603516e+00,5.425895214080810547e+00,1.006051227450370789e-01,-3.294727563858032227e+00,-2.787754535675048828e+00,-2.219496726989746094e+01,5.000000000000000000e-01,-8.458760380744934082e-02,0.000000000000000000e+00
1.095043420791625977e+00,6.392648925781250000e+02,-4.235166072845458984e+00,-4.235166072845458984e+00,-1.678450554609298706e-01,-1.425990905761718750e+02,-5.333011627197265625e+00,-1.117384052276611328e+01,-8.994245529174804688e+00,-1.966194948181509972e-03,-2.757036685943603516e+00,5.425895214080810547e+00,1.006051227450370789e-01,-3.294727563858032227e+00,-2.787754535675048828e+00,-2.219496726989746094e+01,5.000000000000000000e-01,-8.458760380744934082e-02,0.000000000000000000e+00
1.095043420791625977e+00,6.392648925781250000e+02,-4.235166072845458984e+00,-4.235166072845458984e+00,-1.678450554609298706e-01,-1.425990905761718750e+02,-5.333011627197265625e+00,-1.117384052276611328e+01,-8.994245529174804688e+00,-1.966194948181509972e-03,-2.757036685943603516e+00,5.425895214080810547e+00,1.006051227450370789e-01,-3.294727563858032227e+00,-2.787754535675048828e+00,-2.219496726989746094e+01,5.000000000000000000e-01,-8.458760380744934082e-02,0.000000000000000000e+00
1.095043420791625977e+00,6.392648925781250000e+02,-4.235166072845458984e+00,-4.235166072845458984e+00,-1.678450554609298706e-01,-1.425990905761718750e+02,-5.333011627197265625e+00,-1.117384052276611328e+01,-8.994245529174804688e+00,-1.966194948181509972e-03,-2.757036685943603516e+00,5.425895214080810547e+00,1.006051227450370789e-01,-3.294727563858032227e+00,-2.787754535675048828e+00,-2.219496726989746094e+01,5.000000000000000000e-01,-8.458760380744934082e-02,0.000000000000000000e+00
1.168572425842285156e+00,6.384919433593750000e+02,-4.822778224945068359e+00,-4.822778224945068359e+00,-1.690403372049331665e-01,-1.441661529541015625e+02,-5.727390289306640625e+00,-1.134679412841796875e+01,-8.646956443786621094e+00,-1.177065307274460793e-03,-2.352181911468505859e+00,4.723157405853271484e+00,1.073222234845161438e-02,-5.453477382659912109e+00,-3.950021505355834961e+00,-2.345831680297851562e+01,5.000000000000000000e-01,-9.220632165670394897e-02,0.000000000000000000e+00
1.168572425842285156e+00,6.384919433593750000e+02,-4.822778224945068359e+00,-4.822778224945068359e+00,-1.690403372049331665e-01,-1.441661529541015625e+02,-5.727390289306640625e+00,-1.134679412841796875e+01,-8.646956443786621094e+00,-1.177065307274460793e-03,-2.352181911468505859e+00,4.723157405853271484e+00,1.073222234845161438e-02,-5.453477382659912109e+00,-3.950021505355834961e+00,-2.345831680297851562e+01,5.000000000000000000e-01,-9.220632165670394897e-02,0.000000000000000000e+00
1.168572425842285156e+00,6.384919433593750000e+02,-4.822778224945068359e+00,-4.822778224945068359e+00,-1.690403372049331665e-01,-1.441661529541015625e+02,-5.727390289306640625e+00,-1.134679412841796875e+01,-8.646956443786621094e+00,-1.177065307274460793e-03,-2.352181911468505859e+00,4.723157405853271484e+00,1.073222234845161438e-02,-5.453477382659912109e+00,-3.950021505355834961e+00,-2.345831680297851562e+01,5.000000000000000000e-01,-9.220632165670394897e-02,0.000000000000000000e+00
1.168572425842285156e+00,6.384919433593750000e+02,-4.822778224945068359e+00,-4.822778224945068359e+00,-1.690403372049331665e-01,-1.441661529541015625e+02,-5.727390289306640625e+00,-1.134679412841796875e+01,-8.646956443786621094e+00,-1.177065307274460793e-03,-2.352181911468505859e+00,4.723157405853271484e+00,1.073222234845161438e-02,-5.453477382659912109e+00,-3.950021505355834961e+00,-2.345831680297851562e+01,5.000000000000000000e-01,-9.220632165670394897e-02,0.000000000000000000e+00
1.168572425842285156e+00,6.376444091796875000e+02,-5.436105728149414062e+00,-5.436105728149414062e+00,-1.528937816619873047e-01,-1.454150543212890625e+02,-5.901555061340332031e+00,-1.149554061889648438e+01,-8.319766998291015625e+00,-7.288472261279821396e-03,-1.982006192207336426e+00,4.359709739685058594e+00,-8.143281936645507812e-02,2.095796346664428711e+00,-5.866600871086120605e-01,-1.348942375183105469e+01,5.000000000000000000e-01,-5.494232103228569031e-02,0.000000000000000000e+00
1.243620872497558594e+00,6.376444091796875000e+02,-5.436105728149414062e+00,-5.436105728149414062e+00,-1.528937816619873047e-01,-1.454150543212890625e+02,-5.901555061340332031e+00,-1.149554061889648438e+01,-8.319766998291015625e+00,-7.288472261279821396e-03,-1.982006192207336426e+00,4.359709739685058594e+00,-8.143281936645507812e-02,2.095796346664428711e+00,-5.866600871086120605e-01,-1.348942375183105469e+01,5.000000000000000000e-01,-5.494232103228569031e-02,0.000000000000000000e+00
1.243620872497558594e+00,6.376444091796875000e+02,-5.436105728149414062e+00,-5.436105728149414062e+00,-1.528937816619873047e-01,-1.454150543212890625e+02,-5.901555061340332031e+00,-1.149554061889648438e+01,-8.319766998291015625e+00,-7.288472261279821396e-03,-1.982006192207336426e+00,4.359709739685058594e+00,-8.143281936645507812e-02,2.095796346664428711e+00,-5.866600871086120605e-01,-1.348942375183105469e+01,5.000000000000000000e-01,-5.494232103228569031e-02,0.000000000000000000e+00
1.243620872497558594e+00,6.376444091796875000e+02,-5.436105728149414062e+00,-5.436105728149414062e+00,-1.528937816619873047e-01,-1.454150543212890625e+02,-5.901555061340332031e+00,-1.149554061889648438e+01,-8.319766998291015625e+00,-7.288472261279821396e-03,-1.982006192207336426e+00,4.359709739685058594e+00,-8.143281936645507812e-02,2.095796346664428711e+00,-5.866600871086120605e-01,-1.348942375183105469e+01,5.000000000000000000e-01,-5.494232103228569031e-02,0.000000000000000000e+00
1.312042951583862305e+00,6.367694091796875000e+02,-6.036879539489746094e+00,-6.036879539489746094e+00,-2.105405628681182861e-01,-1.465642852783203125e+02,-5.538729190826416016e+00,-1.161110115051269531e+01,-8.010684967041015625e+00,-5.036170594394207001e-03,-1.688936352729797363e+00,4.517284870147705078e+00,3.291776031255722046e-02,3.934919118881225586e+00,7.858512401580810547e-01,-1.765597152709960938e+01,5.000000000000000000e-01,-8.124186098575592041e-02,0.000000000000000000e+00
1.312042951583862305e+00,6.367694091796875000e+02,-6.036879539489746094e+00,-6.036879539489746094e+00,-2.105405628681182861e-01,-1.465642852783203125e+02,-5.538729190826416016e+00,-1.161110115051269531e+01,-8.010684967041015625e+00,-5.036170594394207001e-03,-1.688936352729797363e+00,4.517284870147705078e+00,3.291776031255722046e-02,3.934919118881225586e+00,7.858512401580810547e-01,-1.765597152709960938e+01,5.000000000000000000e-01,-8.124186098575592041e-02,0.000000000000000000e+00
1.312042951583862305e+00,6.359645996093750000e+02,-6.564771652221679688e+00,-6.564771652221679688e+00,-2.318439334630966187e-01,-1.477180175781250000e+02,-5.354159355163574219e+00,-1.170748233795166016e+01,-7.736655235290527344e+00,-4.122360842302441597e-04,-1.355831384658813477e+00,3.854882240295410156e+00,6.504667550325393677e-02,1.677273988723754883e+00,5.546417832374572754e-01,-1.651959228515625000e+01,5.000000000000000000e-01,-6.310374289751052856e-02,0.000000000000000000e+00
1.383129358291625977e+00,6.359645996093750000e+02,-6.564771652221679688e+00,-6.564771652221679688e+00,-2.318439334630966187e-01,-1.477180175781250000e+02,-5.354159355163574219e+00,-1.170748233795166016e+01,-7.736655235290527344e+00,-4.122360842302441597e-04,-1.355831384658813477e+00,3.854882240295410156e+00,6.504667550325393677e-02,1.677273988723754883e+00,5.546417832374572754e-01,-1.651959228515625000e+01,5.000000000000000000e-01,-6.310374289751052856e-02,0.000000000000000000e+00
1.383129358291625977e+00,6.359645996093750000e+02,-6.564771652221679688e+00,-6.564771652221679688e+00,-2.318439334630966187e-01,-1.477180175781250000e+02,-5.354159355163574219e+00,-1.170748233795166016e+01,-7.736655235290527344e+00,-4.122360842302441597e-04,-1.355831384658813477e+00,3.854882240295410156e+00,6.504667550325393677e-02,1.677273988723754883e+00,5.546417832374572754e-01,-1.651959228515625000e+01,5.000000000000000000e-01,-6.310374289751052856e-02,0.000000000000000000e+00
1.450951814651489258e+00,6.351238403320312500e+02,-7.096441268920898438e+00,-7.096441268920898438e+00,-2.250410616397857666e-01,-1.486528472900390625e+02,-5.270297527313232422e+00,-1.178907489776611328e+01,-7.474278450012207031e+00,2.607346745207905769e-03,-1.203031659126281738e+00,3.868582725524902344e+00,4.452187567949295044e-02,6.155591607093811035e-01,7.910906672477722168e-01,-1.189096832275390625e+01,5.000000000000000000e-01,-3.901468962430953979e-02,0.000000000000000000e+00
1.450951814651489258e+00,6.351238403320312500e+02,-7.096441268920898438e+00,-7.096441268920898438e+00,-2.250410616397857666e-01,-1.486528472900390625e+02,-5.270297527313232422e+00,-1.178907489776611328e+01,-7.474278450012207031e+00,2.607346745207905769e-03,-1.203031659126281738e+00,3.868582725524902344e+00,4.452187567949295044e-02,6.155591607093811035e-01,7.910906672477722168e-01,-1.189096832275390625e+01,5.000000000000000000e-01,-3.901468962430953979e-02,0.000000000000000000e+00
1.450951814651489258e+00,6.351238403320312500e+02,-7.096441268920898438e+00,-7.096441268920898438e+00,-2.250410616397857666e-01,-1.486528472900390625e+02,-5.270297527313232422e+00,-1.178907489776611328e+01,-7.474278450012207031e+00,2.607346745207905769e-03,-1.203031659126281738e+00,3.868582725524902344e+00,4.452187567949295044e-02,6.155591607093811035e-01,7.910906672477722168e-01,-1.189096832275390625e+01,5.000000000000000000e-01,-3.901468962430953979e-02,0.000000000000000000e+00
1.527701377868652344e+00,6.343306884765625000e+02,-7.584918022155761719e+00,-7.584918022155761719e+00,-7.788464426994323730e-02,-1.491237945556640625e+02,-5.154267787933349609e+00,-1.155198001861572266e+01,-7.119305133819580078e+00,3.597381524741649628e-03,3.089201688766479492e+00,4.625085830688476562e+00,1.289954967796802521e-02,6.870332360267639160e-01,3.515798091888427734e+00,-4.330786228179931641e+00,5.000000000000000000e-01,-8.700815588235855103e-02,0.000000000000000000e+00
1.527701377868652344e+00,6.343306884765625000e+02,-7.584918022155761719e+00,-7.584918022155761719e+00,-7.788464426994323730e-02,-1.491237945556640625e+02,-5.154267787933349609e+00,-1.155198001861572266e+01,-7.119305133819580078e+00,3.597381524741649628e-03,3.089201688766479492e+00,4.625085830688476562e+00,1.289954967796802521e-02,6.870332360267639160e-01,3.515798091888427734e+00,-4.330786228179931641e+00,5.000000000000000000e-01,-8.700815588235855103e-02,0.000000000000000000e+00
1.527701377868652344e+00,6.343306884765625000e+02,-7.584918022155761719e+00,-7.584918022155761719e+00,-7.788464426994323730e-02,-1.491237945556640625e+02,-5.154267787933349609e+00,-1.155198001861572266e+01,-7.119305133819580078e+00,3.597381524741649628e-03,3.089201688766479492e+00,4.625085830688476562e+00,1.289954967796802521e-02,6.870332360267639160e-01,3.515798091888427734e+00,-4.330786228179931641e+00,5.000000000000000000e-01,-8.700815588235855103e-02,0.000000000000000000e+00
1.600134611129760742e+00,6.334531250000000000e+02,-8.113525390625000000e+00,-8.113525390625000000e+00,-1.953433966264128685e-03,-1.493881378173828125e+02,-4.770266056060791016e+00,-1.127881526947021484e+01,-6.808738231658935547e+00,-1.451832009479403496e-03,3.771262645721435547e+00,4.287630081176757812e+00,-6.970852613449096680e-02,4.663773059844970703e+00,4.618748664855957031e+00,-2.952355384826660156e+00,1.000000000000000000e+00,-1.033182814717292786e-01,0.000000000000000000e+00
1.600134611129760742e+00,6.334531250000000000e+02,-8.113525390625000000e+00,-8.113525390625000000e+00,-1.953433966264128685e-03,-1.493881378173828125e+02,-4.770266056060791016e+00,-1.127881526947021484e+01,-6.808738231658935547e+00,-1.451832009479403496e-03,3.771262645721435547e+00,4.287630081176757812e+00,-6.970852613449096680e-02,4.663773059844970703e+00,4.618748664855957031e+00,-2.952355384826660156e+00,1.000000000000000000e+00,-1.033182814717292786e-01,0.000000000000000000e+00
1.600134611129760742e+00,6.334531250000000000e+02,-8.113525390625000000e+00,-8.113525390625000000e+00,-1.953433966264128685e-03,-1.493881378173828125e+02,-4.770266056060791016e+00,-1.127881526947021484e+01,-6.808738231658935547e+00,-1.451832009479403496e-03,3.771262645721435547e+00,4.287630081176757812e+00,-6.970852613449096680e-02,4.663773059844970703e+00,4.618748664855957031e+00,-2.952355384826660156e+00,1.000000000000000000e+00,-1.033182814717292786e-01,0.000000000000000000e+00
1.600134611129760742e+00,6.334531250000000000e+02,-8.113525390625000000e+00,-8.113525390625000000e+00,-1.953433966264128685e-03,-1.493881378173828125e+02,-4.770266056060791016e+00,-1.127881526947021484e+01,-6.808738231658935547e+00,-1.451832009479403496e-03,3.771262645721435547e+00,4.287630081176757812e+00,-6.970852613449096680e-02,4.663773059844970703e+00,4.618748664855957031e+00,-2.952355384826660156e+00,1.000000000000000000e+00,-1.033182814717292786e-01,0.000000000000000000e+00
1.600134611129760742e+00,6.334531250000000000e+02,-8.113525390625000000e+00,-8.113525390625000000e+00,-1.953433966264128685e-03,-1.493881378173828125e+02,-4.770266056060791016e+00,-1.127881526947021484e+01,-6.808738231658935547e+00,-1.451832009479403496e-03,3.771262645721435547e+00,4.287630081176757812e+00,-6.970852613449096680e-02,4.663773059844970703e+00,4.618748664855957031e+00,-2.952355384826660156e+00,1.000000000000000000e+00,-1.033182814717292786e-01,0.000000000000000000e+00
1.600134611129760742e+00,6.326443481445312500e+02,-8.590134620666503906e+00,-8.590134620666503906e+00,4.496313259005546570e-02,-1.497360687255859375e+02,-4.170961380004882812e+00,-1.100447750091552734e+01,-6.545973777770996094e+00,-2.984892344102263451e-03,2.377712488174438477e+00,2.277405500411987305e+00,-1.328718569129705429e-02,7.678944587707519531e+00,5.279730319976806641e+00,-6.252773284912109375e+00,1.000000000000000000e+00,-1.858312040567398071e-01,0.000000000000000000e+00
1.715513467788696289e+00,6.326443481445312500e+02,-8.590134620666503906e+00,-8.590134620666503906e+00,4.496313259005546570e-02,-1.497360687255859375e+02,-4.170961380004882812e+00,-1.100447750091552734e+01,-6.545973777770996094e+00,-2.984892344102263451e-03,2.377712488174438477e+00,2.277405500411987305e+00,-1.328718569129705429e-02,7.678944587707519531e+00,5.279730319976806641e+00,-6.252773284912109375e+00,1.000000000000000000e+00,-1.858312040567398071e-01,0.000000000000000000e+00
1.715513467788696289e+00,6.326443481445312500e+02,-8.590134620666503906e+00,-8.590134620666503906e+00,4.496313259005546570e-02,-1.497360687255859375e+02,-4.170961380004882812e+00,-1.100447750091552734e+01,-6.545973777770996094e+00,-2.984892344102263451e-03,2.377712488174438477e+00,2.277405500411987305e+00,-1.328718569129705429e-02,7.678944587707519531e+00,5.279730319976806641e+00,-6.252773284912109375e+00,1.000000000000000000e+00,-1.858312040567398071e-01,0.000000000000000000e+00
1.715513467788696289e+00,6.315588378906250000e+02,-9.209970474243164062e+00,-9.209970474243164062e+00,2.425673305988311768e-01,-1.506887664794921875e+02,-3.283234119415283203e+00,-1.062515354156494141e+01,-6.126945495605468750e+00,6.041035056114196777e-03,3.886450290679931641e+00,4.293250083923339844e+00,9.247720241546630859e-02,5.796830654144287109e+00,5.829071044921875000e+00,-1.171300601959228516e+01,1.000000000000000000e+00,-2.414443939924240112e-01,0.000000000000000000e+00
1.813115119934082031e+00,6.315588378906250000e+02,-9.209970474243164062e+00,-9.209970474243164062e+00,2.425673305988311768e-01,-1.506887664794921875e+02,-3.283234119415283203e+00,-1.062515354156494141e+01,-6.126945495605468750e+00,6.041035056114196777e-03,3.886450290679931641e+00,4.293250083923339844e+00,9.247720241546630859e-02,5.796830654144287109e+00,5.829071044921875000e+00,-1.171300601959228516e+01,1.000000000000000000e+00,-2.414443939924240112e-01,0.000000000000000000e+00
1.813115119934082031e+00,6.315588378906250000e+02,-9.209970474243164062e+00,-9.209970474243164062e+00,2.425673305988311768e-01,-1.506887664794921875e+02,-3.283234119415283203e+00,-1.062515354156494141e+01,-6.126945495605468750e+00,6.041035056114196777e-03,3.886450290679931641e+00,4.293250083923339844e+00,9.247720241546630859e-02,5.796830654144287109e+00,5.829071044921875000e+00,-1.171300601959228516e+01,1.000000000000000000e+00,-2.414443939924240112e-01,0.000000000000000000e+00
1.813115119934082031e+00,6.315588378906250000e+02,-9.209970474243164062e+00,-9.209970474243164062e+00,2.425673305988311768e-01,-1.506887664794921875e+02,-3.283234119415283203e+00,-1.062515354156494141e+01,-6.126945495605468750e+00,6.041035056114196777e-03,3.886450290679931641e+00,4.293250083923339844e+00,9.247720241546630859e-02,5.796830654144287109e+00,5.829071044921875000e+00,-1.171300601959228516e+01,1.000000000000000000e+00,-2.414443939924240112e-01,0.000000000000000000e+00
1.813115119934082031e+00,6.305267333984375000e+02,-9.764682769775390625e+00,-9.764682769775390625e+00,2.760284245014190674e-01,-1.525098571777343750e+02,-2.742156982421875000e+00,-1.038061237335205078e+01,-5.623272418975830078e+00,2.152187982574105263e-03,2.945578813552856445e+00,6.066907882690429688e+00,-4.684244096279144287e-02,1.663654208183288574e+00,2.026383399963378906e+00,-2.376120758056640625e+01,1.000000000000000000e+00,-3.097259402275085449e-01,0.000000000000000000e+00
1.896134853363037109e+00,6.305267333984375000e+02,-9.764682769775390625e+00,-9.764682769775390625e+00,2.760284245014190674e-01,-1.525098571777343750e+02,-2.742156982421875000e+00,-1.038061237335205078e+01,-5.623272418975830078e+00,2.152187982574105263e-03,2.945578813552856445e+00,6.066907882690429688e+00,-4.684244096279144287e-02,1.663654208183288574e+00,2.026383399963378906e+00,-2.376120758056640625e+01,1.000000000000000000e+00,-3.097259402275085449e-01,0.000000000000000000e+00
1.896134853363037109e+00,6.305267333984375000e+02,-9.764682769775390625e+00,-9.764682769775390625e+00,2.760284245014190674e-01,-1.525098571777343750e+02,-2.742156982421875000e+00,-1.038061237335205078e+01,-5.623272418975830078e+00,2.152187982574105263e-03,2.945578813552856445e+00,6.066907882690429688e+00,-4.684244096279144287e-02,1.663654208183288574e+00,2.026383399963378906e+00,-2.376120758056640625e+01,1.000000000000000000e+00,-3.097259402275085449e-01,0.000000000000000000e+00
1.896134853363037109e+00,6.305267333984375000e+02,-9.764682769775390625e+00,-9.764682769775390625e+00,2.760284245014190674e-01,-1.525098571777343750e+02,-2.742156982421875000e+00,-1.038061237335205078e+01,-5.623272418975830078e+00,2.152187982574105263e-03,2.945578813552856445e+00,6.066907882690429688e+00,-4.684244096279144287e-02,1.663654208183288574e+00,2.026383399963378906e+00,-2.376120758056640625e+01,1.000000000000000000e+00,-3.097259402275085449e-01,0.000000000000000000e+00
1.896134853363037109e+00,6.305267333984375000e+02,-9.764682769775390625e+00,-9.764682769775390625e+00,2.760284245014190674e-01,-1.525098571777343750e+02,-2.742156982421875000e+00,-1.038061237335205078e+01,-5.623272418975830078e+00,2.152187982574105263e-03,2.945578813552856445e+00,6.066907882690429688e+00,-4.684244096279144287e-02,1.663654208183288574e+00,2.026383399963378906e+00,-2.376120758056640625e+01,1.000000000000000000e+00,-3.097259402275085449e-01,0.000000000000000000e+00
1.896134853363037109e+00,6.305267333984375000e+02,-9.764682769775390625e+00,-9.764682769775390625e+00,2.760284245014190674e-01,-1.525098571777343750e+02,-2.742156982421875000e+00,-1.038061237335205078e+01,-5.623272418975830078e+00,2.152187982574105263e-03,2.945578813552856445e+00,6.066907882690429688e+00,-4.684244096279144287e-02,1.663654208183288574e+00,2.026383399963378906e+00,-2.376120758056640625e+01,1.000000000000000000e+00,-3.097259402275085449e-01,0.000000000000000000e+00
1.896134853363037109e+00,6.305267333984375000e+02,-9.764682769775390625e+00,-9.764682769775390625e+00,2.760284245014190674e-01,-1.525098571777343750e+02,-2.742156982421875000e+00,-1.038061237335205078e+01,-5.623272418975830078e+00,2.152187982574105263e-03,2.945578813552856445e+00,6.066907882690429688e+00,-4.684244096279144287e-02,1.663654208183288574e+00,2.026383399963378906e+00,-2.376120758056640625e+01,1.000000000000000000e+00,-3.097259402275085449e-01,0.000000000000000000e+00
1.896134853363037109e+00,6.305267333984375000e+02,-9.764682769775390625e+00,-9.764682769775390625e+00,2.760284245014190674e-01,-1.525098571777343750e+02,-2.742156982421875000e+00,-1.038061237335205078e+01,-5.623272418975830078e+00,2.152187982574105263e-03,2.945578813552856445e+00,6.066907882690429688e+00,-4.684244096279144287e-02,1.663654208183288574e+00,2.026383399963378906e+00,-2.376120758056640625e+01,1.000000000000000000e+00,-3.097259402275085449e-01,0.000000000000000000e+00
2.195794820785522461e+00,6.277001953125000000e+02,-1.095538330078125000e+01,-1.095538330078125000e+01,-1.037642285227775574e-01,-1.616428985595703125e+02,-5.438845157623291016e+00,-1.033140373229980469e+01,-3.674301624298095703e+00,-1.983192563056945801e-02,4.149636328220367432e-01,1.232044124603271484e+01,-1.782087385654449463e-01,-1.299450492858886719e+01,-8.463892936706542969e+00,-3.362889099121093750e+01,1.000000000000000000e+00,-2.701243162155151367e-01,0.000000000000000000e+00
2.195794820785522461e+00,6.277001953125000000e+02,-1.095538330078125000e+01,-1.095538330078125000e+01,-1.037642285227775574e-01,-1.616428985595703125e+02,-5.438845157623291016e+00,-1.033140373229980469e+01,-3.674301624298095703e+00,-1.983192563056945801e-02,4.149636328220367432e-01,1.232044124603271484e+01,-1.782087385654449463e-01,-1.299450492858886719e+01,-8.463892936706542969e+00,-3.362889099121093750e+01,1.000000000000000000e+00,-2.701243162155151367e-01,0.000000000000000000e+00
2.195794820785522461e+00,6.277001953125000000e+02,-1.095538330078125000e+01,-1.095538330078125000e+01,-1.037642285227775574e-01,-1.616428985595703125e+02,-5.438845157623291016e+00,-1.033140373229980469e+01,-3.674301624298095703e+00,-1.983192563056945801e-02,4.149636328220367432e-01,1.232044124603271484e+01,-1.782087385654449463e-01,-1.299450492858886719e+01,-8.463892936706542969e+00,-3.362889099121093750e+01,1.000000000000000000e+00,-2.701243162155151367e-01,0.000000000000000000e+00
2.195794820785522461e+00,6.277001953125000000e+02,-1.095538330078125000e+01,-1.095538330078125000e+01,-1.037642285227775574e-01,-1.616428985595703125e+02,-5.438845157623291016e+00,-1.033140373229980469e+01,-3.674301624298095703e+00,-1.983192563056945801e-02,4.149636328220367432e-01,1.232044124603271484e+01,-1.782087385654449463e-01,-1.299450492858886719e+01,-8.463892936706542969e+00,-3.362889099121093750e+01,1.000000000000000000e+00,-2.701243162155151367e-01,0.000000000000000000e+00
2.195794820785522461e+00,6.277001953125000000e+02,-1.095538330078125000e+01,-1.095538330078125000e+01,-1.037642285227775574e-01,-1.616428985595703125e+02,-5.438845157623291016e+00,-1.033140373229980469e+01,-3.674301624298095703e+00,-1.983192563056945801e-02,4.149636328220367432e-01,1.232044124603271484e+01,-1.782087385654449463e-01,-1.299450492858886719e+01,-8.463892936706542969e+00,-3.362889099121093750e+01,1.000000000000000000e+00,-2.701243162155151367e-01,0.000000000000000000e+00
2.195794820785522461e+00,6.277001953125000000e+02,-1.095538330078125000e+01,-1.095538330078125000e+01,-1.037642285227775574e-01,-1.616428985595703125e+02,-5.438845157623291016e+00,-1.033140373229980469e+01,-3.674301624298095703e+00,-1.983192563056945801e-02,4.149636328220367432e-01,1.232044124603271484e+01,-1.782087385654449463e-01,-1.299450492858886719e+01,-8.463892936706542969e+00,-3.362889099121093750e+01,1.000000000000000000e+00,-2.701243162155151367e-01,0.000000000000000000e+00
2.195794820785522461e+00,6.277001953125000000e+02,-1.095538330078125000e+01,-1.095538330078125000e+01,-1.037642285227775574e-01,-1.616428985595703125e+02,-5.438845157623291016e+00,-1.033140373229980469e+01,-3.674301624298095703e+00,-1.983192563056945801e-02,4.149636328220367432e-01,1.232044124603271484e+01,-1.782087385654449463e-01,-1.299450492858886719e+01,-8.463892936706542969e+00,-3.362889099121093750e+01,1.000000000000000000e+00,-2.701243162155151367e-01,0.000000000000000000e+00
2.195794820785522461e+00,6.277001953125000000e+02,-1.095538330078125000e+01,-1.095538330078125000e+01,-1.037642285227775574e-01,-1.616428985595703125e+02,-5.438845157623291016e+00,-1.033140373229980469e+01,-3.674301624298095703e+00,-1.983192563056945801e-02,4.149636328220367432e-01,1.232044124603271484e+01,-1.782087385654449463e-01,-1.299450492858886719e+01,-8.463892936706542969e+00,-3.362889099121093750e+01,1.000000000000000000e+00,-2.701243162155151367e-01,0.000000000000000000e+00
2.195794820785522461e+00,6.277001953125000000e+02,-1.095538330078125000e+01,-1.095538330078125000e+01,-1.037642285227775574e-01,-1.616428985595703125e+02,-5.438845157623291016e+00,-1.033140373229980469e+01,-3.674301624298095703e+00,-1.983192563056945801e-02,4.149636328220367432e-01,1.232044124603271484e+01,-1.782087385654449463e-01,-1.299450492858886719e+01,-8.463892936706542969e+00,-3.362889099121093750e+01,1.000000000000000000e+00,-2.701243162155151367e-01,0.000000000000000000e+00
2.195794820785522461e+00,6.277001953125000000e+02,-1.095538330078125000e+01,-1.095538330078125000e+01,-1.037642285227775574e-01,-1.616428985595703125e+02,-5.438845157623291016e+00,-1.033140373229980469e+01,-3.674301624298095703e+00,-1.983192563056945801e-02,4.149636328220367432e-01,1.232044124603271484e+01,-1.782087385654449463e-01,-1.299450492858886719e+01,-8.463892936706542969e+00,-3.362889099121093750e+01,1.000000000000000000e+00,-2.701243162155151367e-01,0.000000000000000000e+00
2.374083757400512695e+00,6.271513671875000000e+02,-1.113070678710937500e+01,-1.113070678710937500e+01,-4.464211314916610718e-02,-1.630640411376953125e+02,-6.134434223175048828e+00,-1.025189876556396484e+01,-3.331544637680053711e+00,-6.463602650910615921e-03,4.459332525730133057e-01,1.922480344772338867e+00,7.498122751712799072e-02,-1.121221542358398438e+01,-3.793008804321289062e+00,-2.385573005676269531e+01,1.000000000000000000e+00,-1.499720215797424316e-01,0.000000000000000000e+00
2.374083757400512695e+00,6.271513671875000000e+02,-1.113070678710937500e+01,-1.113070678710937500e+01,-4.464211314916610718e-02,-1.630640411376953125e+02,-6.134434223175048828e+00,-1.025189876556396484e+01,-3.331544637680053711e+00,-6.463602650910615921e-03,4.459332525730133057e-01,1.922480344772338867e+00,7.498122751712799072e-02,-1.121221542358398438e+01,-3.793008804321289062e+00,-2.385573005676269531e+01,1.000000000000000000e+00,-1.499720215797424316e-01,0.000000000000000000e+00
2.374083757400512695e+00,6.271513671875000000e+02,-1.113070678710937500e+01,-1.113070678710937500e+01,-4.464211314916610718e-02,-1.630640411376953125e+02,-6.134434223175048828e+00,-1.025189876556396484e+01,-3.331544637680053711e+00,-6.463602650910615921e-03,4.459332525730133057e-01,1.922480344772338867e+00,7.498122751712799072e-02,-1.121221542358398438e+01,-3.793008804321289062e+00,-2.385573005676269531e+01,1.000000000000000000e+00,-1.499720215797424316e-01,0.000000000000000000e+00
2.447860002517700195e+00,6.261160278320312500e+02,-1.142447757720947266e+01,-1.142447757720947266e+01,-4.244962334632873535e-02,-1.648913879394531250e+02,-6.220309257507324219e+00,-1.033597660064697266e+01,-2.938195943832397461e+00,-2.934126881882548332e-03,-1.139632940292358398e+00,5.331644535064697266e+00,4.784027487039566040e-02,6.553670883178710938e+00,-6.269660592079162598e-01,-1.594551944732666016e+01,1.000000000000000000e+00,-1.130198165774345398e-01,0.000000000000000000e+00
2.447860002517700195e+00,6.261160278320312500e+02,-1.142447757720947266e+01,-1.142447757720947266e+01,-4.244962334632873535e-02,-1.648913879394531250e+02,-6.220309257507324219e+00,-1.033597660064697266e+01,-2.938195943832397461e+00,-2.934126881882548332e-03,-1.139632940292358398e+00,5.331644535064697266e+00,4.784027487039566040e-02,6.553670883178710938e+00,-6.269660592079162598e-01,-1.594551944732666016e+01,1.000000000000000000e+00,-1.130198165774345398e-01,0.000000000000000000e+00
2.500878810882568359e+00,6.253501586914062500e+02,-1.162153911590576172e+01,-1.162153911590576172e+01,-1.620189100503921509e-01,-1.657291564941406250e+02,-5.284426689147949219e+00,-1.031073951721191406e+01,-2.764394521713256836e+00,5.336736212484538555e-04,4.760024547576904297e-01,3.278108835220336914e+00,6.540698558092117310e-02,1.371272373199462891e+01,1.831634640693664551e+00,-9.443786621093750000e+00,1.000000000000000000e+00,-6.348215788602828979e-02,0.000000000000000000e+00
2.500878810882568359e+00,6.253501586914062500e+02,-1.162153911590576172e+01,-1.162153911590576172e+01,-1.620189100503921509e-01,-1.657291564941406250e+02,-5.284426689147949219e+00,-1.031073951721191406e+01,-2.764394521713256836e+00,5.336736212484538555e-04,4.760024547576904297e-01,3.278108835220336914e+00,6.540698558092117310e-02,1.371272373199462891e+01,1.831634640693664551e+00,-9.443786621093750000e+00,1.000000000000000000e+00,-6.348215788602828979e-02,0.000000000000000000e+00
2.500878810882568359e+00,6.248023071289062500e+02,-1.175737857818603516e+01,-1.175737857818603516e+01,-1.881990283727645874e-01,-1.661692199707031250e+02,-4.569795131683349609e+00,-1.030153656005859375e+01,-2.670074939727783203e+00,8.601097390055656433e-03,1.551496833562850952e-01,1.590103387832641602e+00,1.360060870647430420e-01,1.295158958435058594e+01,2.923317432403564453e+00,-7.949122428894042969e+00,1.000000000000000000e+00,-4.276682436466217041e-02,0.000000000000000000e+00
2.560195446014404297e+00,6.248023071289062500e+02,-1.175737857818603516e+01,-1.175737857818603516e+01,-1.881990283727645874e-01,-1.661692199707031250e+02,-4.569795131683349609e+00,-1.030153656005859375e+01,-2.670074939727783203e+00,8.601097390055656433e-03,1.551496833562850952e-01,1.590103387832641602e+00,1.360060870647430420e-01,1.295158958435058594e+01,2.923317432403564453e+00,-7.949122428894042969e+00,1.000000000000000000e+00,-4.276682436466217041e-02,0.000000000000000000e+00
2.560195446014404297e+00,6.248023071289062500e+02,-1.175737857818603516e+01,-1.175737857818603516e+01,-1.881990283727645874e-01,-1.661692199707031250e+02,-4.569795131683349609e+00,-1.030153656005859375e+01,-2.670074939727783203e+00,8.601097390055656433e-03,1.551496833562850952e-01,1.590103387832641602e+00,1.360060870647430420e-01,1.295158958435058594e+01,2.923317432403564453e+00,-7.949122428894042969e+00,1.000000000000000000e+00,-4.276682436466217041e-02,0.000000000000000000e+00
2.618730545043945312e+00,6.241866455078125000e+02,-1.190559101104736328e+01,-1.190559101104736328e+01,-2.179171741008758545e-01,-1.665763854980468750e+02,-3.807496070861816406e+00,-1.038639831542968750e+01,-2.600604772567749023e+00,1.085298787802457809e-02,-1.449758410453796387e+00,1.186812162399291992e+00,3.847077116370201111e-02,1.228034591674804688e+01,2.236145257949829102e+00,-6.493815422058105469e+00,1.000000000000000000e+00,-3.474324569106101990e-02,0.000000000000000000e+00
2.618730545043945312e+00,6.241866455078125000e+02,-1.190559101104736328e+01,-1.190559101104736328e+01,-2.179171741008758545e-01,-1.665763854980468750e+02,-3.807496070861816406e+00,-1.038639831542968750e+01,-2.600604772567749023e+00,1.085298787802457809e-02,-1.449758410453796387e+00,1.186812162399291992e+00,3.847077116370201111e-02,1.228034591674804688e+01,2.236145257949829102e+00,-6.493815422058105469e+00,1.000000000000000000e+00,-3.474324569106101990e-02,0.000000000000000000e+00
2.677334070205688477e+00,6.235719604492187500e+02,-1.204669380187988281e+01,-1.204669380187988281e+01,-2.733441591262817383e-01,-1.671376190185546875e+02,-3.154449701309204102e+00,-1.052601909637451172e+01,-2.522992372512817383e+00,1.012156065553426743e-02,-2.382463932037353516e+00,1.324364066123962402e+00,-1.248094253242015839e-02,1.031165599822998047e+01,1.278628587722778320e+00,-1.048587894439697266e+01,1.000000000000000000e+00,-6.318003684282302856e-02,0.000000000000000000e+00
2.677334070205688477e+00,6.235719604492187500e+02,-1.204669380187988281e+01,-1.204669380187988281e+01,-2.733441591262817383e-01,-1.671376190185546875e+02,-3.154449701309204102e+00,-1.052601909637451172e+01,-2.522992372512817383e+00,1.012156065553426743e-02,-2.382463932037353516e+00,1.324364066123962402e+00,-1.248094253242015839e-02,1.031165599822998047e+01,1.278628587722778320e+00,-1.048587894439697266e+01,1.000000000000000000e+00,-6.318003684282302856e-02,0.000000000000000000e+00
2.677334070205688477e+00,6.235719604492187500e+02,-1.204669380187988281e+01,-1.204669380187988281e+01,-2.733441591262817383e-01,-1.671376190185546875e+02,-3.154449701309204102e+00,-1.052601909637451172e+01,-2.522992372512817383e+00,1.012156065553426743e-02,-2.382463932037353516e+00,1.324364066123962402e+00,-1.248094253242015839e-02,1.031165599822998047e+01,1.278628587722778320e+00,-1.048587894439697266e+01,1.000000000000000000e+00,-6.318003684282302856e-02,0.000000000000000000e+00
2.677334070205688477e+00,6.235719604492187500e+02,-1.204669380187988281e+01,-1.204669380187988281e+01,-2.733441591262817383e-01,-1.671376190185546875e+02,-3.154449701309204102e+00,-1.052601909637451172e+01,-2.522992372512817383e+00,1.012156065553426743e-02,-2.382463932037353516e+00,1.324364066123962402e+00,-1.248094253242015839e-02,1.031165599822998047e+01,1.278628587722778320e+00,-1.048587894439697266e+01,1.000000000000000000e+00,-6.318003684282302856e-02,0.000000000000000000e+00
2.755024909973144531e+00,6.229475097656250000e+02,-1.218408584594726562e+01,-1.218408584594726562e+01,-3.410040140151977539e-01,-1.677230377197265625e+02,-2.632934570312500000e+00,-1.069452285766601562e+01,-2.448919057846069336e+00,8.260107599198818207e-03,-2.168901205062866211e+00,9.534369111061096191e-01,-2.395975030958652496e-02,8.045160293579101562e+00,5.478484034538269043e-01,-9.817226409912109375e+00,1.000000000000000000e+00,-5.297597125172615051e-02,0.000000000000000000e+00
2.755024909973144531e+00,6.229475097656250000e+02,-1.218408584594726562e+01,-1.218408584594726562e+01,-3.410040140151977539e-01,-1.677230377197265625e+02,-2.632934570312500000e+00,-1.069452285766601562e+01,-2.448919057846069336e+00,8.260107599198818207e-03,-2.168901205062866211e+00,9.534369111061096191e-01,-2.395975030958652496e-02,8.045160293579101562e+00,5.478484034538269043e-01,-9.817226409912109375e+00,1.000000000000000000e+00,-5.297597125172615051e-02,0.000000000000000000e+00
2.755024909973144531e+00,6.229475097656250000e+02,-1.218408584594726562e+01,-1.218408584594726562e+01,-3.410040140151977539e-01,-1.677230377197265625e+02,-2.632934570312500000e+00,-1.069452285766601562e+01,-2.448919057846069336e+00,8.260107599198818207e-03,-2.168901205062866211e+00,9.534369111061096191e-01,-2.395975030958652496e-02,8.045160293579101562e+00,5.478484034538269043e-01,-9.817226409912109375e+00,1.000000000000000000e+00,-5.297597125172615051e-02,0.000000000000000000e+00
2.830169916152954102e+00,6.221038818359375000e+02,-1.236202716827392578e+01,-1.236202716827392578e+01,-4.314562082290649414e-01,-1.683637237548828125e+02,-2.146820545196533203e+00,-1.094062137603759766e+01,-2.359010696411132812e+00,5.625518038868904114e-03,-3.274981498718261719e+00,1.196464896202087402e+00,-3.506007418036460876e-02,5.235424041748046875e+00,-4.992906749248504639e-02,-7.761297225952148438e+00,1.000000000000000000e+00,-4.002075269818305969e-02,0.000000000000000000e+00
2.830169916152954102e+00,6.221038818359375000e+02,-1.236202716827392578e+01,-1.236202716827392578e+01,-4.314562082290649414e-01,-1.683637237548828125e+02,-2.146820545196533203e+00,-1.094062137603759766e+01,-2.359010696411132812e+00,5.625518038868904114e-03,-3.274981498718261719e+00,1.196464896202087402e+00,-3.506007418036460876e-02,5.235424041748046875e+00,-4.992906749248504639e-02,-7.761297225952148438e+00,1.000000000000000000e+00,-4.002075269818305969e-02,0.000000000000000000e+00
2.830169916152954102e+00,6.221038818359375000e+02,-1.236202716827392578e+01,-1.236202716827392578e+01,-4.314562082290649414e-01,-1.683637237548828125e+02,-2.146820545196533203e+00,-1.094062137603759766e+01,-2.359010696411132812e+00,5.625518038868904114e-03,-3.274981498718261719e+00,1.196464896202087402e+00,-3.506007418036460876e-02,5.235424041748046875e+00,-4.992906749248504639e-02,-7.761297225952148438e+00,1.000000000000000000e+00,-4.002075269818305969e-02,0.000000000000000000e+00
2.830169916152954102e+00,6.221038818359375000e+02,-1.236202716827392578e+01,-1.236202716827392578e+01,-4.314562082290649414e-01,-1.683637237548828125e+02,-2.146820545196533203e+00,-1.094062137603759766e+01,-2.359010696411132812e+00,5.625518038868904114e-03,-3.274981498718261719e+00,1.196464896202087402e+00,-3.506007418036460876e-02,5.235424041748046875e+00,-4.992906749248504639e-02,-7.761297225952148438e+00,1.000000000000000000e+00,-4.002075269818305969e-02,0.000000000000000000e+00
2.830169916152954102e+00,6.221038818359375000e+02,-1.236202716827392578e+01,-1.236202716827392578e+01,-4.314562082290649414e-01,-1.683637237548828125e+02,-2.146820545196533203e+00,-1.094062137603759766e+01,-2.359010696411132812e+00,5.625518038868904114e-03,-3.274981498718261719e+00,1.196464896202087402e+00,-3.506007418036460876e-02,5.235424041748046875e+00,-4.992906749248504639e-02,-7.761297225952148438e+00,1.000000000000000000e+00,-4.002075269818305969e-02,0.000000000000000000e+00
