# Time,X,Y,Z,Roll,Pitch,Yaw,Vx,Vy,Vz,Ax,Ay,Az,Wx,Wy,Wz,Throttle,Steer,Brake
0.000000000000000000e+00,5.197834472656250000e+02,-1.740381622314453125e+01,-1.740381622314453125e+01,-3.861037492752075195e-01,-1.799052124023437500e+02,3.884031670168042183e-03,-1.393364429473876953e+01,-2.831663005053997040e-02,-1.535198498459067196e-05,4.847057342529296875e+00,1.243966259062290192e-02,2.024027926381677389e-04,-1.162784872576594353e-03,-9.000882506370544434e-02,2.573054842650890350e-02,1.000000000000000000e+00,5.831037415191531181e-04,0.000000000000000000e+00
1.045818328857421875e-01,5.197834472656250000e+02,-1.740381622314453125e+01,-1.740381622314453125e+01,-3.861037492752075195e-01,-1.799052124023437500e+02,3.884031670168042183e-03,-1.393364429473876953e+01,-2.831663005053997040e-02,-1.535198498459067196e-05,4.847057342529296875e+00,1.243966259062290192e-02,2.024027926381677389e-04,-1.162784872576594353e-03,-9.000882506370544434e-02,2.573054842650890350e-02,1.000000000000000000e+00,5.831037415191531181e-04,0.000000000000000000e+00
1.045818328857421875e-01,5.197834472656250000e+02,-1.740381622314453125e+01,-1.740381622314453125e+01,-3.861037492752075195e-01,-1.799052124023437500e+02,3.884031670168042183e-03,-1.393364429473876953e+01,-2.831663005053997040e-02,-1.535198498459067196e-05,4.847057342529296875e+00,1.243966259062290192e-02,2.024027926381677389e-04,-1.162784872576594353e-03,-9.000882506370544434e-02,2.573054842650890350e-02,1.000000000000000000e+00,5.831037415191531181e-04,0.000000000000000000e+00
1.045818328857421875e-01,5.197834472656250000e+02,-1.740381622314453125e+01,-1.740381622314453125e+01,-3.861037492752075195e-01,-1.799052124023437500e+02,3.884031670168042183e-03,-1.393364429473876953e+01,-2.831663005053997040e-02,-1.535198498459067196e-05,4.847057342529296875e+00,1.243966259062290192e-02,2.024027926381677389e-04,-1.162784872576594353e-03,-9.000882506370544434e-02,2.573054842650890350e-02,1.000000000000000000e+00,5.831037415191531181e-04,0.000000000000000000e+00
1.045818328857421875e-01,5.197834472656250000e+02,-1.740381622314453125e+01,-1.740381622314453125e+01,-3.861037492752075195e-01,-1.799052124023437500e+02,3.884031670168042183e-03,-1.393364429473876953e+01,-2.831663005053997040e-02,-1.535198498459067196e-05,4.847057342529296875e+00,1.243966259062290192e-02,2.024027926381677389e-04,-1.162784872576594353e-03,-9.000882506370544434e-02,2.573054842650890350e-02,1.000000000000000000e+00,5.831037415191531181e-04,0.000000000000000000e+00
1.045818328857421875e-01,5.197834472656250000e+02,-1.740381622314453125e+01,-1.740381622314453125e+01,-3.861037492752075195e-01,-1.799052124023437500e+02,3.884031670168042183e-03,-1.393364429473876953e+01,-2.831663005053997040e-02,-1.535198498459067196e-05,4.847057342529296875e+00,1.243966259062290192e-02,2.024027926381677389e-04,-1.162784872576594353e-03,-9.000882506370544434e-02,2.573054842650890350e-02,1.000000000000000000e+00,5.831037415191531181e-04,0.000000000000000000e+00
1.045818328857421875e-01,5.184145507812500000e+02,-1.740658569335937500e+01,-1.740658569335937500e+01,-3.529090285301208496e-01,-1.798979187011718750e+02,2.888150280341506004e-03,-1.353754615783691406e+01,-2.803413756191730499e-02,3.062691394006833434e-05,3.782850265502929688e+00,2.697883872315287590e-03,4.391116090118885040e-04,-1.607495732605457306e-02,5.976335406303405762e-01,9.855079650878906250e-02,1.000000000000000000e+00,6.367274909280240536e-04,0.000000000000000000e+00
2.092907428741455078e-01,5.184145507812500000e+02,-1.740658569335937500e+01,-1.740658569335937500e+01,-3.529090285301208496e-01,-1.798979187011718750e+02,2.888150280341506004e-03,-1.353754615783691406e+01,-2.803413756191730499e-02,3.062691394006833434e-05,3.782850265502929688e+00,2.697883872315287590e-03,4.391116090118885040e-04,-1.607495732605457306e-02,5.976335406303405762e-01,9.855079650878906250e-02,1.000000000000000000e+00,6.367274909280240536e-04,0.000000000000000000e+00
2.092907428741455078e-01,5.184145507812500000e+02,-1.740658569335937500e+01,-1.740658569335937500e+01,-3.529090285301208496e-01,-1.798979187011718750e+02,2.888150280341506004e-03,-1.353754615783691406e+01,-2.803413756191730499e-02,3.062691394006833434e-05,3.782850265502929688e+00,2.697883872315287590e-03,4.391116090118885040e-04,-1.607495732605457306e-02,5.976335406303405762e-01,9.855079650878906250e-02,1.000000000000000000e+00,6.367274909280240536e-04,0.000000000000000000e+00
2.092907428741455078e-01,5.184145507812500000e+02,-1.740658569335937500e+01,-1.740658569335937500e+01,-3.529090285301208496e-01,-1.798979187011718750e+02,2.888150280341506004e-03,-1.353754615783691406e+01,-2.803413756191730499e-02,3.062691394006833434e-05,3.782850265502929688e+00,2.697883872315287590e-03,4.391116090118885040e-04,-1.607495732605457306e-02,5.976335406303405762e-01,9.855079650878906250e-02,1.000000000000000000e+00,6.367274909280240536e-04,0.000000000000000000e+00
2.092907428741455078e-01,5.184145507812500000e+02,-1.740658569335937500e+01,-1.740658569335937500e+01,-3.529090285301208496e-01,-1.798979187011718750e+02,2.888150280341506004e-03,-1.353754615783691406e+01,-2.803413756191730499e-02,3.062691394006833434e-05,3.782850265502929688e+00,2.697883872315287590e-03,4.391116090118885040e-04,-1.607495732605457306e-02,5.976335406303405762e-01,9.855079650878906250e-02,1.000000000000000000e+00,6.367274909280240536e-04,0.000000000000000000e+00
2.092907428741455078e-01,5.170733032226562500e+02,-1.740917396545410156e+01,-1.740917396545410156e+01,-2.679414749145507812e-01,-1.798950500488281250e+02,3.973145503550767899e-03,-1.333292675018310547e+01,-2.533787488937377930e-02,5.719185355701483786e-05,2.742204666137695312e+00,3.613393381237983704e-02,3.560097247827798128e-04,4.915197845548391342e-03,9.898037314414978027e-01,3.521941136568784714e-03,1.000000000000000000e+00,0.000000000000000000e+00,0.000000000000000000e+00
2.839093208312988281e-01,5.170733032226562500e+02,-1.740917396545410156e+01,-1.740917396545410156e+01,-2.679414749145507812e-01,-1.798950500488281250e+02,3.973145503550767899e-03,-1.333292675018310547e+01,-2.533787488937377930e-02,5.719185355701483786e-05,2.742204666137695312e+00,3.613393381237983704e-02,3.560097247827798128e-04,4.915197845548391342e-03,9.898037314414978027e-01,3.521941136568784714e-03,1.000000000000000000e+00,0.000000000000000000e+00,0.000000000000000000e+00
2.839093208312988281e-01,5.170733032226562500e+02,-1.740917396545410156e+01,-1.740917396545410156e+01,-2.679414749145507812e-01,-1.798950500488281250e+02,3.973145503550767899e-03,-1.333292675018310547e+01,-2.533787488937377930e-02,5.719185355701483786e-05,2.742204666137695312e+00,3.613393381237983704e-02,3.560097247827798128e-04,4.915197845548391342e-03,9.898037314414978027e-01,3.521941136568784714e-03,1.000000000000000000e+00,0.000000000000000000e+00,0.000000000000000000e+00
2.839093208312988281e-01,5.170733032226562500e+02,-1.740917396545410156e+01,-1.740917396545410156e+01,-2.679414749145507812e-01,-1.798950500488281250e+02,3.973145503550767899e-03,-1.333292675018310547e+01,-2.533787488937377930e-02,5.719185355701483786e-05,2.742204666137695312e+00,3.613393381237983704e-02,3.560097247827798128e-04,4.915197845548391342e-03,9.898037314414978027e-01,3.521941136568784714e-03,1.000000000000000000e+00,0.000000000000000000e+00,0.000000000000000000e+00
2.839093208312988281e-01,5.170733032226562500e+02,-1.740917396545410156e+01,-1.740917396545410156e+01,-2.679414749145507812e-01,-1.798950500488281250e+02,3.973145503550767899e-03,-1.333292675018310547e+01,-2.533787488937377930e-02,5.719185355701483786e-05,2.742204666137695312e+00,3.613393381237983704e-02,3.560097247827798128e-04,4.915197845548391342e-03,9.898037314414978027e-01,3.521941136568784714e-03,1.000000000000000000e+00,0.000000000000000000e+00,0.000000000000000000e+00
3.569011688232421875e-01,5.160803222656250000e+02,-1.741117095947265625e+01,-1.741117095947265625e+01,-1.891142725944519043e-01,-1.798893432617187500e+02,1.665664720349013805e-03,-1.328241157531738281e+01,-2.776424773037433624e-02,5.169096766621805727e-05,6.920659542083740234e-01,-3.324169665575027466e-02,-7.536301563959568739e-05,-3.965903446078300476e-02,1.108885526657104492e+00,1.099983528256416321e-01,1.000000000000000000e+00,6.188529077917337418e-04,0.000000000000000000e+00
3.569011688232421875e-01,5.160803222656250000e+02,-1.741117095947265625e+01,-1.741117095947265625e+01,-1.891142725944519043e-01,-1.798893432617187500e+02,1.665664720349013805e-03,-1.328241157531738281e+01,-2.776424773037433624e-02,5.169096766621805727e-05,6.920659542083740234e-01,-3.324169665575027466e-02,-7.536301563959568739e-05,-3.965903446078300476e-02,1.108885526657104492e+00,1.099983528256416321e-01,1.000000000000000000e+00,6.188529077917337418e-04,0.000000000000000000e+00
3.569011688232421875e-01,5.160803222656250000e+02,-1.741117095947265625e+01,-1.741117095947265625e+01,-1.891142725944519043e-01,-1.798893432617187500e+02,1.665664720349013805e-03,-1.328241157531738281e+01,-2.776424773037433624e-02,5.169096766621805727e-05,6.920659542083740234e-01,-3.324169665575027466e-02,-7.536301563959568739e-05,-3.965903446078300476e-02,1.108885526657104492e+00,1.099983528256416321e-01,1.000000000000000000e+00,6.188529077917337418e-04,0.000000000000000000e+00
3.569011688232421875e-01,5.160803222656250000e+02,-1.741117095947265625e+01,-1.741117095947265625e+01,-1.891142725944519043e-01,-1.798893432617187500e+02,1.665664720349013805e-03,-1.328241157531738281e+01,-2.776424773037433624e-02,5.169096766621805727e-05,6.920659542083740234e-01,-3.324169665575027466e-02,-7.536301563959568739e-05,-3.965903446078300476e-02,1.108885526657104492e+00,1.099983528256416321e-01,1.000000000000000000e+00,6.188529077917337418e-04,0.000000000000000000e+00
4.765405654907226562e-01,5.151096801757812500e+02,-1.741321945190429688e+01,-1.741321945190429688e+01,-1.067148670554161072e-01,-1.798807373046875000e+02,-3.967283701058477163e-04,-1.329766082763671875e+01,-2.912759222090244293e-02,3.857049159705638885e-05,-1.274601221084594727e-01,-1.139544788748025894e-02,-1.096668565878644586e-04,-2.835777588188648224e-02,1.130211234092712402e+00,1.230249106884002686e-01,1.000000000000000000e+00,4.704066668637096882e-04,0.000000000000000000e+00
4.765405654907226562e-01,5.151096801757812500e+02,-1.741321945190429688e+01,-1.741321945190429688e+01,-1.067148670554161072e-01,-1.798807373046875000e+02,-3.967283701058477163e-04,-1.329766082763671875e+01,-2.912759222090244293e-02,3.857049159705638885e-05,-1.274601221084594727e-01,-1.139544788748025894e-02,-1.096668565878644586e-04,-2.835777588188648224e-02,1.130211234092712402e+00,1.230249106884002686e-01,1.000000000000000000e+00,4.704066668637096882e-04,0.000000000000000000e+00
4.765405654907226562e-01,5.151096801757812500e+02,-1.741321945190429688e+01,-1.741321945190429688e+01,-1.067148670554161072e-01,-1.798807373046875000e+02,-3.967283701058477163e-04,-1.329766082763671875e+01,-2.912759222090244293e-02,3.857049159705638885e-05,-1.274601221084594727e-01,-1.139544788748025894e-02,-1.096668565878644586e-04,-2.835777588188648224e-02,1.130211234092712402e+00,1.230249106884002686e-01,1.000000000000000000e+00,4.704066668637096882e-04,0.000000000000000000e+00
4.765405654907226562e-01,5.151096801757812500e+02,-1.741321945190429688e+01,-1.741321945190429688e+01,-1.067148670554161072e-01,-1.798807373046875000e+02,-3.967283701058477163e-04,-1.329766082763671875e+01,-2.912759222090244293e-02,3.857049159705638885e-05,-1.274601221084594727e-01,-1.139544788748025894e-02,-1.096668565878644586e-04,-2.835777588188648224e-02,1.130211234092712402e+00,1.230249106884002686e-01,1.000000000000000000e+00,4.704066668637096882e-04,0.000000000000000000e+00
4.765405654907226562e-01,5.151096801757812500e+02,-1.741321945190429688e+01,-1.741321945190429688e+01,-1.067148670554161072e-01,-1.798807373046875000e+02,-3.967283701058477163e-04,-1.329766082763671875e+01,-2.912759222090244293e-02,3.857049159705638885e-05,-1.274601221084594727e-01,-1.139544788748025894e-02,-1.096668565878644586e-04,-2.835777588188648224e-02,1.130211234092712402e+00,1.230249106884002686e-01,1.000000000000000000e+00,4.704066668637096882e-04,0.000000000000000000e+00
4.765405654907226562e-01,5.151096801757812500e+02,-1.741321945190429688e+01,-1.741321945190429688e+01,-1.067148670554161072e-01,-1.798807373046875000e+02,-3.967283701058477163e-04,-1.329766082763671875e+01,-2.912759222090244293e-02,3.857049159705638885e-05,-1.274601221084594727e-01,-1.139544788748025894e-02,-1.096668565878644586e-04,-2.835777588188648224e-02,1.130211234092712402e+00,1.230249106884002686e-01,1.000000000000000000e+00,4.704066668637096882e-04,0.000000000000000000e+00
4.765405654907226562e-01,5.151096801757812500e+02,-1.741321945190429688e+01,-1.741321945190429688e+01,-1.067148670554161072e-01,-1.798807373046875000e+02,-3.967283701058477163e-04,-1.329766082763671875e+01,-2.912759222090244293e-02,3.857049159705638885e-05,-1.274601221084594727e-01,-1.139544788748025894e-02,-1.096668565878644586e-04,-2.835777588188648224e-02,1.130211234092712402e+00,1.230249106884002686e-01,1.000000000000000000e+00,4.704066668637096882e-04,0.000000000000000000e+00
6.200885772705078125e-01,5.137762451171875000e+02,-1.741620826721191406e+01,-1.741620826721191406e+01,-5.737358704209327698e-03,-1.798688964843750000e+02,-2.624511718750000000e-03,-1.334203624725341797e+01,-3.136019781231880188e-02,7.418349468935048208e-06,-3.091329634189605713e-01,-1.555302366614341736e-02,-2.170155057683587074e-04,-2.319089323282241821e-02,8.633109331130981445e-01,1.166248768568038940e-01,1.000000000000000000e+00,4.087175766471773386e-04,0.000000000000000000e+00
6.200885772705078125e-01,5.137762451171875000e+02,-1.741620826721191406e+01,-1.741620826721191406e+01,-5.737358704209327698e-03,-1.798688964843750000e+02,-2.624511718750000000e-03,-1.334203624725341797e+01,-3.136019781231880188e-02,7.418349468935048208e-06,-3.091329634189605713e-01,-1.555302366614341736e-02,-2.170155057683587074e-04,-2.319089323282241821e-02,8.633109331130981445e-01,1.166248768568038940e-01,1.000000000000000000e+00,4.087175766471773386e-04,0.000000000000000000e+00
6.200885772705078125e-01,5.137762451171875000e+02,-1.741620826721191406e+01,-1.741620826721191406e+01,-5.737358704209327698e-03,-1.798688964843750000e+02,-2.624511718750000000e-03,-1.334203624725341797e+01,-3.136019781231880188e-02,7.418349468935048208e-06,-3.091329634189605713e-01,-1.555302366614341736e-02,-2.170155057683587074e-04,-2.319089323282241821e-02,8.633109331130981445e-01,1.166248768568038940e-01,1.000000000000000000e+00,4.087175766471773386e-04,0.000000000000000000e+00
6.200885772705078125e-01,5.137762451171875000e+02,-1.741620826721191406e+01,-1.741620826721191406e+01,-5.737358704209327698e-03,-1.798688964843750000e+02,-2.624511718750000000e-03,-1.334203624725341797e+01,-3.136019781231880188e-02,7.418349468935048208e-06,-3.091329634189605713e-01,-1.555302366614341736e-02,-2.170155057683587074e-04,-2.319089323282241821e-02,8.633109331130981445e-01,1.166248768568038940e-01,1.000000000000000000e+00,4.087175766471773386e-04,0.000000000000000000e+00
6.200885772705078125e-01,5.137762451171875000e+02,-1.741620826721191406e+01,-1.741620826721191406e+01,-5.737358704209327698e-03,-1.798688964843750000e+02,-2.624511718750000000e-03,-1.334203624725341797e+01,-3.136019781231880188e-02,7.418349468935048208e-06,-3.091329634189605713e-01,-1.555302366614341736e-02,-2.170155057683587074e-04,-2.319089323282241821e-02,8.633109331130981445e-01,1.166248768568038940e-01,1.000000000000000000e+00,4.087175766471773386e-04,0.000000000000000000e+00
6.200885772705078125e-01,5.137762451171875000e+02,-1.741620826721191406e+01,-1.741620826721191406e+01,-5.737358704209327698e-03,-1.798688964843750000e+02,-2.624511718750000000e-03,-1.334203624725341797e+01,-3.136019781231880188e-02,7.418349468935048208e-06,-3.091329634189605713e-01,-1.555302366614341736e-02,-2.170155057683587074e-04,-2.319089323282241821e-02,8.633109331130981445e-01,1.166248768568038940e-01,1.000000000000000000e+00,4.087175766471773386e-04,0.000000000000000000e+00
7.946169376373291016e-01,5.124390869140625000e+02,-1.741933059692382812e+01,-1.741933059692382812e+01,6.228449195623397827e-02,-1.798622283935546875e+02,-2.899169456213712692e-03,-1.338052082061767578e+01,-3.193699941039085388e-02,-1.483669893787009642e-05,-2.205061316490173340e-01,-3.304916201159358025e-03,-1.275153626920655370e-04,-2.530010184273123741e-03,5.629437565803527832e-01,4.573607444763183594e-02,1.000000000000000000e+00,7.956368790473788977e-05,0.000000000000000000e+00
7.946169376373291016e-01,5.124390869140625000e+02,-1.741933059692382812e+01,-1.741933059692382812e+01,6.228449195623397827e-02,-1.798622283935546875e+02,-2.899169456213712692e-03,-1.338052082061767578e+01,-3.193699941039085388e-02,-1.483669893787009642e-05,-2.205061316490173340e-01,-3.304916201159358025e-03,-1.275153626920655370e-04,-2.530010184273123741e-03,5.629437565803527832e-01,4.573607444763183594e-02,1.000000000000000000e+00,7.956368790473788977e-05,0.000000000000000000e+00
7.946169376373291016e-01,5.124390869140625000e+02,-1.741933059692382812e+01,-1.741933059692382812e+01,6.228449195623397827e-02,-1.798622283935546875e+02,-2.899169456213712692e-03,-1.338052082061767578e+01,-3.193699941039085388e-02,-1.483669893787009642e-05,-2.205061316490173340e-01,-3.304916201159358025e-03,-1.275153626920655370e-04,-2.530010184273123741e-03,5.629437565803527832e-01,4.573607444763183594e-02,1.000000000000000000e+00,7.956368790473788977e-05,0.000000000000000000e+00
8.783230781555175781e-01,5.110986328125000000e+02,-1.742248916625976562e+01,-1.742248916625976562e+01,1.058201119303703308e-01,-1.798617858886718750e+02,-1.983642112463712692e-03,-1.341360282897949219e+01,-3.162635490298271179e-02,-2.017638689721934497e-05,-3.952160477638244629e-01,3.711131634190678596e-03,-6.379087426466867328e-05,8.572706021368503571e-03,3.559055924415588379e-01,-1.265825983136892319e-02,1.000000000000000000e+00,-1.279558491660282016e-04,0.000000000000000000e+00
8.783230781555175781e-01,5.110986328125000000e+02,-1.742248916625976562e+01,-1.742248916625976562e+01,1.058201119303703308e-01,-1.798617858886718750e+02,-1.983642112463712692e-03,-1.341360282897949219e+01,-3.162635490298271179e-02,-2.017638689721934497e-05,-3.952160477638244629e-01,3.711131634190678596e-03,-6.379087426466867328e-05,8.572706021368503571e-03,3.559055924415588379e-01,-1.265825983136892319e-02,1.000000000000000000e+00,-1.279558491660282016e-04,0.000000000000000000e+00
8.783230781555175781e-01,5.110986328125000000e+02,-1.742248916625976562e+01,-1.742248916625976562e+01,1.058201119303703308e-01,-1.798617858886718750e+02,-1.983642112463712692e-03,-1.341360282897949219e+01,-3.162635490298271179e-02,-2.017638689721934497e-05,-3.952160477638244629e-01,3.711131634190678596e-03,-6.379087426466867328e-05,8.572706021368503571e-03,3.559055924415588379e-01,-1.265825983136892319e-02,1.000000000000000000e+00,-1.279558491660282016e-04,0.000000000000000000e+00
9.483780860900878906e-01,5.099745178222656250e+02,-1.742511367797851562e+01,-1.742511367797851562e+01,1.284895092248916626e-01,-1.798642730712890625e+02,-1.007080078125000000e-03,-1.343576145172119141e+01,-3.105747699737548828e-02,-2.379085344728082418e-05,-3.163031935691833496e-01,8.120445534586906433e-03,-5.159469219506718218e-05,1.153000257909297943e-02,2.298118621110916138e-01,-3.720662370324134827e-02,1.000000000000000000e+00,-1.964024122571572661e-04,0.000000000000000000e+00
9.483780860900878906e-01,5.099745178222656250e+02,-1.742511367797851562e+01,-1.742511367797851562e+01,1.284895092248916626e-01,-1.798642730712890625e+02,-1.007080078125000000e-03,-1.343576145172119141e+01,-3.105747699737548828e-02,-2.379085344728082418e-05,-3.163031935691833496e-01,8.120445534586906433e-03,-5.159469219506718218e-05,1.153000257909297943e-02,2.298118621110916138e-01,-3.720662370324134827e-02,1.000000000000000000e+00,-1.964024122571572661e-04,0.000000000000000000e+00
9.483780860900878906e-01,5.099745178222656250e+02,-1.742511367797851562e+01,-1.742511367797851562e+01,1.284895092248916626e-01,-1.798642730712890625e+02,-1.007080078125000000e-03,-1.343576145172119141e+01,-3.105747699737548828e-02,-2.379085344728082418e-05,-3.163031935691833496e-01,8.120445534586906433e-03,-5.159469219506718218e-05,1.153000257909297943e-02,2.298118621110916138e-01,-3.720662370324134827e-02,1.000000000000000000e+00,-1.964024122571572661e-04,0.000000000000000000e+00
9.483780860900878906e-01,5.099745178222656250e+02,-1.742511367797851562e+01,-1.742511367797851562e+01,1.284895092248916626e-01,-1.798642730712890625e+02,-1.007080078125000000e-03,-1.343576145172119141e+01,-3.105747699737548828e-02,-2.379085344728082418e-05,-3.163031935691833496e-01,8.120445534586906433e-03,-5.159469219506718218e-05,1.153000257909297943e-02,2.298118621110916138e-01,-3.720662370324134827e-02,1.000000000000000000e+00,-1.964024122571572661e-04,0.000000000000000000e+00
9.483780860900878906e-01,5.090324096679687500e+02,-1.742727661132812500e+01,-1.742727661132812500e+01,1.417059302330017090e-01,-1.798671264648437500e+02,-2.136230177711695433e-04,-1.345195293426513672e+01,-3.055245801806449890e-02,-2.155001857317984104e-05,-2.054782509803771973e-01,6.408950779587030411e-03,2.843734728230629116e-05,1.031160447746515274e-02,1.635243445634841919e-01,-4.255835339426994324e-02,1.000000000000000000e+00,-1.909528509713709354e-04,0.000000000000000000e+00
1.027177095413208008e+00,5.090324096679687500e+02,-1.742727661132812500e+01,-1.742727661132812500e+01,1.417059302330017090e-01,-1.798671264648437500e+02,-2.136230177711695433e-04,-1.345195293426513672e+01,-3.055245801806449890e-02,-2.155001857317984104e-05,-2.054782509803771973e-01,6.408950779587030411e-03,2.843734728230629116e-05,1.031160447746515274e-02,1.635243445634841919e-01,-4.255835339426994324e-02,1.000000000000000000e+00,-1.909528509713709354e-04,0.000000000000000000e+00
1.027177095413208008e+00,5.090324096679687500e+02,-1.742727661132812500e+01,-1.742727661132812500e+01,1.417059302330017090e-01,-1.798671264648437500e+02,-2.136230177711695433e-04,-1.345195293426513672e+01,-3.055245801806449890e-02,-2.155001857317984104e-05,-2.054782509803771973e-01,6.408950779587030411e-03,2.843734728230629116e-05,1.031160447746515274e-02,1.635243445634841919e-01,-4.255835339426994324e-02,1.000000000000000000e+00,-1.909528509713709354e-04,0.000000000000000000e+00
1.095043420791625977e+00,5.079715270996093750e+02,-1.742966842651367188e+01,-1.742966842651367188e+01,1.522995531558990479e-01,-1.798704376220703125e+02,5.542338476516306400e-04,-1.346928596496582031e+01,-2.992478571832180023e-02,-1.501800306868972257e-05,-2.553995847702026367e-01,9.248656220734119415e-03,9.624825906939804554e-05,8.821854367852210999e-03,1.134555488824844360e-01,-4.264757409691810608e-02,1.000000000000000000e+00,-1.807076623663306236e-04,0.000000000000000000e+00
1.095043420791625977e+00,5.079715270996093750e+02,-1.742966842651367188e+01,-1.742966842651367188e+01,1.522995531558990479e-01,-1.798704376220703125e+02,5.542338476516306400e-04,-1.346928596496582031e+01,-2.992478571832180023e-02,-1.501800306868972257e-05,-2.553995847702026367e-01,9.248656220734119415e-03,9.624825906939804554e-05,8.821854367852210999e-03,1.134555488824844360e-01,-4.264757409691810608e-02,1.000000000000000000e+00,-1.807076623663306236e-04,0.000000000000000000e+00
1.095043420791625977e+00,5.079715270996093750e+02,-1.742966842651367188e+01,-1.742966842651367188e+01,1.522995531558990479e-01,-1.798704376220703125e+02,5.542338476516306400e-04,-1.346928596496582031e+01,-2.992478571832180023e-02,-1.501800306868972257e-05,-2.553995847702026367e-01,9.248656220734119415e-03,9.624825906939804554e-05,8.821854367852210999e-03,1.134555488824844360e-01,-4.264757409691810608e-02,1.000000000000000000e+00,-1.807076623663306236e-04,0.000000000000000000e+00
1.095043420791625977e+00,5.079715270996093750e+02,-1.742966842651367188e+01,-1.742966842651367188e+01,1.522995531558990479e-01,-1.798704376220703125e+02,5.542338476516306400e-04,-1.346928596496582031e+01,-2.992478571832180023e-02,-1.501800306868972257e-05,-2.553995847702026367e-01,9.248656220734119415e-03,9.624825906939804554e-05,8.821854367852210999e-03,1.134555488824844360e-01,-4.264757409691810608e-02,1.000000000000000000e+00,-1.807076623663306236e-04,0.000000000000000000e+00
1.168572425842285156e+00,5.070567932128906250e+02,-1.743169975280761719e+01,-1.743169975280761719e+01,1.581120342016220093e-01,-1.798728485107421875e+02,8.896532235667109489e-04,-1.348158740997314453e+01,-2.961663343012332916e-02,-1.234840601682662964e-05,-1.673005670309066772e-01,4.190894309431314468e-03,3.630671926657669246e-05,3.924866206943988800e-03,7.192268967628479004e-02,-3.135199844837188721e-02,1.000000000000000000e+00,-1.131330209318548441e-04,0.000000000000000000e+00
1.168572425842285156e+00,5.070567932128906250e+02,-1.743169975280761719e+01,-1.743169975280761719e+01,1.581120342016220093e-01,-1.798728485107421875e+02,8.896532235667109489e-04,-1.348158740997314453e+01,-2.961663343012332916e-02,-1.234840601682662964e-05,-1.673005670309066772e-01,4.190894309431314468e-03,3.630671926657669246e-05,3.924866206943988800e-03,7.192268967628479004e-02,-3.135199844837188721e-02,1.000000000000000000e+00,-1.131330209318548441e-04,0.000000000000000000e+00
1.168572425842285156e+00,5.070567932128906250e+02,-1.743169975280761719e+01,-1.743169975280761719e+01,1.581120342016220093e-01,-1.798728485107421875e+02,8.896532235667109489e-04,-1.348158740997314453e+01,-2.961663343012332916e-02,-1.234840601682662964e-05,-1.673005670309066772e-01,4.190894309431314468e-03,3.630671926657669246e-05,3.924866206943988800e-03,7.192268967628479004e-02,-3.135199844837188721e-02,1.000000000000000000e+00,-1.131330209318548441e-04,0.000000000000000000e+00
1.168572425842285156e+00,5.070567932128906250e+02,-1.743169975280761719e+01,-1.743169975280761719e+01,1.581120342016220093e-01,-1.798728485107421875e+02,8.896532235667109489e-04,-1.348158740997314453e+01,-2.961663343012332916e-02,-1.234840601682662964e-05,-1.673005670309066772e-01,4.190894309431314468e-03,3.630671926657669246e-05,3.924866206943988800e-03,7.192268967628479004e-02,-3.135199844837188721e-02,1.000000000000000000e+00,-1.131330209318548441e-04,0.000000000000000000e+00
1.168572425842285156e+00,5.060649414062500000e+02,-1.743387222290039062e+01,-1.743387222290039062e+01,1.623262614011764526e-01,-1.798746948242187500e+02,1.085355994291603565e-03,-1.349387645721435547e+01,-2.929540164768695831e-02,-9.068108738574665040e-06,-1.637481898069381714e-01,4.280325490981340408e-03,4.370906390249729156e-05,2.177907153964042664e-03,4.792648553848266602e-02,-2.274456247687339783e-02,1.000000000000000000e+00,-8.784703095443546772e-05,0.000000000000000000e+00
1.243620872497558594e+00,5.060649414062500000e+02,-1.743387222290039062e+01,-1.743387222290039062e+01,1.623262614011764526e-01,-1.798746948242187500e+02,1.085355994291603565e-03,-1.349387645721435547e+01,-2.929540164768695831e-02,-9.068108738574665040e-06,-1.637481898069381714e-01,4.280325490981340408e-03,4.370906390249729156e-05,2.177907153964042664e-03,4.792648553848266602e-02,-2.274456247687339783e-02,1.000000000000000000e+00,-8.784703095443546772e-05,0.000000000000000000e+00
1.243620872497558594e+00,5.060649414062500000e+02,-1.743387222290039062e+01,-1.743387222290039062e+01,1.623262614011764526e-01,-1.798746948242187500e+02,1.085355994291603565e-03,-1.349387645721435547e+01,-2.929540164768695831e-02,-9.068108738574665040e-06,-1.637481898069381714e-01,4.280325490981340408e-03,4.370906390249729156e-05,2.177907153964042664e-03,4.792648553848266602e-02,-2.274456247687339783e-02,1.000000000000000000e+00,-8.784703095443546772e-05,0.000000000000000000e+00
1.243620872497558594e+00,5.060649414062500000e+02,-1.743387222290039062e+01,-1.743387222290039062e+01,1.623262614011764526e-01,-1.798746948242187500e+02,1.085355994291603565e-03,-1.349387645721435547e+01,-2.929540164768695831e-02,-9.068108738574665040e-06,-1.637481898069381714e-01,4.280325490981340408e-03,4.370906390249729156e-05,2.177907153964042664e-03,4.792648553848266602e-02,-2.274456247687339783e-02,1.000000000000000000e+00,-8.784703095443546772e-05,0.000000000000000000e+00
1.312042951583862305e+00,5.050516967773437500e+02,-1.743607521057128906e+01,-1.743607521057128906e+01,1.650651693344116211e-01,-1.798757476806640625e+02,1.040584989823400974e-03,-1.350535964965820312e+01,-2.919692918658256531e-02,-5.969105131953256205e-06,-1.678287535905838013e-01,1.439191284589469433e-03,4.529245052253827453e-05,-1.152831828221678734e-03,2.953339554369449615e-02,-1.044520642608404160e-02,1.000000000000000000e+00,-3.509521411615423858e-05,0.000000000000000000e+00
1.312042951583862305e+00,5.050516967773437500e+02,-1.743607521057128906e+01,-1.743607521057128906e+01,1.650651693344116211e-01,-1.798757476806640625e+02,1.040584989823400974e-03,-1.350535964965820312e+01,-2.919692918658256531e-02,-5.969105131953256205e-06,-1.678287535905838013e-01,1.439191284589469433e-03,4.529245052253827453e-05,-1.152831828221678734e-03,2.953339554369449615e-02,-1.044520642608404160e-02,1.000000000000000000e+00,-3.509521411615423858e-05,0.000000000000000000e+00
1.312042951583862305e+00,5.041273803710937500e+02,-1.743807411193847656e+01,-1.743807411193847656e+01,1.659530997276306152e-01,-1.798762054443359375e+02,9.132305858656764030e-04,-1.350890254974365234e+01,-2.912692911922931671e-02,-4.329088824306381866e-06,-4.983934387564659119e-02,9.847179753705859184e-04,2.307074282725807279e-05,-1.948142307810485363e-03,-1.976817473769187927e-02,-5.198644939810037613e-03,1.000000000000000000e+00,-1.896449430205393583e-05,0.000000000000000000e+00
1.383129358291625977e+00,5.041273803710937500e+02,-1.743807411193847656e+01,-1.743807411193847656e+01,1.659530997276306152e-01,-1.798762054443359375e+02,9.132305858656764030e-04,-1.350890254974365234e+01,-2.912692911922931671e-02,-4.329088824306381866e-06,-4.983934387564659119e-02,9.847179753705859184e-04,2.307074282725807279e-05,-1.948142307810485363e-03,-1.976817473769187927e-02,-5.198644939810037613e-03,1.000000000000000000e+00,-1.896449430205393583e-05,0.000000000000000000e+00
1.383129358291625977e+00,5.041273803710937500e+02,-1.743807411193847656e+01,-1.743807411193847656e+01,1.659530997276306152e-01,-1.798762054443359375e+02,9.132305858656764030e-04,-1.350890254974365234e+01,-2.912692911922931671e-02,-4.329088824306381866e-06,-4.983934387564659119e-02,9.847179753705859184e-04,2.307074282725807279e-05,-1.948142307810485363e-03,-1.976817473769187927e-02,-5.198644939810037613e-03,1.000000000000000000e+00,-1.896449430205393583e-05,0.000000000000000000e+00
1.450951814651489258e+00,5.031679077148437500e+02,-1.744014549255371094e+01,-1.744014549255371094e+01,1.607553213834762573e-01,-1.798763885498046875e+02,7.090070284903049469e-04,-1.349089527130126953e+01,-2.911400422453880310e-02,-3.432739504205528647e-06,2.655061483383178711e-01,1.905695535242557526e-04,1.321611398452660069e-05,-2.576973056420683861e-03,-9.001208096742630005e-02,-1.365419593639671803e-03,1.000000000000000000e+00,4.795619588549016044e-06,0.000000000000000000e+00
1.450951814651489258e+00,5.031679077148437500e+02,-1.744014549255371094e+01,-1.744014549255371094e+01,1.607553213834762573e-01,-1.798763885498046875e+02,7.090070284903049469e-04,-1.349089527130126953e+01,-2.911400422453880310e-02,-3.432739504205528647e-06,2.655061483383178711e-01,1.905695535242557526e-04,1.321611398452660069e-05,-2.576973056420683861e-03,-9.001208096742630005e-02,-1.365419593639671803e-03,1.000000000000000000e+00,4.795619588549016044e-06,0.000000000000000000e+00
1.450951814651489258e+00,5.031679077148437500e+02,-1.744014549255371094e+01,-1.744014549255371094e+01,1.607553213834762573e-01,-1.798763885498046875e+02,7.090070284903049469e-04,-1.349089527130126953e+01,-2.911400422453880310e-02,-3.432739504205528647e-06,2.655061483383178711e-01,1.905695535242557526e-04,1.321611398452660069e-05,-2.576973056420683861e-03,-9.001208096742630005e-02,-1.365419593639671803e-03,1.000000000000000000e+00,4.795619588549016044e-06,0.000000000000000000e+00
1.527701377868652344e+00,5.022536621093750000e+02,-1.744212150573730469e+01,-1.744212150573730469e+01,1.546696275472640991e-01,-1.798763732910156250e+02,5.257432931102812290e-04,-1.347371959686279297e+01,-2.910764329135417938e-02,2.698532171052647755e-06,2.237885594367980957e-01,8.287907985504716635e-05,7.988673314685001969e-05,-2.367236418649554253e-03,-8.636838197708129883e-02,1.022481592372059822e-03,1.000000000000000000e+00,1.155308291345136240e-05,0.000000000000000000e+00
1.527701377868652344e+00,5.022536621093750000e+02,-1.744212150573730469e+01,-1.744212150573730469e+01,1.546696275472640991e-01,-1.798763732910156250e+02,5.257432931102812290e-04,-1.347371959686279297e+01,-2.910764329135417938e-02,2.698532171052647755e-06,2.237885594367980957e-01,8.287907985504716635e-05,7.988673314685001969e-05,-2.367236418649554253e-03,-8.636838197708129883e-02,1.022481592372059822e-03,1.000000000000000000e+00,1.155308291345136240e-05,0.000000000000000000e+00
1.527701377868652344e+00,5.022536621093750000e+02,-1.744212150573730469e+01,-1.744212150573730469e+01,1.546696275472640991e-01,-1.798763732910156250e+02,5.257432931102812290e-04,-1.347371959686279297e+01,-2.910764329135417938e-02,2.698532171052647755e-06,2.237885594367980957e-01,8.287907985504716635e-05,7.988673314685001969e-05,-2.367236418649554253e-03,-8.636838197708129883e-02,1.022481592372059822e-03,1.000000000000000000e+00,1.155308291345136240e-05,0.000000000000000000e+00
1.600134611129760742e+00,5.012204895019531250e+02,-1.744435310363769531e+01,-1.744435310363769531e+01,1.487410217523574829e-01,-1.798763732910156250e+02,4.046716203447431326e-04,-1.345431232452392578e+01,-2.903535775840282440e-02,1.458897713746409863e-06,2.679332494735717773e-01,9.979609167203307152e-04,-1.711416734906379133e-05,-1.133874990046024323e-03,-6.867808848619461060e-02,-2.324175584362819791e-04,1.000000000000000000e+00,0.000000000000000000e+00,0.000000000000000000e+00
1.600134611129760742e+00,5.012204895019531250e+02,-1.744435310363769531e+01,-1.744435310363769531e+01,1.487410217523574829e-01,-1.798763732910156250e+02,4.046716203447431326e-04,-1.345431232452392578e+01,-2.903535775840282440e-02,1.458897713746409863e-06,2.679332494735717773e-01,9.979609167203307152e-04,-1.711416734906379133e-05,-1.133874990046024323e-03,-6.867808848619461060e-02,-2.324175584362819791e-04,1.000000000000000000e+00,0.000000000000000000e+00,0.000000000000000000e+00
1.600134611129760742e+00,5.012204895019531250e+02,-1.744435310363769531e+01,-1.744435310363769531e+01,1.487410217523574829e-01,-1.798763732910156250e+02,4.046716203447431326e-04,-1.345431232452392578e+01,-2.903535775840282440e-02,1.458897713746409863e-06,2.679332494735717773e-01,9.979609167203307152e-04,-1.711416734906379133e-05,-1.133874990046024323e-03,-6.867808848619461060e-02,-2.324175584362819791e-04,1.000000000000000000e+00,0.000000000000000000e+00,0.000000000000000000e+00
1.600134611129760742e+00,5.012204895019531250e+02,-1.744435310363769531e+01,-1.744435310363769531e+01,1.487410217523574829e-01,-1.798763732910156250e+02,4.046716203447431326e-04,-1.345431232452392578e+01,-2.903535775840282440e-02,1.458897713746409863e-06,2.679332494735717773e-01,9.979609167203307152e-04,-1.711416734906379133e-05,-1.133874990046024323e-03,-6.867808848619461060e-02,-2.324175584362819791e-04,1.000000000000000000e+00,0.000000000000000000e+00,0.000000000000000000e+00
1.600134611129760742e+00,5.012204895019531250e+02,-1.744435310363769531e+01,-1.744435310363769531e+01,1.487410217523574829e-01,-1.798763732910156250e+02,4.046716203447431326e-04,-1.345431232452392578e+01,-2.903535775840282440e-02,1.458897713746409863e-06,2.679332494735717773e-01,9.979609167203307152e-04,-1.711416734906379133e-05,-1.133874990046024323e-03,-6.867808848619461060e-02,-2.324175584362819791e-04,1.000000000000000000e+00,0.000000000000000000e+00,0.000000000000000000e+00
1.600134611129760742e+00,5.002467956542968750e+02,-1.744645881652832031e+01,-1.744645881652832031e+01,1.445882618427276611e-01,-1.798761291503906250e+02,2.346193650737404823e-04,-1.343602848052978516e+01,-2.911045774817466736e-02,3.327841341160819866e-06,1.584678888320922852e-01,-6.508990190923213959e-04,1.619831891730427742e-05,-2.297578146681189537e-03,-5.113007500767707825e-02,4.028332885354757309e-03,1.000000000000000000e+00,2.572195808170363307e-05,0.000000000000000000e+00
1.715513467788696289e+00,5.002467956542968750e+02,-1.744645881652832031e+01,-1.744645881652832031e+01,1.445882618427276611e-01,-1.798761291503906250e+02,2.346193650737404823e-04,-1.343602848052978516e+01,-2.911045774817466736e-02,3.327841341160819866e-06,1.584678888320922852e-01,-6.508990190923213959e-04,1.619831891730427742e-05,-2.297578146681189537e-03,-5.113007500767707825e-02,4.028332885354757309e-03,1.000000000000000000e+00,2.572195808170363307e-05,0.000000000000000000e+00
1.715513467788696289e+00,5.002467956542968750e+02,-1.744645881652832031e+01,-1.744645881652832031e+01,1.445882618427276611e-01,-1.798761291503906250e+02,2.346193650737404823e-04,-1.343602848052978516e+01,-2.911045774817466736e-02,3.327841341160819866e-06,1.584678888320922852e-01,-6.508990190923213959e-04,1.619831891730427742e-05,-2.297578146681189537e-03,-5.113007500767707825e-02,4.028332885354757309e-03,1.000000000000000000e+00,2.572195808170363307e-05,0.000000000000000000e+00
1.715513467788696289e+00,5.002467956542968750e+02,-1.744645881652832031e+01,-1.744645881652832031e+01,1.445882618427276611e-01,-1.798761291503906250e+02,2.346193650737404823e-04,-1.343602848052978516e+01,-2.911045774817466736e-02,3.327841341160819866e-06,1.584678888320922852e-01,-6.508990190923213959e-04,1.619831891730427742e-05,-2.297578146681189537e-03,-5.113007500767707825e-02,4.028332885354757309e-03,1.000000000000000000e+00,2.572195808170363307e-05,0.000000000000000000e+00
1.813115119934082031e+00,4.989046630859375000e+02,-1.744937515258789062e+01,-1.744937515258789062e+01,1.404355168342590332e-01,-1.798755645751953125e+02,1.302759029125910573e-11,-1.341083717346191406e+01,-2.921783551573753357e-02,1.449343358217447530e-06,2.581032812595367432e-01,-1.100163441151380539e-03,-1.924657954077702016e-05,-1.998664112761616707e-03,-3.407487645745277405e-02,6.951762363314628601e-03,1.000000000000000000e+00,3.204345557605847716e-05,0.000000000000000000e+00
1.813115119934082031e+00,4.989046630859375000e+02,-1.744937515258789062e+01,-1.744937515258789062e+01,1.404355168342590332e-01,-1.798755645751953125e+02,1.302759029125910573e-11,-1.341083717346191406e+01,-2.921783551573753357e-02,1.449343358217447530e-06,2.581032812595367432e-01,-1.100163441151380539e-03,-1.924657954077702016e-05,-1.998664112761616707e-03,-3.407487645745277405e-02,6.951762363314628601e-03,1.000000000000000000e+00,3.204345557605847716e-05,0.000000000000000000e+00
1.813115119934082031e+00,4.989046630859375000e+02,-1.744937515258789062e+01,-1.744937515258789062e+01,1.404355168342590332e-01,-1.798755645751953125e+02,1.302759029125910573e-11,-1.341083717346191406e+01,-2.921783551573753357e-02,1.449343358217447530e-06,2.581032812595367432e-01,-1.100163441151380539e-03,-1.924657954077702016e-05,-1.998664112761616707e-03,-3.407487645745277405e-02,6.951762363314628601e-03,1.000000000000000000e+00,3.204345557605847716e-05,0.000000000000000000e+00
1.813115119934082031e+00,4.989046630859375000e+02,-1.744937515258789062e+01,-1.744937515258789062e+01,1.404355168342590332e-01,-1.798755645751953125e+02,1.302759029125910573e-11,-1.341083717346191406e+01,-2.921783551573753357e-02,1.449343358217447530e-06,2.581032812595367432e-01,-1.100163441151380539e-03,-1.924657954077702016e-05,-1.998664112761616707e-03,-3.407487645745277405e-02,6.951762363314628601e-03,1.000000000000000000e+00,3.204345557605847716e-05,0.000000000000000000e+00
1.896134853363037109e+00,4.975971374511718750e+02,-1.745222663879394531e+01,-1.745222663879394531e+01,1.378332078456878662e-01,-1.798750000000000000e+02,-1.220703052240423858e-04,-1.338630294799804688e+01,-2.925742790102958679e-02,4.767595953580894275e-07,2.955228090286254883e-01,-4.769033112097531557e-04,-1.171509120467817411e-05,-8.999938727356493473e-04,-2.236820943653583527e-02,5.207468289881944656e-03,1.000000000000000000e+00,2.092633985739666969e-05,0.000000000000000000e+00
1.896134853363037109e+00,4.975971374511718750e+02,-1.745222663879394531e+01,-1.745222663879394531e+01,1.378332078456878662e-01,-1.798750000000000000e+02,-1.220703052240423858e-04,-1.338630294799804688e+01,-2.925742790102958679e-02,4.767595953580894275e-07,2.955228090286254883e-01,-4.769033112097531557e-04,-1.171509120467817411e-05,-8.999938727356493473e-04,-2.236820943653583527e-02,5.207468289881944656e-03,1.000000000000000000e+00,2.092633985739666969e-05,0.000000000000000000e+00
1.896134853363037109e+00,4.975971374511718750e+02,-1.745222663879394531e+01,-1.745222663879394531e+01,1.378332078456878662e-01,-1.798750000000000000e+02,-1.220703052240423858e-04,-1.338630294799804688e+01,-2.925742790102958679e-02,4.767595953580894275e-07,2.955228090286254883e-01,-4.769033112097531557e-04,-1.171509120467817411e-05,-8.999938727356493473e-04,-2.236820943653583527e-02,5.207468289881944656e-03,1.000000000000000000e+00,2.092633985739666969e-05,0.000000000000000000e+00
1.896134853363037109e+00,4.975971374511718750e+02,-1.745222663879394531e+01,-1.745222663879394531e+01,1.378332078456878662e-01,-1.798750000000000000e+02,-1.220703052240423858e-04,-1.338630294799804688e+01,-2.925742790102958679e-02,4.767595953580894275e-07,2.955228090286254883e-01,-4.769033112097531557e-04,-1.171509120467817411e-05,-8.999938727356493473e-04,-2.236820943653583527e-02,5.207468289881944656e-03,1.000000000000000000e+00,2.092633985739666969e-05,0.000000000000000000e+00
1.896134853363037109e+00,4.975971374511718750e+02,-1.745222663879394531e+01,-1.745222663879394531e+01,1.378332078456878662e-01,-1.798750000000000000e+02,-1.220703052240423858e-04,-1.338630294799804688e+01,-2.925742790102958679e-02,4.767595953580894275e-07,2.955228090286254883e-01,-4.769033112097531557e-04,-1.171509120467817411e-05,-8.999938727356493473e-04,-2.236820943653583527e-02,5.207468289881944656e-03,1.000000000000000000e+00,2.092633985739666969e-05,0.000000000000000000e+00
1.896134853363037109e+00,4.975971374511718750e+02,-1.745222663879394531e+01,-1.745222663879394531e+01,1.378332078456878662e-01,-1.798750000000000000e+02,-1.220703052240423858e-04,-1.338630294799804688e+01,-2.925742790102958679e-02,4.767595953580894275e-07,2.955228090286254883e-01,-4.769033112097531557e-04,-1.171509120467817411e-05,-8.999938727356493473e-04,-2.236820943653583527e-02,5.207468289881944656e-03,1.000000000000000000e+00,2.092633985739666969e-05,0.000000000000000000e+00
1.896134853363037109e+00,4.975971374511718750e+02,-1.745222663879394531e+01,-1.745222663879394531e+01,1.378332078456878662e-01,-1.798750000000000000e+02,-1.220703052240423858e-04,-1.338630294799804688e+01,-2.925742790102958679e-02,4.767595953580894275e-07,2.955228090286254883e-01,-4.769033112097531557e-04,-1.171509120467817411e-05,-8.999938727356493473e-04,-2.236820943653583527e-02,5.207468289881944656e-03,1.000000000000000000e+00,2.092633985739666969e-05,0.000000000000000000e+00
2.195794820785522461e+00,4.937579956054687500e+02,-1.746067428588867188e+01,-1.746067428588867188e+01,4.790079593658447266e-01,-1.798610076904296875e+02,-1.739501953125000000e-03,-1.489628791809082031e+01,-3.368386253714561462e-02,-1.021998832584358752e-04,-8.905814170837402344e+00,-2.665192075073719025e-02,-4.035790043417364359e-04,-9.253004565834999084e-03,8.674101829528808594e-01,3.968509286642074585e-02,1.000000000000000000e+00,-1.896449539344757795e-04,0.000000000000000000e+00
2.195794820785522461e+00,4.937579956054687500e+02,-1.746067428588867188e+01,-1.746067428588867188e+01,4.790079593658447266e-01,-1.798610076904296875e+02,-1.739501953125000000e-03,-1.489628791809082031e+01,-3.368386253714561462e-02,-1.021998832584358752e-04,-8.905814170837402344e+00,-2.665192075073719025e-02,-4.035790043417364359e-04,-9.253004565834999084e-03,8.674101829528808594e-01,3.968509286642074585e-02,1.000000000000000000e+00,-1.896449539344757795e-04,0.000000000000000000e+00
2.195794820785522461e+00,4.937579956054687500e+02,-1.746067428588867188e+01,-1.746067428588867188e+01,4.790079593658447266e-01,-1.798610076904296875e+02,-1.739501953125000000e-03,-1.489628791809082031e+01,-3.368386253714561462e-02,-1.021998832584358752e-04,-8.905814170837402344e+00,-2.665192075073719025e-02,-4.035790043417364359e-04,-9.253004565834999084e-03,8.674101829528808594e-01,3.968509286642074585e-02,1.000000000000000000e+00,-1.896449539344757795e-04,0.000000000000000000e+00
2.195794820785522461e+00,4.937579956054687500e+02,-1.746067428588867188e+01,-1.746067428588867188e+01,4.790079593658447266e-01,-1.798610076904296875e+02,-1.739501953125000000e-03,-1.489628791809082031e+01,-3.368386253714561462e-02,-1.021998832584358752e-04,-8.905814170837402344e+00,-2.665192075073719025e-02,-4.035790043417364359e-04,-9.253004565834999084e-03,8.674101829528808594e-01,3.968509286642074585e-02,1.000000000000000000e+00,-1.896449539344757795e-04,0.000000000000000000e+00
2.195794820785522461e+00,4.937579956054687500e+02,-1.746067428588867188e+01,-1.746067428588867188e+01,4.790079593658447266e-01,-1.798610076904296875e+02,-1.739501953125000000e-03,-1.489628791809082031e+01,-3.368386253714561462e-02,-1.021998832584358752e-04,-8.905814170837402344e+00,-2.665192075073719025e-02,-4.035790043417364359e-04,-9.253004565834999084e-03,8.674101829528808594e-01,3.968509286642074585e-02,1.000000000000000000e+00,-1.896449539344757795e-04,0.000000000000000000e+00
2.195794820785522461e+00,4.937579956054687500e+02,-1.746067428588867188e+01,-1.746067428588867188e+01,4.790079593658447266e-01,-1.798610076904296875e+02,-1.739501953125000000e-03,-1.489628791809082031e+01,-3.368386253714561462e-02,-1.021998832584358752e-04,-8.905814170837402344e+00,-2.665192075073719025e-02,-4.035790043417364359e-04,-9.253004565834999084e-03,8.674101829528808594e-01,3.968509286642074585e-02,1.000000000000000000e+00,-1.896449539344757795e-04,0.000000000000000000e+00
2.195794820785522461e+00,4.937579956054687500e+02,-1.746067428588867188e+01,-1.746067428588867188e+01,4.790079593658447266e-01,-1.798610076904296875e+02,-1.739501953125000000e-03,-1.489628791809082031e+01,-3.368386253714561462e-02,-1.021998832584358752e-04,-8.905814170837402344e+00,-2.665192075073719025e-02,-4.035790043417364359e-04,-9.253004565834999084e-03,8.674101829528808594e-01,3.968509286642074585e-02,1.000000000000000000e+00,-1.896449539344757795e-04,0.000000000000000000e+00
2.195794820785522461e+00,4.937579956054687500e+02,-1.746067428588867188e+01,-1.746067428588867188e+01,4.790079593658447266e-01,-1.798610076904296875e+02,-1.739501953125000000e-03,-1.489628791809082031e+01,-3.368386253714561462e-02,-1.021998832584358752e-04,-8.905814170837402344e+00,-2.665192075073719025e-02,-4.035790043417364359e-04,-9.253004565834999084e-03,8.674101829528808594e-01,3.968509286642074585e-02,1.000000000000000000e+00,-1.896449539344757795e-04,0.000000000000000000e+00
2.195794820785522461e+00,4.937579956054687500e+02,-1.746067428588867188e+01,-1.746067428588867188e+01,4.790079593658447266e-01,-1.798610076904296875e+02,-1.739501953125000000e-03,-1.489628791809082031e+01,-3.368386253714561462e-02,-1.021998832584358752e-04,-8.905814170837402344e+00,-2.665192075073719025e-02,-4.035790043417364359e-04,-9.253004565834999084e-03,8.674101829528808594e-01,3.968509286642074585e-02,1.000000000000000000e+00,-1.896449539344757795e-04,0.000000000000000000e+00
2.195794820785522461e+00,4.937579956054687500e+02,-1.746067428588867188e+01,-1.746067428588867188e+01,4.790079593658447266e-01,-1.798610076904296875e+02,-1.739501953125000000e-03,-1.489628791809082031e+01,-3.368386253714561462e-02,-1.021998832584358752e-04,-8.905814170837402344e+00,-2.665192075073719025e-02,-4.035790043417364359e-04,-9.253004565834999084e-03,8.674101829528808594e-01,3.968509286642074585e-02,1.000000000000000000e+00,-1.896449539344757795e-04,0.000000000000000000e+00
2.374083757400512695e+00,4.929581909179687500e+02,-1.746247673034667969e+01,-1.746247673034667969e+01,5.157202482223510742e-01,-1.798596954345703125e+02,-1.892089261673390865e-03,-1.516286563873291016e+01,-3.434954956173896790e-02,-9.729048178996890783e-05,-1.495200514793395996e+00,-3.733753925189375877e-03,2.753620901785325259e-05,-3.845708910375833511e-03,6.081264019012451172e-01,1.642441377043724060e-02,1.000000000000000000e+00,-2.840314700733870268e-04,0.000000000000000000e+00
2.374083757400512695e+00,4.929581909179687500e+02,-1.746247673034667969e+01,-1.746247673034667969e+01,5.157202482223510742e-01,-1.798596954345703125e+02,-1.892089261673390865e-03,-1.516286563873291016e+01,-3.434954956173896790e-02,-9.729048178996890783e-05,-1.495200514793395996e+00,-3.733753925189375877e-03,2.753620901785325259e-05,-3.845708910375833511e-03,6.081264019012451172e-01,1.642441377043724060e-02,1.000000000000000000e+00,-2.840314700733870268e-04,0.000000000000000000e+00
2.374083757400512695e+00,4.929581909179687500e+02,-1.746247673034667969e+01,-1.746247673034667969e+01,5.157202482223510742e-01,-1.798596954345703125e+02,-1.892089261673390865e-03,-1.516286563873291016e+01,-3.434954956173896790e-02,-9.729048178996890783e-05,-1.495200514793395996e+00,-3.733753925189375877e-03,2.753620901785325259e-05,-3.845708910375833511e-03,6.081264019012451172e-01,1.642441377043724060e-02,1.000000000000000000e+00,-2.840314700733870268e-04,0.000000000000000000e+00
2.447860002517700195e+00,4.914137268066406250e+02,-1.746596527099609375e+01,-1.746596527099609375e+01,5.576303005218505859e-01,-1.798605194091796875e+02,-1.678466680459678173e-03,-1.563390350341796875e+01,-3.518708795309066772e-02,-7.315369293792173266e-05,-6.384682178497314453e+00,-1.135241333395242691e-02,3.271620662417262793e-04,2.525489078834652901e-03,2.780003249645233154e-01,-2.041419036686420441e-02,1.000000000000000000e+00,-3.561837365850806236e-04,0.000000000000000000e+00
2.447860002517700195e+00,4.914137268066406250e+02,-1.746596527099609375e+01,-1.746596527099609375e+01,5.576303005218505859e-01,-1.798605194091796875e+02,-1.678466680459678173e-03,-1.563390350341796875e+01,-3.518708795309066772e-02,-7.315369293792173266e-05,-6.384682178497314453e+00,-1.135241333395242691e-02,3.271620662417262793e-04,2.525489078834652901e-03,2.780003249645233154e-01,-2.041419036686420441e-02,1.000000000000000000e+00,-3.561837365850806236e-04,0.000000000000000000e+00
2.500878810882568359e+00,4.902456970214843750e+02,-1.746859359741210938e+01,-1.746859359741210938e+01,5.702183246612548828e-01,-1.798624877929687500e+02,-1.403808477334678173e-03,-1.595991039276123047e+01,-3.567611798644065857e-02,-4.638941027224063873e-05,-6.148890972137451172e+00,-9.223707951605319977e-03,5.048073362559080124e-04,4.347475245594978333e-03,1.163389161229133606e-01,-3.033962845802307129e-02,1.000000000000000000e+00,-3.494262637104839087e-04,0.000000000000000000e+00
2.500878810882568359e+00,4.902456970214843750e+02,-1.746859359741210938e+01,-1.746859359741210938e+01,5.702183246612548828e-01,-1.798624877929687500e+02,-1.403808477334678173e-03,-1.595991039276123047e+01,-3.567611798644065857e-02,-4.638941027224063873e-05,-6.148890972137451172e+00,-9.223707951605319977e-03,5.048073362559080124e-04,4.347475245594978333e-03,1.163389161229133606e-01,-3.033962845802307129e-02,1.000000000000000000e+00,-3.494262637104839087e-04,0.000000000000000000e+00
2.500878810882568359e+00,4.893919677734375000e+02,-1.747049140930175781e+01,-1.747049140930175781e+01,5.737221837043762207e-01,-1.798646392822265625e+02,-9.765622089616954327e-04,-1.618523216247558594e+01,-3.563829138875007629e-02,-3.249691144446842372e-05,-3.798626899719238281e+00,6.377063691616058350e-04,2.342091465834528208e-04,9.317999705672264099e-03,4.129816964268684387e-02,-4.465401917695999146e-02,1.000000000000000000e+00,-4.150390741415321827e-04,0.000000000000000000e+00
2.560195446014404297e+00,4.893919677734375000e+02,-1.747049140930175781e+01,-1.747049140930175781e+01,5.737221837043762207e-01,-1.798646392822265625e+02,-9.765622089616954327e-04,-1.618523216247558594e+01,-3.563829138875007629e-02,-3.249691144446842372e-05,-3.798626899719238281e+00,6.377063691616058350e-04,2.342091465834528208e-04,9.317999705672264099e-03,4.129816964268684387e-02,-4.465401917695999146e-02,1.000000000000000000e+00,-4.150390741415321827e-04,0.000000000000000000e+00
2.560195446014404297e+00,4.893919677734375000e+02,-1.747049140930175781e+01,-1.747049140930175781e+01,5.737221837043762207e-01,-1.798646392822265625e+02,-9.765622089616954327e-04,-1.618523216247558594e+01,-3.563829138875007629e-02,-3.249691144446842372e-05,-3.798626899719238281e+00,6.377063691616058350e-04,2.342091465834528208e-04,9.317999705672264099e-03,4.129816964268684387e-02,-4.465401917695999146e-02,1.000000000000000000e+00,-4.150390741415321827e-04,0.000000000000000000e+00
2.618730545043945312e+00,4.884228515625000000e+02,-1.747263145446777344e+01,-1.747263145446777344e+01,5.739954113960266113e-01,-1.798668823242187500e+02,-6.713867769576609135e-04,-1.643002700805664062e+01,-3.600474447011947632e-02,-2.167380080209113657e-05,-4.182018280029296875e+00,-6.260399241000413895e-03,1.848995016189292073e-04,4.075988195836544037e-03,-1.557290554046630859e-02,-3.510892018675804138e-02,1.000000000000000000e+00,-2.997262054122984409e-04,0.000000000000000000e+00
2.618730545043945312e+00,4.884228515625000000e+02,-1.747263145446777344e+01,-1.747263145446777344e+01,5.739954113960266113e-01,-1.798668823242187500e+02,-6.713867769576609135e-04,-1.643002700805664062e+01,-3.600474447011947632e-02,-2.167380080209113657e-05,-4.182018280029296875e+00,-6.260399241000413895e-03,1.848995016189292073e-04,4.075988195836544037e-03,-1.557290554046630859e-02,-3.510892018675804138e-02,1.000000000000000000e+00,-2.997262054122984409e-04,0.000000000000000000e+00
2.677334070205688477e+00,4.874525146484375000e+02,-1.747475051879882812e+01,-1.747475051879882812e+01,5.716253519058227539e-01,-1.798688964843750000e+02,-3.662108792923390865e-04,-1.666506004333496094e+01,-3.608766943216323853e-02,-1.240548681380460039e-05,-4.010561466217041016e+00,-1.415016595274209976e-03,1.581528340466320515e-04,5.825296044349670410e-03,-5.336358025670051575e-02,-3.448163345456123352e-02,1.000000000000000000e+00,-3.173828008584678173e-04,0.000000000000000000e+00
2.677334070205688477e+00,4.874525146484375000e+02,-1.747475051879882812e+01,-1.747475051879882812e+01,5.716253519058227539e-01,-1.798688964843750000e+02,-3.662108792923390865e-04,-1.666506004333496094e+01,-3.608766943216323853e-02,-1.240548681380460039e-05,-4.010561466217041016e+00,-1.415016595274209976e-03,1.581528340466320515e-04,5.825296044349670410e-03,-5.336358025670051575e-02,-3.448163345456123352e-02,1.000000000000000000e+00,-3.173828008584678173e-04,0.000000000000000000e+00
2.677334070205688477e+00,4.874525146484375000e+02,-1.747475051879882812e+01,-1.747475051879882812e+01,5.716253519058227539e-01,-1.798688964843750000e+02,-3.662108792923390865e-04,-1.666506004333496094e+01,-3.608766943216323853e-02,-1.240548681380460039e-05,-4.010561466217041016e+00,-1.415016595274209976e-03,1.581528340466320515e-04,5.825296044349670410e-03,-5.336358025670051575e-02,-3.448163345456123352e-02,1.000000000000000000e+00,-3.173828008584678173e-04,0.000000000000000000e+00
2.677334070205688477e+00,4.874525146484375000e+02,-1.747475051879882812e+01,-1.747475051879882812e+01,5.716253519058227539e-01,-1.798688964843750000e+02,-3.662108792923390865e-04,-1.666506004333496094e+01,-3.608766943216323853e-02,-1.240548681380460039e-05,-4.010561466217041016e+00,-1.415016595274209976e-03,1.581528340466320515e-04,5.825296044349670410e-03,-5.336358025670051575e-02,-3.448163345456123352e-02,1.000000000000000000e+00,-3.173828008584678173e-04,0.000000000000000000e+00
2.755024909973144531e+00,4.864674987792968750e+02,-1.747688865661621094e+01,-1.747688865661621094e+01,5.675818324089050293e-01,-1.798702697753906250e+02,-3.051757230423390865e-04,-1.689484405517578125e+01,-3.651985153555870056e-02,-4.357652869657613337e-06,-2.957671880722045898e+00,-5.562845151871442795e-03,1.035879395203664899e-04,4.136997449677437544e-04,-7.687827944755554199e-02,-1.824582554399967194e-02,1.000000000000000000e+00,-2.142769953934475780e-04,0.000000000000000000e+00
2.755024909973144531e+00,4.864674987792968750e+02,-1.747688865661621094e+01,-1.747688865661621094e+01,5.675818324089050293e-01,-1.798702697753906250e+02,-3.051757230423390865e-04,-1.689484405517578125e+01,-3.651985153555870056e-02,-4.357652869657613337e-06,-2.957671880722045898e+00,-5.562845151871442795e-03,1.035879395203664899e-04,4.136997449677437544e-04,-7.687827944755554199e-02,-1.824582554399967194e-02,1.000000000000000000e+00,-2.142769953934475780e-04,0.000000000000000000e+00
2.755024909973144531e+00,4.864674987792968750e+02,-1.747688865661621094e+01,-1.747688865661621094e+01,5.675818324089050293e-01,-1.798702697753906250e+02,-3.051757230423390865e-04,-1.689484405517578125e+01,-3.651985153555870056e-02,-4.357652869657613337e-06,-2.957671880722045898e+00,-5.562845151871442795e-03,1.035879395203664899e-04,4.136997449677437544e-04,-7.687827944755554199e-02,-1.824582554399967194e-02,1.000000000000000000e+00,-2.142769953934475780e-04,0.000000000000000000e+00
2.830169916152954102e+00,4.851410827636718750e+02,-1.747974777221679688e+01,-1.747974777221679688e+01,5.607106685638427734e-01,-1.798713836669921875e+02,-2.136230905307456851e-04,-1.719227409362792969e+01,-3.683415427803993225e-02,-2.450562078593065962e-06,-3.958081007003784180e+00,-4.182616248726844788e-03,2.537880936870351434e-05,1.656921347603201866e-03,-9.305575489997863770e-02,-1.278152223676443100e-02,1.000000000000000000e+00,-2.308436814928427339e-04,0.000000000000000000e+00
2.830169916152954102e+00,4.851410827636718750e+02,-1.747974777221679688e+01,-1.747974777221679688e+01,5.607106685638427734e-01,-1.798713836669921875e+02,-2.136230905307456851e-04,-1.719227409362792969e+01,-3.683415427803993225e-02,-2.450562078593065962e-06,-3.958081007003784180e+00,-4.182616248726844788e-03,2.537880936870351434e-05,1.656921347603201866e-03,-9.305575489997863770e-02,-1.278152223676443100e-02,1.000000000000000000e+00,-2.308436814928427339e-04,0.000000000000000000e+00
2.830169916152954102e+00,4.851410827636718750e+02,-1.747974777221679688e+01,-1.747974777221679688e+01,5.607106685638427734e-01,-1.798713836669921875e+02,-2.136230905307456851e-04,-1.719227409362792969e+01,-3.683415427803993225e-02,-2.450562078593065962e-06,-3.958081007003784180e+00,-4.182616248726844788e-03,2.537880936870351434e-05,1.656921347603201866e-03,-9.305575489997863770e-02,-1.278152223676443100e-02,1.000000000000000000e+00,-2.308436814928427339e-04,0.000000000000000000e+00
2.830169916152954102e+00,4.851410827636718750e+02,-1.747974777221679688e+01,-1.747974777221679688e+01,5.607106685638427734e-01,-1.798713836669921875e+02,-2.136230905307456851e-04,-1.719227409362792969e+01,-3.683415427803993225e-02,-2.450562078593065962e-06,-3.958081007003784180e+00,-4.182616248726844788e-03,2.537880936870351434e-05,1.656921347603201866e-03,-9.305575489997863770e-02,-1.278152223676443100e-02,1.000000000000000000e+00,-2.308436814928427339e-04,0.000000000000000000e+00
2.830169916152954102e+00,4.851410827636718750e+02,-1.747974777221679688e+01,-1.747974777221679688e+01,5.607106685638427734e-01,-1.798713836669921875e+02,-2.136230905307456851e-04,-1.719227409362792969e+01,-3.683415427803993225e-02,-2.450562078593065962e-06,-3.958081007003784180e+00,-4.182616248726844788e-03,2.537880936870351434e-05,1.656921347603201866e-03,-9.305575489997863770e-02,-1.278152223676443100e-02,1.000000000000000000e+00,-2.308436814928427339e-04,0.000000000000000000e+00
