# Time,X,Y,Z,Roll,Pitch,Yaw,Vx,Vy,Vz,Ax,Ay,Az,Wx,Wy,Wz,Throttle,Steer,Brake
0.000000000000000000e+00,1.953824157714843750e+02,4.521777725219726562e+01,4.521777725219726562e+01,-3.790754824876785278e-02,-5.435179919004440308e-02,1.099107685149647295e-04,1.670970344543457031e+01,-1.634199544787406921e-02,1.907078939211714896e-08,-1.655268073081970215e-01,-2.910559298470616341e-03,-6.564530394825851545e-06,3.016211092472076416e-03,-1.917639076709747314e-01,-4.736237227916717529e-02,1.000000000000000000e+00,-1.252134534297510982e-04,0.000000000000000000e+00
1.045818328857421875e-01,1.953824157714843750e+02,4.521777725219726562e+01,4.521777725219726562e+01,-3.790754824876785278e-02,-5.435179919004440308e-02,1.099107685149647295e-04,1.670970344543457031e+01,-1.634199544787406921e-02,1.907078939211714896e-08,-1.655268073081970215e-01,-2.910559298470616341e-03,-6.564530394825851545e-06,3.016211092472076416e-03,-1.917639076709747314e-01,-4.736237227916717529e-02,1.000000000000000000e+00,-1.252134534297510982e-04,0.000000000000000000e+00
1.045818328857421875e-01,1.953824157714843750e+02,4.521777725219726562e+01,4.521777725219726562e+01,-3.790754824876785278e-02,-5.435179919004440308e-02,1.099107685149647295e-04,1.670970344543457031e+01,-1.634199544787406921e-02,1.907078939211714896e-08,-1.655268073081970215e-01,-2.910559298470616341e-03,-6.564530394825851545e-06,3.016211092472076416e-03,-1.917639076709747314e-01,-4.736237227916717529e-02,1.000000000000000000e+00,-1.252134534297510982e-04,0.000000000000000000e+00
1.045818328857421875e-01,1.953824157714843750e+02,4.521777725219726562e+01,4.521777725219726562e+01,-3.790754824876785278e-02,-5.435179919004440308e-02,1.099107685149647295e-04,1.670970344543457031e+01,-1.634199544787406921e-02,1.907078939211714896e-08,-1.655268073081970215e-01,-2.910559298470616341e-03,-6.564530394825851545e-06,3.016211092472076416e-03,-1.917639076709747314e-01,-4.736237227916717529e-02,1.000000000000000000e+00,-1.252134534297510982e-04,0.000000000000000000e+00
1.045818328857421875e-01,1.953824157714843750e+02,4.521777725219726562e+01,4.521777725219726562e+01,-3.790754824876785278e-02,-5.435179919004440308e-02,1.099107685149647295e-04,1.670970344543457031e+01,-1.634199544787406921e-02,1.907078939211714896e-08,-1.655268073081970215e-01,-2.910559298470616341e-03,-6.564530394825851545e-06,3.016211092472076416e-03,-1.917639076709747314e-01,-4.736237227916717529e-02,1.000000000000000000e+00,-1.252134534297510982e-04,0.000000000000000000e+00
1.045818328857421875e-01,1.953824157714843750e+02,4.521777725219726562e+01,4.521777725219726562e+01,-3.790754824876785278e-02,-5.435179919004440308e-02,1.099107685149647295e-04,1.670970344543457031e+01,-1.634199544787406921e-02,1.907078939211714896e-08,-1.655268073081970215e-01,-2.910559298470616341e-03,-6.564530394825851545e-06,3.016211092472076416e-03,-1.917639076709747314e-01,-4.736237227916717529e-02,1.000000000000000000e+00,-1.252134534297510982e-04,0.000000000000000000e+00
1.045818328857421875e-01,1.970523529052734375e+02,4.521617126464843750e+01,4.521617126464843750e+01,-2.145362272858619690e-02,-5.813598632812500000e-02,-6.103516352595761418e-05,1.668932533264160156e+01,-1.659036241471767426e-02,-7.246716791087237652e-07,-1.946167945861816406e-01,-2.371975453570485115e-03,-7.102953077264828607e-06,2.113088266924023628e-03,-1.408640295267105103e-01,-3.235346451401710510e-02,1.000000000000000000e+00,-3.087616278207860887e-05,0.000000000000000000e+00
2.092907428741455078e-01,1.970523529052734375e+02,4.521617126464843750e+01,4.521617126464843750e+01,-2.145362272858619690e-02,-5.813598632812500000e-02,-6.103516352595761418e-05,1.668932533264160156e+01,-1.659036241471767426e-02,-7.246716791087237652e-07,-1.946167945861816406e-01,-2.371975453570485115e-03,-7.102953077264828607e-06,2.113088266924023628e-03,-1.408640295267105103e-01,-3.235346451401710510e-02,1.000000000000000000e+00,-3.087616278207860887e-05,0.000000000000000000e+00
2.092907428741455078e-01,1.970523529052734375e+02,4.521617126464843750e+01,4.521617126464843750e+01,-2.145362272858619690e-02,-5.813598632812500000e-02,-6.103516352595761418e-05,1.668932533264160156e+01,-1.659036241471767426e-02,-7.246716791087237652e-07,-1.946167945861816406e-01,-2.371975453570485115e-03,-7.102953077264828607e-06,2.113088266924023628e-03,-1.408640295267105103e-01,-3.235346451401710510e-02,1.000000000000000000e+00,-3.087616278207860887e-05,0.000000000000000000e+00
2.092907428741455078e-01,1.970523529052734375e+02,4.521617126464843750e+01,4.521617126464843750e+01,-2.145362272858619690e-02,-5.813598632812500000e-02,-6.103516352595761418e-05,1.668932533264160156e+01,-1.659036241471767426e-02,-7.246716791087237652e-07,-1.946167945861816406e-01,-2.371975453570485115e-03,-7.102953077264828607e-06,2.113088266924023628e-03,-1.408640295267105103e-01,-3.235346451401710510e-02,1.000000000000000000e+00,-3.087616278207860887e-05,0.000000000000000000e+00
2.092907428741455078e-01,1.970523529052734375e+02,4.521617126464843750e+01,4.521617126464843750e+01,-2.145362272858619690e-02,-5.813598632812500000e-02,-6.103516352595761418e-05,1.668932533264160156e+01,-1.659036241471767426e-02,-7.246716791087237652e-07,-1.946167945861816406e-01,-2.371975453570485115e-03,-7.102953077264828607e-06,2.113088266924023628e-03,-1.408640295267105103e-01,-3.235346451401710510e-02,1.000000000000000000e+00,-3.087616278207860887e-05,0.000000000000000000e+00
2.092907428741455078e-01,1.987201690673828125e+02,4.521483612060546875e+01,4.521483612060546875e+01,-1.043652836233377457e-02,-5.230712145566940308e-02,1.687224139459431171e-03,1.666897583007812500e+01,-1.046865247189998627e-02,-1.983311904041329399e-06,-2.727136313915252686e-01,8.204002678394317627e-02,-1.686765062913764268e-05,-1.370378956198692322e-02,-8.942716568708419800e-02,1.126796901226043701e-01,1.000000000000000000e+00,9.039251017384231091e-04,0.000000000000000000e+00
2.839093208312988281e-01,1.987201690673828125e+02,4.521483612060546875e+01,4.521483612060546875e+01,-1.043652836233377457e-02,-5.230712145566940308e-02,1.687224139459431171e-03,1.666897583007812500e+01,-1.046865247189998627e-02,-1.983311904041329399e-06,-2.727136313915252686e-01,8.204002678394317627e-02,-1.686765062913764268e-05,-1.370378956198692322e-02,-8.942716568708419800e-02,1.126796901226043701e-01,1.000000000000000000e+00,9.039251017384231091e-04,0.000000000000000000e+00
2.839093208312988281e-01,1.987201690673828125e+02,4.521483612060546875e+01,4.521483612060546875e+01,-1.043652836233377457e-02,-5.230712145566940308e-02,1.687224139459431171e-03,1.666897583007812500e+01,-1.046865247189998627e-02,-1.983311904041329399e-06,-2.727136313915252686e-01,8.204002678394317627e-02,-1.686765062913764268e-05,-1.370378956198692322e-02,-8.942716568708419800e-02,1.126796901226043701e-01,1.000000000000000000e+00,9.039251017384231091e-04,0.000000000000000000e+00
2.839093208312988281e-01,1.987201690673828125e+02,4.521483612060546875e+01,4.521483612060546875e+01,-1.043652836233377457e-02,-5.230712145566940308e-02,1.687224139459431171e-03,1.666897583007812500e+01,-1.046865247189998627e-02,-1.983311904041329399e-06,-2.727136313915252686e-01,8.204002678394317627e-02,-1.686765062913764268e-05,-1.370378956198692322e-02,-8.942716568708419800e-02,1.126796901226043701e-01,1.000000000000000000e+00,9.039251017384231091e-04,0.000000000000000000e+00
2.839093208312988281e-01,1.987201690673828125e+02,4.521483612060546875e+01,4.521483612060546875e+01,-1.043652836233377457e-02,-5.230712145566940308e-02,1.687224139459431171e-03,1.666897583007812500e+01,-1.046865247189998627e-02,-1.983311904041329399e-06,-2.727136313915252686e-01,8.204002678394317627e-02,-1.686765062913764268e-05,-1.370378956198692322e-02,-8.942716568708419800e-02,1.126796901226043701e-01,1.000000000000000000e+00,9.039251017384231091e-04,0.000000000000000000e+00
3.569011688232421875e-01,1.999652557373046875e+02,4.521417999267578125e+01,4.521417999267578125e+01,-8.913395926356315613e-03,-3.768920898437500000e-02,3.193078562617301941e-03,1.670675468444824219e+01,-4.506021272391080856e-03,-7.532902941420616116e-07,5.175763368606567383e-01,8.168900012969970703e-02,1.685149254626594484e-05,-1.896156184375286102e-02,3.575934097170829773e-02,2.468337118625640869e-01,1.000000000000000000e+00,1.377649023197591305e-03,0.000000000000000000e+00
3.569011688232421875e-01,1.999652557373046875e+02,4.521417999267578125e+01,4.521417999267578125e+01,-8.913395926356315613e-03,-3.768920898437500000e-02,3.193078562617301941e-03,1.670675468444824219e+01,-4.506021272391080856e-03,-7.532902941420616116e-07,5.175763368606567383e-01,8.168900012969970703e-02,1.685149254626594484e-05,-1.896156184375286102e-02,3.575934097170829773e-02,2.468337118625640869e-01,1.000000000000000000e+00,1.377649023197591305e-03,0.000000000000000000e+00
3.569011688232421875e-01,1.999652557373046875e+02,4.521417999267578125e+01,4.521417999267578125e+01,-8.913395926356315613e-03,-3.768920898437500000e-02,3.193078562617301941e-03,1.670675468444824219e+01,-4.506021272391080856e-03,-7.532902941420616116e-07,5.175763368606567383e-01,8.168900012969970703e-02,1.685149254626594484e-05,-1.896156184375286102e-02,3.575934097170829773e-02,2.468337118625640869e-01,1.000000000000000000e+00,1.377649023197591305e-03,0.000000000000000000e+00
3.569011688232421875e-01,1.999652557373046875e+02,4.521417999267578125e+01,4.521417999267578125e+01,-8.913395926356315613e-03,-3.768920898437500000e-02,3.193078562617301941e-03,1.670675468444824219e+01,-4.506021272391080856e-03,-7.532902941420616116e-07,5.175763368606567383e-01,8.168900012969970703e-02,1.685149254626594484e-05,-1.896156184375286102e-02,3.575934097170829773e-02,2.468337118625640869e-01,1.000000000000000000e+00,1.377649023197591305e-03,0.000000000000000000e+00
4.765405654907226562e-01,2.011872100830078125e+02,4.521439743041992188e+01,4.521439743041992188e+01,-1.559332106262445450e-02,-1.708984375000000000e-03,8.593241684138774872e-03,1.676563644409179688e+01,1.582627743482589722e-02,-1.792646003195841331e-06,4.921602904796600342e-01,1.699465215206146240e-01,-8.687404260854236782e-06,-7.198558002710342407e-02,1.213315278291702271e-01,6.369202733039855957e-01,1.000000000000000000e+00,4.005641676485538483e-03,0.000000000000000000e+00
4.765405654907226562e-01,2.011872100830078125e+02,4.521439743041992188e+01,4.521439743041992188e+01,-1.559332106262445450e-02,-1.708984375000000000e-03,8.593241684138774872e-03,1.676563644409179688e+01,1.582627743482589722e-02,-1.792646003195841331e-06,4.921602904796600342e-01,1.699465215206146240e-01,-8.687404260854236782e-06,-7.198558002710342407e-02,1.213315278291702271e-01,6.369202733039855957e-01,1.000000000000000000e+00,4.005641676485538483e-03,0.000000000000000000e+00
4.765405654907226562e-01,2.011872100830078125e+02,4.521439743041992188e+01,4.521439743041992188e+01,-1.559332106262445450e-02,-1.708984375000000000e-03,8.593241684138774872e-03,1.676563644409179688e+01,1.582627743482589722e-02,-1.792646003195841331e-06,4.921602904796600342e-01,1.699465215206146240e-01,-8.687404260854236782e-06,-7.198558002710342407e-02,1.213315278291702271e-01,6.369202733039855957e-01,1.000000000000000000e+00,4.005641676485538483e-03,0.000000000000000000e+00
4.765405654907226562e-01,2.011872100830078125e+02,4.521439743041992188e+01,4.521439743041992188e+01,-1.559332106262445450e-02,-1.708984375000000000e-03,8.593241684138774872e-03,1.676563644409179688e+01,1.582627743482589722e-02,-1.792646003195841331e-06,4.921602904796600342e-01,1.699465215206146240e-01,-8.687404260854236782e-06,-7.198558002710342407e-02,1.213315278291702271e-01,6.369202733039855957e-01,1.000000000000000000e+00,4.005641676485538483e-03,0.000000000000000000e+00
4.765405654907226562e-01,2.011872100830078125e+02,4.521439743041992188e+01,4.521439743041992188e+01,-1.559332106262445450e-02,-1.708984375000000000e-03,8.593241684138774872e-03,1.676563644409179688e+01,1.582627743482589722e-02,-1.792646003195841331e-06,4.921602904796600342e-01,1.699465215206146240e-01,-8.687404260854236782e-06,-7.198558002710342407e-02,1.213315278291702271e-01,6.369202733039855957e-01,1.000000000000000000e+00,4.005641676485538483e-03,0.000000000000000000e+00
4.765405654907226562e-01,2.011872100830078125e+02,4.521439743041992188e+01,4.521439743041992188e+01,-1.559332106262445450e-02,-1.708984375000000000e-03,8.593241684138774872e-03,1.676563644409179688e+01,1.582627743482589722e-02,-1.792646003195841331e-06,4.921602904796600342e-01,1.699465215206146240e-01,-8.687404260854236782e-06,-7.198558002710342407e-02,1.213315278291702271e-01,6.369202733039855957e-01,1.000000000000000000e+00,4.005641676485538483e-03,0.000000000000000000e+00
4.765405654907226562e-01,2.011872100830078125e+02,4.521439743041992188e+01,4.521439743041992188e+01,-1.559332106262445450e-02,-1.708984375000000000e-03,8.593241684138774872e-03,1.676563644409179688e+01,1.582627743482589722e-02,-1.792646003195841331e-06,4.921602904796600342e-01,1.699465215206146240e-01,-8.687404260854236782e-06,-7.198558002710342407e-02,1.213315278291702271e-01,6.369202733039855957e-01,1.000000000000000000e+00,4.005641676485538483e-03,0.000000000000000000e+00
6.200885772705078125e-01,2.028688507080078125e+02,4.521744155883789062e+01,4.521744155883789062e+01,-3.085196204483509064e-02,1.076083406805992126e-01,1.972460560500621796e-02,1.685466957092285156e+01,5.871487036347389221e-02,-1.334921506668251823e-07,6.202324032783508301e-01,2.987752556800842285e-01,1.155818154074950144e-05,-9.139610081911087036e-02,1.629813611507415771e-01,1.366653442382812500e+00,1.000000000000000000e+00,6.659789010882377625e-03,0.000000000000000000e+00
6.200885772705078125e-01,2.028688507080078125e+02,4.521744155883789062e+01,4.521744155883789062e+01,-3.085196204483509064e-02,1.076083406805992126e-01,1.972460560500621796e-02,1.685466957092285156e+01,5.871487036347389221e-02,-1.334921506668251823e-07,6.202324032783508301e-01,2.987752556800842285e-01,1.155818154074950144e-05,-9.139610081911087036e-02,1.629813611507415771e-01,1.366653442382812500e+00,1.000000000000000000e+00,6.659789010882377625e-03,0.000000000000000000e+00
6.200885772705078125e-01,2.028688507080078125e+02,4.521744155883789062e+01,4.521744155883789062e+01,-3.085196204483509064e-02,1.076083406805992126e-01,1.972460560500621796e-02,1.685466957092285156e+01,5.871487036347389221e-02,-1.334921506668251823e-07,6.202324032783508301e-01,2.987752556800842285e-01,1.155818154074950144e-05,-9.139610081911087036e-02,1.629813611507415771e-01,1.366653442382812500e+00,1.000000000000000000e+00,6.659789010882377625e-03,0.000000000000000000e+00
6.200885772705078125e-01,2.028688507080078125e+02,4.521744155883789062e+01,4.521744155883789062e+01,-3.085196204483509064e-02,1.076083406805992126e-01,1.972460560500621796e-02,1.685466957092285156e+01,5.871487036347389221e-02,-1.334921506668251823e-07,6.202324032783508301e-01,2.987752556800842285e-01,1.155818154074950144e-05,-9.139610081911087036e-02,1.629813611507415771e-01,1.366653442382812500e+00,1.000000000000000000e+00,6.659789010882377625e-03,0.000000000000000000e+00
6.200885772705078125e-01,2.028688507080078125e+02,4.521744155883789062e+01,4.521744155883789062e+01,-3.085196204483509064e-02,1.076083406805992126e-01,1.972460560500621796e-02,1.685466957092285156e+01,5.871487036347389221e-02,-1.334921506668251823e-07,6.202324032783508301e-01,2.987752556800842285e-01,1.155818154074950144e-05,-9.139610081911087036e-02,1.629813611507415771e-01,1.366653442382812500e+00,1.000000000000000000e+00,6.659789010882377625e-03,0.000000000000000000e+00
6.200885772705078125e-01,2.028688507080078125e+02,4.521744155883789062e+01,4.521744155883789062e+01,-3.085196204483509064e-02,1.076083406805992126e-01,1.972460560500621796e-02,1.685466957092285156e+01,5.871487036347389221e-02,-1.334921506668251823e-07,6.202324032783508301e-01,2.987752556800842285e-01,1.155818154074950144e-05,-9.139610081911087036e-02,1.629813611507415771e-01,1.366653442382812500e+00,1.000000000000000000e+00,6.659789010882377625e-03,0.000000000000000000e+00
7.946169376373291016e-01,2.045597839355468750e+02,4.522486114501953125e+01,4.522486114501953125e+01,-4.677996411919593811e-02,2.915762066841125488e-01,3.209960460662841797e-02,1.694966125488281250e+01,1.165257841348648071e-01,-8.772341288931784220e-07,5.442764759063720703e-01,3.312408030033111572e-01,-4.261438789399107918e-06,-1.114594563841819763e-01,1.518589556217193604e-01,2.123752117156982422e+00,1.000000000000000000e+00,8.880805224180221558e-03,0.000000000000000000e+00
7.946169376373291016e-01,2.045597839355468750e+02,4.522486114501953125e+01,4.522486114501953125e+01,-4.677996411919593811e-02,2.915762066841125488e-01,3.209960460662841797e-02,1.694966125488281250e+01,1.165257841348648071e-01,-8.772341288931784220e-07,5.442764759063720703e-01,3.312408030033111572e-01,-4.261438789399107918e-06,-1.114594563841819763e-01,1.518589556217193604e-01,2.123752117156982422e+00,1.000000000000000000e+00,8.880805224180221558e-03,0.000000000000000000e+00
7.946169376373291016e-01,2.045597839355468750e+02,4.522486114501953125e+01,4.522486114501953125e+01,-4.677996411919593811e-02,2.915762066841125488e-01,3.209960460662841797e-02,1.694966125488281250e+01,1.165257841348648071e-01,-8.772341288931784220e-07,5.442764759063720703e-01,3.312408030033111572e-01,-4.261438789399107918e-06,-1.114594563841819763e-01,1.518589556217193604e-01,2.123752117156982422e+00,1.000000000000000000e+00,8.880805224180221558e-03,0.000000000000000000e+00
8.783230781555175781e-01,2.062604827880859375e+02,4.523807144165039062e+01,4.523807144165039062e+01,-6.030373647809028625e-02,5.430542230606079102e-01,4.471504688262939453e-02,1.704798316955566406e+01,1.867678761482238770e-01,-1.506554212937771808e-06,1.174608230590820312e+00,8.391510248184204102e-01,-7.518206984968855977e-06,-1.201361119747161865e-01,1.204425990581512451e-01,2.750376462936401367e+00,1.000000000000000000e+00,1.006635557860136032e-02,0.000000000000000000e+00
8.783230781555175781e-01,2.062604827880859375e+02,4.523807144165039062e+01,4.523807144165039062e+01,-6.030373647809028625e-02,5.430542230606079102e-01,4.471504688262939453e-02,1.704798316955566406e+01,1.867678761482238770e-01,-1.506554212937771808e-06,1.174608230590820312e+00,8.391510248184204102e-01,-7.518206984968855977e-06,-1.201361119747161865e-01,1.204425990581512451e-01,2.750376462936401367e+00,1.000000000000000000e+00,1.006635557860136032e-02,0.000000000000000000e+00
8.783230781555175781e-01,2.062604827880859375e+02,4.523807144165039062e+01,4.523807144165039062e+01,-6.030373647809028625e-02,5.430542230606079102e-01,4.471504688262939453e-02,1.704798316955566406e+01,1.867678761482238770e-01,-1.506554212937771808e-06,1.174608230590820312e+00,8.391510248184204102e-01,-7.518206984968855977e-06,-1.201361119747161865e-01,1.204425990581512451e-01,2.750376462936401367e+00,1.000000000000000000e+00,1.006635557860136032e-02,0.000000000000000000e+00
9.483780860900878906e-01,2.076915893554687500e+02,4.525427627563476562e+01,4.525427627563476562e+01,-6.890977174043655396e-02,7.875814437866210938e-01,5.326312780380249023e-02,1.713177871704101562e+01,2.491122633218765259e-01,-1.039359858623356558e-06,1.196139335632324219e+00,8.899347782135009766e-01,6.668964488198980689e-06,-1.056927144527435303e-01,9.007600694894790649e-02,3.028028249740600586e+00,1.000000000000000000e+00,9.653847664594650269e-03,0.000000000000000000e+00
9.483780860900878906e-01,2.076915893554687500e+02,4.525427627563476562e+01,4.525427627563476562e+01,-6.890977174043655396e-02,7.875814437866210938e-01,5.326312780380249023e-02,1.713177871704101562e+01,2.491122633218765259e-01,-1.039359858623356558e-06,1.196139335632324219e+00,8.899347782135009766e-01,6.668964488198980689e-06,-1.056927144527435303e-01,9.007600694894790649e-02,3.028028249740600586e+00,1.000000000000000000e+00,9.653847664594650269e-03,0.000000000000000000e+00
9.483780860900878906e-01,2.076915893554687500e+02,4.525427627563476562e+01,4.525427627563476562e+01,-6.890977174043655396e-02,7.875814437866210938e-01,5.326312780380249023e-02,1.713177871704101562e+01,2.491122633218765259e-01,-1.039359858623356558e-06,1.196139335632324219e+00,8.899347782135009766e-01,6.668964488198980689e-06,-1.056927144527435303e-01,9.007600694894790649e-02,3.028028249740600586e+00,1.000000000000000000e+00,9.653847664594650269e-03,0.000000000000000000e+00
9.483780860900878906e-01,2.076915893554687500e+02,4.525427627563476562e+01,4.525427627563476562e+01,-6.890977174043655396e-02,7.875814437866210938e-01,5.326312780380249023e-02,1.713177871704101562e+01,2.491122633218765259e-01,-1.039359858623356558e-06,1.196139335632324219e+00,8.899347782135009766e-01,6.668964488198980689e-06,-1.056927144527435303e-01,9.007600694894790649e-02,3.028028249740600586e+00,1.000000000000000000e+00,9.653847664594650269e-03,0.000000000000000000e+00
9.483780860900878906e-01,2.088948059082031250e+02,4.527114486694335938e+01,4.527114486694335938e+01,-7.442856580018997192e-02,9.850626587867736816e-01,5.382908135652542114e-02,1.720306396484375000e+01,2.829369008541107178e-01,-1.201461259370262269e-06,9.046464562416076660e-01,4.292520582675933838e-01,-2.057150140899466351e-06,-8.774962276220321655e-03,7.045762985944747925e-02,2.696704626083374023e+00,1.000000000000000000e+00,5.109405610710382462e-03,0.000000000000000000e+00
1.027177095413208008e+00,2.088948059082031250e+02,4.527114486694335938e+01,4.527114486694335938e+01,-7.442856580018997192e-02,9.850626587867736816e-01,5.382908135652542114e-02,1.720306396484375000e+01,2.829369008541107178e-01,-1.201461259370262269e-06,9.046464562416076660e-01,4.292520582675933838e-01,-2.057150140899466351e-06,-8.774962276220321655e-03,7.045762985944747925e-02,2.696704626083374023e+00,1.000000000000000000e+00,5.109405610710382462e-03,0.000000000000000000e+00
1.027177095413208008e+00,2.088948059082031250e+02,4.527114486694335938e+01,4.527114486694335938e+01,-7.442856580018997192e-02,9.850626587867736816e-01,5.382908135652542114e-02,1.720306396484375000e+01,2.829369008541107178e-01,-1.201461259370262269e-06,9.046464562416076660e-01,4.292520582675933838e-01,-2.057150140899466351e-06,-8.774962276220321655e-03,7.045762985944747925e-02,2.696704626083374023e+00,1.000000000000000000e+00,5.109405610710382462e-03,0.000000000000000000e+00
1.095043420791625977e+00,2.102542266845703125e+02,4.529239654541015625e+01,4.529239654541015625e+01,-7.903894782066345215e-02,1.147703170776367188e+00,4.573800787329673767e-02,1.728412437438964844e+01,2.966169416904449463e-01,-1.125158405557158403e-06,1.194412827491760254e+00,2.015733271837234497e-01,1.124310983868781477e-06,8.004135638475418091e-02,5.198044329881668091e-02,1.697253227233886719e+00,1.000000000000000000e+00,-1.094346400350332260e-03,0.000000000000000000e+00
1.095043420791625977e+00,2.102542266845703125e+02,4.529239654541015625e+01,4.529239654541015625e+01,-7.903894782066345215e-02,1.147703170776367188e+00,4.573800787329673767e-02,1.728412437438964844e+01,2.966169416904449463e-01,-1.125158405557158403e-06,1.194412827491760254e+00,2.015733271837234497e-01,1.124310983868781477e-06,8.004135638475418091e-02,5.198044329881668091e-02,1.697253227233886719e+00,1.000000000000000000e+00,-1.094346400350332260e-03,0.000000000000000000e+00
1.095043420791625977e+00,2.102542266845703125e+02,4.529239654541015625e+01,4.529239654541015625e+01,-7.903894782066345215e-02,1.147703170776367188e+00,4.573800787329673767e-02,1.728412437438964844e+01,2.966169416904449463e-01,-1.125158405557158403e-06,1.194412827491760254e+00,2.015733271837234497e-01,1.124310983868781477e-06,8.004135638475418091e-02,5.198044329881668091e-02,1.697253227233886719e+00,1.000000000000000000e+00,-1.094346400350332260e-03,0.000000000000000000e+00
1.095043420791625977e+00,2.102542266845703125e+02,4.529239654541015625e+01,4.529239654541015625e+01,-7.903894782066345215e-02,1.147703170776367188e+00,4.573800787329673767e-02,1.728412437438964844e+01,2.966169416904449463e-01,-1.125158405557158403e-06,1.194412827491760254e+00,2.015733271837234497e-01,1.124310983868781477e-06,8.004135638475418091e-02,5.198044329881668091e-02,1.697253227233886719e+00,1.000000000000000000e+00,-1.094346400350332260e-03,0.000000000000000000e+00
1.168572425842285156e+00,2.114300994873046875e+02,4.531201171875000000e+01,4.531201171875000000e+01,-8.178468048572540283e-02,1.222109317779541016e+00,3.774223104119300842e-02,1.735423469543457031e+01,3.020442128181457520e-01,2.450610281812259927e-06,9.535056352615356445e-01,7.381129264831542969e-02,4.863072172156535089e-05,1.052794009447097778e-01,3.725171834230422974e-02,7.398927211761474609e-01,1.000000000000000000e+00,-4.604871850460767746e-03,0.000000000000000000e+00
1.168572425842285156e+00,2.114300994873046875e+02,4.531201171875000000e+01,4.531201171875000000e+01,-8.178468048572540283e-02,1.222109317779541016e+00,3.774223104119300842e-02,1.735423469543457031e+01,3.020442128181457520e-01,2.450610281812259927e-06,9.535056352615356445e-01,7.381129264831542969e-02,4.863072172156535089e-05,1.052794009447097778e-01,3.725171834230422974e-02,7.398927211761474609e-01,1.000000000000000000e+00,-4.604871850460767746e-03,0.000000000000000000e+00
1.168572425842285156e+00,2.114300994873046875e+02,4.531201171875000000e+01,4.531201171875000000e+01,-8.178468048572540283e-02,1.222109317779541016e+00,3.774223104119300842e-02,1.735423469543457031e+01,3.020442128181457520e-01,2.450610281812259927e-06,9.535056352615356445e-01,7.381129264831542969e-02,4.863072172156535089e-05,1.052794009447097778e-01,3.725171834230422974e-02,7.398927211761474609e-01,1.000000000000000000e+00,-4.604871850460767746e-03,0.000000000000000000e+00
1.168572425842285156e+00,2.114300994873046875e+02,4.531201171875000000e+01,4.531201171875000000e+01,-8.178468048572540283e-02,1.222109317779541016e+00,3.774223104119300842e-02,1.735423469543457031e+01,3.020442128181457520e-01,2.450610281812259927e-06,9.535056352615356445e-01,7.381129264831542969e-02,4.863072172156535089e-05,1.052794009447097778e-01,3.725171834230422974e-02,7.398927211761474609e-01,1.000000000000000000e+00,-4.604871850460767746e-03,0.000000000000000000e+00
1.168572425842285156e+00,2.127094879150390625e+02,4.533333969116210938e+01,4.533333969116210938e+01,-8.376543223857879639e-02,1.211601376533508301e+00,2.208956517279148102e-02,1.743051147460937500e+01,2.794641852378845215e-01,5.911911102884914726e-07,1.016367197036743164e+00,-3.008726835250854492e-01,-2.477625093888491392e-05,1.996377259492874146e-01,2.675948850810527802e-02,-6.623944044113159180e-01,1.000000000000000000e+00,-1.057208981364965439e-02,0.000000000000000000e+00
1.243620872497558594e+00,2.127094879150390625e+02,4.533333969116210938e+01,4.533333969116210938e+01,-8.376543223857879639e-02,1.211601376533508301e+00,2.208956517279148102e-02,1.743051147460937500e+01,2.794641852378845215e-01,5.911911102884914726e-07,1.016367197036743164e+00,-3.008726835250854492e-01,-2.477625093888491392e-05,1.996377259492874146e-01,2.675948850810527802e-02,-6.623944044113159180e-01,1.000000000000000000e+00,-1.057208981364965439e-02,0.000000000000000000e+00
1.243620872497558594e+00,2.127094879150390625e+02,4.533333969116210938e+01,4.533333969116210938e+01,-8.376543223857879639e-02,1.211601376533508301e+00,2.208956517279148102e-02,1.743051147460937500e+01,2.794641852378845215e-01,5.911911102884914726e-07,1.016367197036743164e+00,-3.008726835250854492e-01,-2.477625093888491392e-05,1.996377259492874146e-01,2.675948850810527802e-02,-6.623944044113159180e-01,1.000000000000000000e+00,-1.057208981364965439e-02,0.000000000000000000e+00
1.243620872497558594e+00,2.140210723876953125e+02,4.535366439819335938e+01,4.535366439819335938e+01,-8.502902090549468994e-02,1.093901634216308594e+00,2.993668895214796066e-03,1.750841522216796875e+01,2.379156649112701416e-01,2.336151283088838682e-06,1.138576149940490723e+00,-6.072385311126708984e-01,2.550288263591937721e-05,2.387369275093078613e-01,1.742953993380069733e-02,-2.100996255874633789e+00,1.000000000000000000e+00,-1.453218795359134674e-02,0.000000000000000000e+00
1.312042951583862305e+00,2.140210723876953125e+02,4.535366439819335938e+01,4.535366439819335938e+01,-8.502902090549468994e-02,1.093901634216308594e+00,2.993668895214796066e-03,1.750841522216796875e+01,2.379156649112701416e-01,2.336151283088838682e-06,1.138576149940490723e+00,-6.072385311126708984e-01,2.550288263591937721e-05,2.387369275093078613e-01,1.742953993380069733e-02,-2.100996255874633789e+00,1.000000000000000000e+00,-1.453218795359134674e-02,0.000000000000000000e+00
1.312042951583862305e+00,2.140210723876953125e+02,4.535366439819335938e+01,4.535366439819335938e+01,-8.502902090549468994e-02,1.093901634216308594e+00,2.993668895214796066e-03,1.750841522216796875e+01,2.379156649112701416e-01,2.336151283088838682e-06,1.138576149940490723e+00,-6.072385311126708984e-01,2.550288263591937721e-05,2.387369275093078613e-01,1.742953993380069733e-02,-2.100996255874633789e+00,1.000000000000000000e+00,-1.453218795359134674e-02,0.000000000000000000e+00
1.383129358291625977e+00,2.152218627929687500e+02,4.536974334716796875e+01,4.536974334716796875e+01,-8.560275286436080933e-02,8.991650342941284180e-01,-1.547241024672985077e-02,1.757931709289550781e+01,1.839747726917266846e-01,8.772602768658543937e-07,9.974040389060974121e-01,-7.588073611259460449e-01,-2.052278432529419661e-05,2.676485776901245117e-01,1.075194682925939560e-02,-3.289984464645385742e+00,1.000000000000000000e+00,-1.715109497308731079e-02,0.000000000000000000e+00
1.383129358291625977e+00,2.152218627929687500e+02,4.536974334716796875e+01,4.536974334716796875e+01,-8.560275286436080933e-02,8.991650342941284180e-01,-1.547241024672985077e-02,1.757931709289550781e+01,1.839747726917266846e-01,8.772602768658543937e-07,9.974040389060974121e-01,-7.588073611259460449e-01,-2.052278432529419661e-05,2.676485776901245117e-01,1.075194682925939560e-02,-3.289984464645385742e+00,1.000000000000000000e+00,-1.715109497308731079e-02,0.000000000000000000e+00
1.383129358291625977e+00,2.152218627929687500e+02,4.536974334716796875e+01,4.536974334716796875e+01,-8.560275286436080933e-02,8.991650342941284180e-01,-1.547241024672985077e-02,1.757931709289550781e+01,1.839747726917266846e-01,8.772602768658543937e-07,9.974040389060974121e-01,-7.588073611259460449e-01,-2.052278432529419661e-05,2.676485776901245117e-01,1.075194682925939560e-02,-3.289984464645385742e+00,1.000000000000000000e+00,-1.715109497308731079e-02,0.000000000000000000e+00
1.450951814651489258e+00,2.164745635986328125e+02,4.538257217407226562e+01,4.538257217407226562e+01,-8.587596565485000610e-02,6.165009737014770508e-01,-3.680419176816940308e-02,1.765259742736816406e+01,1.098581030964851379e-01,1.067963353307277430e-06,1.080473065376281738e+00,-1.092804312705993652e+00,2.811798367474693805e-06,2.945832908153533936e-01,5.296170245856046677e-03,-4.383899211883544922e+00,1.000000000000000000e+00,-1.915456540882587433e-02,0.000000000000000000e+00
1.450951814651489258e+00,2.164745635986328125e+02,4.538257217407226562e+01,4.538257217407226562e+01,-8.587596565485000610e-02,6.165009737014770508e-01,-3.680419176816940308e-02,1.765259742736816406e+01,1.098581030964851379e-01,1.067963353307277430e-06,1.080473065376281738e+00,-1.092804312705993652e+00,2.811798367474693805e-06,2.945832908153533936e-01,5.296170245856046677e-03,-4.383899211883544922e+00,1.000000000000000000e+00,-1.915456540882587433e-02,0.000000000000000000e+00
1.450951814651489258e+00,2.164745635986328125e+02,4.538257217407226562e+01,4.538257217407226562e+01,-8.587596565485000610e-02,6.165009737014770508e-01,-3.680419176816940308e-02,1.765259742736816406e+01,1.098581030964851379e-01,1.067963353307277430e-06,1.080473065376281738e+00,-1.092804312705993652e+00,2.811798367474693805e-06,2.945832908153533936e-01,5.296170245856046677e-03,-4.383899211883544922e+00,1.000000000000000000e+00,-1.915456540882587433e-02,0.000000000000000000e+00
1.527701377868652344e+00,2.176745910644531250e+02,4.539075469970703125e+01,4.539075469970703125e+01,-8.593743294477462769e-02,3.041681945323944092e-01,-5.062865465879440308e-02,1.772253608703613281e+01,4.906506836414337158e-02,-1.420781927663483657e-06,9.112581014633178711e-01,-7.920961976051330566e-01,-3.242683669668622315e-05,1.991512030363082886e-01,1.418075058609247208e-03,-4.738499164581298828e+00,1.000000000000000000e+00,-1.540476921945810318e-02,0.000000000000000000e+00
1.527701377868652344e+00,2.176745910644531250e+02,4.539075469970703125e+01,4.539075469970703125e+01,-8.593743294477462769e-02,3.041681945323944092e-01,-5.062865465879440308e-02,1.772253608703613281e+01,4.906506836414337158e-02,-1.420781927663483657e-06,9.112581014633178711e-01,-7.920961976051330566e-01,-3.242683669668622315e-05,1.991512030363082886e-01,1.418075058609247208e-03,-4.738499164581298828e+00,1.000000000000000000e+00,-1.540476921945810318e-02,0.000000000000000000e+00
1.527701377868652344e+00,2.176745910644531250e+02,4.539075469970703125e+01,4.539075469970703125e+01,-8.593743294477462769e-02,3.041681945323944092e-01,-5.062865465879440308e-02,1.772253608703613281e+01,4.906506836414337158e-02,-1.420781927663483657e-06,9.112581014633178711e-01,-7.920961976051330566e-01,-3.242683669668622315e-05,1.991512030363082886e-01,1.418075058609247208e-03,-4.738499164581298828e+00,1.000000000000000000e+00,-1.540476921945810318e-02,0.000000000000000000e+00
1.600134611129760742e+00,2.190383758544921875e+02,4.539546203613281250e+01,4.539546203613281250e+01,-8.590328693389892578e-02,-4.318237304687500000e-02,-5.886840447783470154e-02,1.780155372619628906e+01,-8.842014707624912262e-03,-8.486398996865318622e-07,1.090903162956237793e+00,-7.994546294212341309e-01,7.898888725321739912e-06,1.197818890213966370e-01,-4.631394112948328257e-04,-4.403520584106445312e+00,1.000000000000000000e+00,-1.003495324403047562e-02,0.000000000000000000e+00
1.600134611129760742e+00,2.190383758544921875e+02,4.539546203613281250e+01,4.539546203613281250e+01,-8.590328693389892578e-02,-4.318237304687500000e-02,-5.886840447783470154e-02,1.780155372619628906e+01,-8.842014707624912262e-03,-8.486398996865318622e-07,1.090903162956237793e+00,-7.994546294212341309e-01,7.898888725321739912e-06,1.197818890213966370e-01,-4.631394112948328257e-04,-4.403520584106445312e+00,1.000000000000000000e+00,-1.003495324403047562e-02,0.000000000000000000e+00
1.600134611129760742e+00,2.190383758544921875e+02,4.539546203613281250e+01,4.539546203613281250e+01,-8.590328693389892578e-02,-4.318237304687500000e-02,-5.886840447783470154e-02,1.780155372619628906e+01,-8.842014707624912262e-03,-8.486398996865318622e-07,1.090903162956237793e+00,-7.994546294212341309e-01,7.898888725321739912e-06,1.197818890213966370e-01,-4.631394112948328257e-04,-4.403520584106445312e+00,1.000000000000000000e+00,-1.003495324403047562e-02,0.000000000000000000e+00
1.600134611129760742e+00,2.190383758544921875e+02,4.539546203613281250e+01,4.539546203613281250e+01,-8.590328693389892578e-02,-4.318237304687500000e-02,-5.886840447783470154e-02,1.780155372619628906e+01,-8.842014707624912262e-03,-8.486398996865318622e-07,1.090903162956237793e+00,-7.994546294212341309e-01,7.898888725321739912e-06,1.197818890213966370e-01,-4.631394112948328257e-04,-4.403520584106445312e+00,1.000000000000000000e+00,-1.003495324403047562e-02,0.000000000000000000e+00
1.600134611129760742e+00,2.190383758544921875e+02,4.539546203613281250e+01,4.539546203613281250e+01,-8.590328693389892578e-02,-4.318237304687500000e-02,-5.886840447783470154e-02,1.780155372619628906e+01,-8.842014707624912262e-03,-8.486398996865318622e-07,1.090903162956237793e+00,-7.994546294212341309e-01,7.898888725321739912e-06,1.197818890213966370e-01,-4.631394112948328257e-04,-4.403520584106445312e+00,1.000000000000000000e+00,-1.003495324403047562e-02,0.000000000000000000e+00
1.600134611129760742e+00,2.203310089111328125e+02,4.539525604248046875e+01,4.539525604248046875e+01,-8.587596565485000610e-02,-3.368530273437500000e-01,-6.500243395566940308e-02,1.787567710876464844e+01,-6.785590201616287231e-02,-2.021496811721590348e-06,6.424347162246704102e-01,-5.114791989326477051e-01,-1.016526675812201574e-05,1.000681743025779724e-01,-1.450737472623586655e-03,-3.849224567413330078e+00,1.000000000000000000e+00,-6.943385116755962372e-03,0.000000000000000000e+00
1.715513467788696289e+00,2.203310089111328125e+02,4.539525604248046875e+01,4.539525604248046875e+01,-8.587596565485000610e-02,-3.368530273437500000e-01,-6.500243395566940308e-02,1.787567710876464844e+01,-6.785590201616287231e-02,-2.021496811721590348e-06,6.424347162246704102e-01,-5.114791989326477051e-01,-1.016526675812201574e-05,1.000681743025779724e-01,-1.450737472623586655e-03,-3.849224567413330078e+00,1.000000000000000000e+00,-6.943385116755962372e-03,0.000000000000000000e+00
1.715513467788696289e+00,2.203310089111328125e+02,4.539525604248046875e+01,4.539525604248046875e+01,-8.587596565485000610e-02,-3.368530273437500000e-01,-6.500243395566940308e-02,1.787567710876464844e+01,-6.785590201616287231e-02,-2.021496811721590348e-06,6.424347162246704102e-01,-5.114791989326477051e-01,-1.016526675812201574e-05,1.000681743025779724e-01,-1.450737472623586655e-03,-3.849224567413330078e+00,1.000000000000000000e+00,-6.943385116755962372e-03,0.000000000000000000e+00
1.715513467788696289e+00,2.221245422363281250e+02,4.538879394531250000e+01,4.538879394531250000e+01,-8.578716963529586792e-02,-6.239319443702697754e-01,-6.127928569912910461e-02,1.797786521911621094e+01,-1.150304451584815979e-01,6.674607675449806266e-07,1.046991586685180664e+00,-4.833375513553619385e-01,2.755032801360357553e-05,-1.196188014000654221e-02,-8.653638069517910480e-04,-2.281596183776855469e+00,1.000000000000000000e+00,3.808783658314496279e-04,0.000000000000000000e+00
1.813115119934082031e+00,2.221245422363281250e+02,4.538879394531250000e+01,4.538879394531250000e+01,-8.578716963529586792e-02,-6.239319443702697754e-01,-6.127928569912910461e-02,1.797786521911621094e+01,-1.150304451584815979e-01,6.674607675449806266e-07,1.046991586685180664e+00,-4.833375513553619385e-01,2.755032801360357553e-05,-1.196188014000654221e-02,-8.653638069517910480e-04,-2.281596183776855469e+00,1.000000000000000000e+00,3.808783658314496279e-04,0.000000000000000000e+00
1.813115119934082031e+00,2.221245422363281250e+02,4.538879394531250000e+01,4.538879394531250000e+01,-8.578716963529586792e-02,-6.239319443702697754e-01,-6.127928569912910461e-02,1.797786521911621094e+01,-1.150304451584815979e-01,6.674607675449806266e-07,1.046991586685180664e+00,-4.833375513553619385e-01,2.755032801360357553e-05,-1.196188014000654221e-02,-8.653638069517910480e-04,-2.281596183776855469e+00,1.000000000000000000e+00,3.808783658314496279e-04,0.000000000000000000e+00
1.813115119934082031e+00,2.221245422363281250e+02,4.538879394531250000e+01,4.538879394531250000e+01,-8.578716963529586792e-02,-6.239319443702697754e-01,-6.127928569912910461e-02,1.797786521911621094e+01,-1.150304451584815979e-01,6.674607675449806266e-07,1.046991586685180664e+00,-4.833375513553619385e-01,2.755032801360357553e-05,-1.196188014000654221e-02,-8.653638069517910480e-04,-2.281596183776855469e+00,1.000000000000000000e+00,3.808783658314496279e-04,0.000000000000000000e+00
1.896134853363037109e+00,2.238848571777343750e+02,4.537819290161132812e+01,4.537819290161132812e+01,-8.566422760486602783e-02,-7.267456054687500000e-01,-4.629516601562500000e-02,1.807729148864746094e+01,-1.230491027235984802e-01,1.096547066481434740e-06,1.197622179985046387e+00,-9.658736735582351685e-02,5.168485586182214320e-06,-1.333576589822769165e-01,6.212561274878680706e-04,-3.071797490119934082e-01,1.000000000000000000e+00,7.612680550664663315e-03,0.000000000000000000e+00
1.896134853363037109e+00,2.238848571777343750e+02,4.537819290161132812e+01,4.537819290161132812e+01,-8.566422760486602783e-02,-7.267456054687500000e-01,-4.629516601562500000e-02,1.807729148864746094e+01,-1.230491027235984802e-01,1.096547066481434740e-06,1.197622179985046387e+00,-9.658736735582351685e-02,5.168485586182214320e-06,-1.333576589822769165e-01,6.212561274878680706e-04,-3.071797490119934082e-01,1.000000000000000000e+00,7.612680550664663315e-03,0.000000000000000000e+00
1.896134853363037109e+00,2.238848571777343750e+02,4.537819290161132812e+01,4.537819290161132812e+01,-8.566422760486602783e-02,-7.267456054687500000e-01,-4.629516601562500000e-02,1.807729148864746094e+01,-1.230491027235984802e-01,1.096547066481434740e-06,1.197622179985046387e+00,-9.658736735582351685e-02,5.168485586182214320e-06,-1.333576589822769165e-01,6.212561274878680706e-04,-3.071797490119934082e-01,1.000000000000000000e+00,7.612680550664663315e-03,0.000000000000000000e+00
1.896134853363037109e+00,2.238848571777343750e+02,4.537819290161132812e+01,4.537819290161132812e+01,-8.566422760486602783e-02,-7.267456054687500000e-01,-4.629516601562500000e-02,1.807729148864746094e+01,-1.230491027235984802e-01,1.096547066481434740e-06,1.197622179985046387e+00,-9.658736735582351685e-02,5.168485586182214320e-06,-1.333576589822769165e-01,6.212561274878680706e-04,-3.071797490119934082e-01,1.000000000000000000e+00,7.612680550664663315e-03,0.000000000000000000e+00
1.896134853363037109e+00,2.238848571777343750e+02,4.537819290161132812e+01,4.537819290161132812e+01,-8.566422760486602783e-02,-7.267456054687500000e-01,-4.629516601562500000e-02,1.807729148864746094e+01,-1.230491027235984802e-01,1.096547066481434740e-06,1.197622179985046387e+00,-9.658736735582351685e-02,5.168485586182214320e-06,-1.333576589822769165e-01,6.212561274878680706e-04,-3.071797490119934082e-01,1.000000000000000000e+00,7.612680550664663315e-03,0.000000000000000000e+00
1.896134853363037109e+00,2.238848571777343750e+02,4.537819290161132812e+01,4.537819290161132812e+01,-8.566422760486602783e-02,-7.267456054687500000e-01,-4.629516601562500000e-02,1.807729148864746094e+01,-1.230491027235984802e-01,1.096547066481434740e-06,1.197622179985046387e+00,-9.658736735582351685e-02,5.168485586182214320e-06,-1.333576589822769165e-01,6.212561274878680706e-04,-3.071797490119934082e-01,1.000000000000000000e+00,7.612680550664663315e-03,0.000000000000000000e+00
1.896134853363037109e+00,2.238848571777343750e+02,4.537819290161132812e+01,4.537819290161132812e+01,-8.566422760486602783e-02,-7.267456054687500000e-01,-4.629516601562500000e-02,1.807729148864746094e+01,-1.230491027235984802e-01,1.096547066481434740e-06,1.197622179985046387e+00,-9.658736735582351685e-02,5.168485586182214320e-06,-1.333576589822769165e-01,6.212561274878680706e-04,-3.071797490119934082e-01,1.000000000000000000e+00,7.612680550664663315e-03,0.000000000000000000e+00
1.896134853363037109e+00,2.238848571777343750e+02,4.537819290161132812e+01,4.537819290161132812e+01,-8.566422760486602783e-02,-7.267456054687500000e-01,-4.629516601562500000e-02,1.807729148864746094e+01,-1.230491027235984802e-01,1.096547066481434740e-06,1.197622179985046387e+00,-9.658736735582351685e-02,5.168485586182214320e-06,-1.333576589822769165e-01,6.212561274878680706e-04,-3.071797490119934082e-01,1.000000000000000000e+00,7.612680550664663315e-03,0.000000000000000000e+00
2.195794820785522461e+00,2.287988433837890625e+02,4.535363769531250000e+01,4.535363769531250000e+01,-6.039936095476150513e-02,-1.450805664062500000e-01,1.306936796754598618e-02,1.814742088317871094e+01,-6.088173948228359222e-03,1.821251771616516635e-06,-3.720512092113494873e-01,7.289794087409973145e-01,3.467705755610950291e-05,-1.757857203483581543e-01,-2.067242413759231567e-01,3.349179267883300781e+00,1.000000000000000000e+00,1.047212630510330200e-02,0.000000000000000000e+00
2.195794820785522461e+00,2.287988433837890625e+02,4.535363769531250000e+01,4.535363769531250000e+01,-6.039936095476150513e-02,-1.450805664062500000e-01,1.306936796754598618e-02,1.814742088317871094e+01,-6.088173948228359222e-03,1.821251771616516635e-06,-3.720512092113494873e-01,7.289794087409973145e-01,3.467705755610950291e-05,-1.757857203483581543e-01,-2.067242413759231567e-01,3.349179267883300781e+00,1.000000000000000000e+00,1.047212630510330200e-02,0.000000000000000000e+00
2.195794820785522461e+00,2.287988433837890625e+02,4.535363769531250000e+01,4.535363769531250000e+01,-6.039936095476150513e-02,-1.450805664062500000e-01,1.306936796754598618e-02,1.814742088317871094e+01,-6.088173948228359222e-03,1.821251771616516635e-06,-3.720512092113494873e-01,7.289794087409973145e-01,3.467705755610950291e-05,-1.757857203483581543e-01,-2.067242413759231567e-01,3.349179267883300781e+00,1.000000000000000000e+00,1.047212630510330200e-02,0.000000000000000000e+00
2.195794820785522461e+00,2.287988433837890625e+02,4.535363769531250000e+01,4.535363769531250000e+01,-6.039936095476150513e-02,-1.450805664062500000e-01,1.306936796754598618e-02,1.814742088317871094e+01,-6.088173948228359222e-03,1.821251771616516635e-06,-3.720512092113494873e-01,7.289794087409973145e-01,3.467705755610950291e-05,-1.757857203483581543e-01,-2.067242413759231567e-01,3.349179267883300781e+00,1.000000000000000000e+00,1.047212630510330200e-02,0.000000000000000000e+00
2.195794820785522461e+00,2.287988433837890625e+02,4.535363769531250000e+01,4.535363769531250000e+01,-6.039936095476150513e-02,-1.450805664062500000e-01,1.306936796754598618e-02,1.814742088317871094e+01,-6.088173948228359222e-03,1.821251771616516635e-06,-3.720512092113494873e-01,7.289794087409973145e-01,3.467705755610950291e-05,-1.757857203483581543e-01,-2.067242413759231567e-01,3.349179267883300781e+00,1.000000000000000000e+00,1.047212630510330200e-02,0.000000000000000000e+00
2.195794820785522461e+00,2.287988433837890625e+02,4.535363769531250000e+01,4.535363769531250000e+01,-6.039936095476150513e-02,-1.450805664062500000e-01,1.306936796754598618e-02,1.814742088317871094e+01,-6.088173948228359222e-03,1.821251771616516635e-06,-3.720512092113494873e-01,7.289794087409973145e-01,3.467705755610950291e-05,-1.757857203483581543e-01,-2.067242413759231567e-01,3.349179267883300781e+00,1.000000000000000000e+00,1.047212630510330200e-02,0.000000000000000000e+00
2.195794820785522461e+00,2.287988433837890625e+02,4.535363769531250000e+01,4.535363769531250000e+01,-6.039936095476150513e-02,-1.450805664062500000e-01,1.306936796754598618e-02,1.814742088317871094e+01,-6.088173948228359222e-03,1.821251771616516635e-06,-3.720512092113494873e-01,7.289794087409973145e-01,3.467705755610950291e-05,-1.757857203483581543e-01,-2.067242413759231567e-01,3.349179267883300781e+00,1.000000000000000000e+00,1.047212630510330200e-02,0.000000000000000000e+00
2.195794820785522461e+00,2.287988433837890625e+02,4.535363769531250000e+01,4.535363769531250000e+01,-6.039936095476150513e-02,-1.450805664062500000e-01,1.306936796754598618e-02,1.814742088317871094e+01,-6.088173948228359222e-03,1.821251771616516635e-06,-3.720512092113494873e-01,7.289794087409973145e-01,3.467705755610950291e-05,-1.757857203483581543e-01,-2.067242413759231567e-01,3.349179267883300781e+00,1.000000000000000000e+00,1.047212630510330200e-02,0.000000000000000000e+00
2.195794820785522461e+00,2.287988433837890625e+02,4.535363769531250000e+01,4.535363769531250000e+01,-6.039936095476150513e-02,-1.450805664062500000e-01,1.306936796754598618e-02,1.814742088317871094e+01,-6.088173948228359222e-03,1.821251771616516635e-06,-3.720512092113494873e-01,7.289794087409973145e-01,3.467705755610950291e-05,-1.757857203483581543e-01,-2.067242413759231567e-01,3.349179267883300781e+00,1.000000000000000000e+00,1.047212630510330200e-02,0.000000000000000000e+00
2.195794820785522461e+00,2.287988433837890625e+02,4.535363769531250000e+01,4.535363769531250000e+01,-6.039936095476150513e-02,-1.450805664062500000e-01,1.306936796754598618e-02,1.814742088317871094e+01,-6.088173948228359222e-03,1.821251771616516635e-06,-3.720512092113494873e-01,7.289794087409973145e-01,3.467705755610950291e-05,-1.757857203483581543e-01,-2.067242413759231567e-01,3.349179267883300781e+00,1.000000000000000000e+00,1.047212630510330200e-02,0.000000000000000000e+00
2.374083757400512695e+00,2.297616424560546875e+02,4.535215759277343750e+01,4.535215759277343750e+01,-4.953252896666526794e-02,2.248461917042732239e-02,1.780321076512336731e-02,1.813554191589355469e+01,1.082912087440490723e-02,2.765288513728592079e-07,-6.662761420011520386e-02,9.488695859909057617e-02,-8.664153938298113644e-06,-8.950706571340560913e-02,-2.026690095663070679e-01,3.052383184432983398e+00,1.000000000000000000e+00,5.475299898535013199e-03,0.000000000000000000e+00
2.374083757400512695e+00,2.297616424560546875e+02,4.535215759277343750e+01,4.535215759277343750e+01,-4.953252896666526794e-02,2.248461917042732239e-02,1.780321076512336731e-02,1.813554191589355469e+01,1.082912087440490723e-02,2.765288513728592079e-07,-6.662761420011520386e-02,9.488695859909057617e-02,-8.664153938298113644e-06,-8.950706571340560913e-02,-2.026690095663070679e-01,3.052383184432983398e+00,1.000000000000000000e+00,5.475299898535013199e-03,0.000000000000000000e+00
2.374083757400512695e+00,2.297616424560546875e+02,4.535215759277343750e+01,4.535215759277343750e+01,-4.953252896666526794e-02,2.248461917042732239e-02,1.780321076512336731e-02,1.813554191589355469e+01,1.082912087440490723e-02,2.765288513728592079e-07,-6.662761420011520386e-02,9.488695859909057617e-02,-8.664153938298113644e-06,-8.950706571340560913e-02,-2.026690095663070679e-01,3.052383184432983398e+00,1.000000000000000000e+00,5.475299898535013199e-03,0.000000000000000000e+00
2.447860002517700195e+00,2.315740966796875000e+02,4.535305404663085938e+01,4.535305404663085938e+01,-3.076316975057125092e-02,2.850534319877624512e-01,2.719974145293235779e-02,1.811302375793457031e+01,5.665852129459381104e-02,2.593561930552823469e-06,-3.052223324775695801e-01,6.211945414543151855e-01,3.140621993225067854e-05,-1.167280301451683044e-01,-1.691123992204666138e-01,2.367532730102539062e+00,1.000000000000000000e+00,3.457663580775260925e-03,0.000000000000000000e+00
2.447860002517700195e+00,2.315740966796875000e+02,4.535305404663085938e+01,4.535305404663085938e+01,-3.076316975057125092e-02,2.850534319877624512e-01,2.719974145293235779e-02,1.811302375793457031e+01,5.665852129459381104e-02,2.593561930552823469e-06,-3.052223324775695801e-01,6.211945414543151855e-01,3.140621993225067854e-05,-1.167280301451683044e-01,-1.691123992204666138e-01,2.367532730102539062e+00,1.000000000000000000e+00,3.457663580775260925e-03,0.000000000000000000e+00
2.500878810882568359e+00,2.329097595214843750e+02,4.535639572143554688e+01,4.535639572143554688e+01,-2.014222741127014160e-02,4.125120043754577637e-01,2.613232284784317017e-02,1.809646606445312500e+01,6.783368438482284546e-02,-6.865441264380933717e-07,-3.122984766960144043e-01,2.107773274183273315e-01,-6.186683458508923650e-05,1.451901998370885849e-02,-1.288262903690338135e-01,1.350396513938903809e+00,1.000000000000000000e+00,-2.573456382378935814e-03,0.000000000000000000e+00
2.500878810882568359e+00,2.329097595214843750e+02,4.535639572143554688e+01,4.535639572143554688e+01,-2.014222741127014160e-02,4.125120043754577637e-01,2.613232284784317017e-02,1.809646606445312500e+01,6.783368438482284546e-02,-6.865441264380933717e-07,-3.122984766960144043e-01,2.107773274183273315e-01,-6.186683458508923650e-05,1.451901998370885849e-02,-1.288262903690338135e-01,1.350396513938903809e+00,1.000000000000000000e+00,-2.573456382378935814e-03,0.000000000000000000e+00
2.560195446014404297e+00,2.338688659667968750e+02,4.535953140258789062e+01,4.535953140258789062e+01,-1.422045286744832993e-02,4.549928009510040283e-01,2.211521379649639130e-02,1.808456420898437500e+01,6.643945723772048950e-02,-8.105157007776142564e-07,-2.006495296955108643e-01,-2.350482530891895294e-02,-2.089996769427671097e-06,8.061870187520980835e-02,-1.021070107817649841e-01,4.993103742599487305e-01,1.000000000000000000e+00,-6.292805541306734085e-03,0.000000000000000000e+00
2.560195446014404297e+00,2.338688659667968750e+02,4.535953140258789062e+01,4.535953140258789062e+01,-1.422045286744832993e-02,4.549928009510040283e-01,2.211521379649639130e-02,1.808456420898437500e+01,6.643945723772048950e-02,-8.105157007776142564e-07,-2.006495296955108643e-01,-2.350482530891895294e-02,-2.089996769427671097e-06,8.061870187520980835e-02,-1.021070107817649841e-01,4.993103742599487305e-01,1.000000000000000000e+00,-6.292805541306734085e-03,0.000000000000000000e+00
2.560195446014404297e+00,2.338688659667968750e+02,4.535953140258789062e+01,4.535953140258789062e+01,-1.422045286744832993e-02,4.549928009510040283e-01,2.211521379649639130e-02,1.808456420898437500e+01,6.643945723772048950e-02,-8.105157007776142564e-07,-2.006495296955108643e-01,-2.350482530891895294e-02,-2.089996769427671097e-06,8.061870187520980835e-02,-1.021070107817649841e-01,4.993103742599487305e-01,1.000000000000000000e+00,-6.292805541306734085e-03,0.000000000000000000e+00
2.618730545043945312e+00,2.349411315917968750e+02,4.536327362060546875e+01,4.536327362060546875e+01,-9.002189151942729950e-03,4.493275582790374756e-01,1.550263259559869766e-02,1.807124137878417969e+01,5.898046493530273438e-02,-1.096562868951878045e-06,-2.276041209697723389e-01,-1.274276822805404663e-01,-4.886763235845137388e-06,1.073759421706199646e-01,-7.829657196998596191e-02,-4.190662801265716553e-01,1.000000000000000000e+00,-8.325313217937946320e-03,0.000000000000000000e+00
2.618730545043945312e+00,2.349411315917968750e+02,4.536327362060546875e+01,4.536327362060546875e+01,-9.002189151942729950e-03,4.493275582790374756e-01,1.550263259559869766e-02,1.807124137878417969e+01,5.898046493530273438e-02,-1.096562868951878045e-06,-2.276041209697723389e-01,-1.274276822805404663e-01,-4.886763235845137388e-06,1.073759421706199646e-01,-7.829657196998596191e-02,-4.190662801265716553e-01,1.000000000000000000e+00,-8.325313217937946320e-03,0.000000000000000000e+00
2.677334070205688477e+00,2.360011901855468750e+02,4.536692428588867188e+01,4.536692428588867188e+01,-1.047067902982234955e-02,3.982435464859008789e-01,9.078250266611576080e-03,1.813572502136230469e+01,4.938316345214843750e-02,-2.708038664422929287e-06,1.100337266921997070e+00,-1.637666225433349609e-01,-2.749793202383443713e-05,1.085202768445014954e-01,8.158146589994430542e-02,-1.119196891784667969e+00,1.000000000000000000e+00,-8.801118470728397369e-03,0.000000000000000000e+00
2.677334070205688477e+00,2.360011901855468750e+02,4.536692428588867188e+01,4.536692428588867188e+01,-1.047067902982234955e-02,3.982435464859008789e-01,9.078250266611576080e-03,1.813572502136230469e+01,4.938316345214843750e-02,-2.708038664422929287e-06,1.100337266921997070e+00,-1.637666225433349609e-01,-2.749793202383443713e-05,1.085202768445014954e-01,8.158146589994430542e-02,-1.119196891784667969e+00,1.000000000000000000e+00,-8.801118470728397369e-03,0.000000000000000000e+00
2.677334070205688477e+00,2.360011901855468750e+02,4.536692428588867188e+01,4.536692428588867188e+01,-1.047067902982234955e-02,3.982435464859008789e-01,9.078250266611576080e-03,1.813572502136230469e+01,4.938316345214843750e-02,-2.708038664422929287e-06,1.100337266921997070e+00,-1.637666225433349609e-01,-2.749793202383443713e-05,1.085202768445014954e-01,8.158146589994430542e-02,-1.119196891784667969e+00,1.000000000000000000e+00,-8.801118470728397369e-03,0.000000000000000000e+00
2.677334070205688477e+00,2.370662384033203125e+02,4.537006759643554688e+01,4.537006759643554688e+01,-1.849615201354026794e-02,3.092463612556457520e-01,1.268874621018767357e-03,1.819884109497070312e+01,3.084581345319747925e-02,-2.545937149989185855e-06,8.124004602432250977e-01,-2.386040687561035156e-01,2.086494532704818994e-06,1.377176195383071899e-01,1.611785888671875000e-01,-1.736936211585998535e+00,1.000000000000000000e+00,-9.755243547260761261e-03,0.000000000000000000e+00
2.755024909973144531e+00,2.370662384033203125e+02,4.537006759643554688e+01,4.537006759643554688e+01,-1.849615201354026794e-02,3.092463612556457520e-01,1.268874621018767357e-03,1.819884109497070312e+01,3.084581345319747925e-02,-2.545937149989185855e-06,8.124004602432250977e-01,-2.386040687561035156e-01,2.086494532704818994e-06,1.377176195383071899e-01,1.611785888671875000e-01,-1.736936211585998535e+00,1.000000000000000000e+00,-9.755243547260761261e-03,0.000000000000000000e+00
2.755024909973144531e+00,2.370662384033203125e+02,4.537006759643554688e+01,4.537006759643554688e+01,-1.849615201354026794e-02,3.092463612556457520e-01,1.268874621018767357e-03,1.819884109497070312e+01,3.084581345319747925e-02,-2.545937149989185855e-06,8.124004602432250977e-01,-2.386040687561035156e-01,2.086494532704818994e-06,1.377176195383071899e-01,1.611785888671875000e-01,-1.736936211585998535e+00,1.000000000000000000e+00,-9.755243547260761261e-03,0.000000000000000000e+00
2.755024909973144531e+00,2.370662384033203125e+02,4.537006759643554688e+01,4.537006759643554688e+01,-1.849615201354026794e-02,3.092463612556457520e-01,1.268874621018767357e-03,1.819884109497070312e+01,3.084581345319747925e-02,-2.545937149989185855e-06,8.124004602432250977e-01,-2.386040687561035156e-01,2.086494532704818994e-06,1.377176195383071899e-01,1.611785888671875000e-01,-1.736936211585998535e+00,1.000000000000000000e+00,-9.755243547260761261e-03,0.000000000000000000e+00
2.830169916152954102e+00,2.384835357666015625e+02,4.537304687500000000e+01,4.537304687500000000e+01,-3.231362253427505493e-02,1.556832939386367798e-01,-7.019043900072574615e-03,1.827261161804199219e+01,8.296204730868339539e-03,-2.002404784207101329e-07,9.817088842391967773e-01,-3.000812530517578125e-01,3.121560075669549406e-05,1.121643483638763428e-01,1.793966293334960938e-01,-2.118453741073608398e+00,1.000000000000000000e+00,-7.943689823150634766e-03,0.000000000000000000e+00
2.830169916152954102e+00,2.384835357666015625e+02,4.537304687500000000e+01,4.537304687500000000e+01,-3.231362253427505493e-02,1.556832939386367798e-01,-7.019043900072574615e-03,1.827261161804199219e+01,8.296204730868339539e-03,-2.002404784207101329e-07,9.817088842391967773e-01,-3.000812530517578125e-01,3.121560075669549406e-05,1.121643483638763428e-01,1.793966293334960938e-01,-2.118453741073608398e+00,1.000000000000000000e+00,-7.943689823150634766e-03,0.000000000000000000e+00
2.830169916152954102e+00,2.384835357666015625e+02,4.537304687500000000e+01,4.537304687500000000e+01,-3.231362253427505493e-02,1.556832939386367798e-01,-7.019043900072574615e-03,1.827261161804199219e+01,8.296204730868339539e-03,-2.002404784207101329e-07,9.817088842391967773e-01,-3.000812530517578125e-01,3.121560075669549406e-05,1.121643483638763428e-01,1.793966293334960938e-01,-2.118453741073608398e+00,1.000000000000000000e+00,-7.943689823150634766e-03,0.000000000000000000e+00
2.830169916152954102e+00,2.384835357666015625e+02,4.537304687500000000e+01,4.537304687500000000e+01,-3.231362253427505493e-02,1.556832939386367798e-01,-7.019043900072574615e-03,1.827261161804199219e+01,8.296204730868339539e-03,-2.002404784207101329e-07,9.817088842391967773e-01,-3.000812530517578125e-01,3.121560075669549406e-05,1.121643483638763428e-01,1.793966293334960938e-01,-2.118453741073608398e+00,1.000000000000000000e+00,-7.943689823150634766e-03,0.000000000000000000e+00
2.830169916152954102e+00,2.384835357666015625e+02,4.537304687500000000e+01,4.537304687500000000e+01,-3.231362253427505493e-02,1.556832939386367798e-01,-7.019043900072574615e-03,1.827261161804199219e+01,8.296204730868339539e-03,-2.002404784207101329e-07,9.817088842391967773e-01,-3.000812530517578125e-01,3.121560075669549406e-05,1.121643483638763428e-01,1.793966293334960938e-01,-2.118453741073608398e+00,1.000000000000000000e+00,-7.943689823150634766e-03,0.000000000000000000e+00
2.917726278305053711e+00,2.398594512939453125e+02,4.537389373779296875e+01,4.537389373779296875e+01,-4.458064213395118713e-02,-1.440429594367742538e-02,-1.641845889389514923e-02,1.833666610717773438e+01,-2.617287822067737579e-02,8.486425713272183202e-07,7.315800189971923828e-01,-3.936787843704223633e-01,1.197951769427163526e-05,1.359316408634185791e-01,1.505594700574874878e-01,-2.349936962127685547e+00,1.000000000000000000e+00,-7.699966430664062500e-03,0.000000000000000000e+00
