# Time,X,Y,Z,Roll,Pitch,Yaw,Vx,Vy,Vz,Ax,Ay,Az,Wx,Wy,Wz,Throttle,Steer,Brake
0.000000000000000000e+00,6.605698852539062500e+02,2.700899887084960938e+01,2.700899887084960938e+01,-7.196628451347351074e-01,-1.053755264282226562e+02,-4.888000190258026123e-01,-2.138973951339721680e+00,-7.792559146881103516e+00,9.869133464235346764e-06,-1.415472149848937988e+00,-3.913083076477050781e+00,2.420696255285292864e-04,2.908968329429626465e-01,-5.500097274780273438e-01,-2.673271417617797852e+00,1.000000000000000000e+00,-1.884612999856472015e-02,0.000000000000000000e+00
1.045818328857421875e-01,6.605698852539062500e+02,2.700899887084960938e+01,2.700899887084960938e+01,-7.196628451347351074e-01,-1.053755264282226562e+02,-4.888000190258026123e-01,-2.138973951339721680e+00,-7.792559146881103516e+00,9.869133464235346764e-06,-1.415472149848937988e+00,-3.913083076477050781e+00,2.420696255285292864e-04,2.908968329429626465e-01,-5.500097274780273438e-01,-2.673271417617797852e+00,1.000000000000000000e+00,-1.884612999856472015e-02,0.000000000000000000e+00
1.045818328857421875e-01,6.605698852539062500e+02,2.700899887084960938e+01,2.700899887084960938e+01,-7.196628451347351074e-01,-1.053755264282226562e+02,-4.888000190258026123e-01,-2.138973951339721680e+00,-7.792559146881103516e+00,9.869133464235346764e-06,-1.415472149848937988e+00,-3.913083076477050781e+00,2.420696255285292864e-04,2.908968329429626465e-01,-5.500097274780273438e-01,-2.673271417617797852e+00,1.000000000000000000e+00,-1.884612999856472015e-02,0.000000000000000000e+00
1.045818328857421875e-01,6.605698852539062500e+02,2.700899887084960938e+01,2.700899887084960938e+01,-7.196628451347351074e-01,-1.053755264282226562e+02,-4.888000190258026123e-01,-2.138973951339721680e+00,-7.792559146881103516e+00,9.869133464235346764e-06,-1.415472149848937988e+00,-3.913083076477050781e+00,2.420696255285292864e-04,2.908968329429626465e-01,-5.500097274780273438e-01,-2.673271417617797852e+00,1.000000000000000000e+00,-1.884612999856472015e-02,0.000000000000000000e+00
1.045818328857421875e-01,6.605698852539062500e+02,2.700899887084960938e+01,2.700899887084960938e+01,-7.196628451347351074e-01,-1.053755264282226562e+02,-4.888000190258026123e-01,-2.138973951339721680e+00,-7.792559146881103516e+00,9.869133464235346764e-06,-1.415472149848937988e+00,-3.913083076477050781e+00,2.420696255285292864e-04,2.908968329429626465e-01,-5.500097274780273438e-01,-2.673271417617797852e+00,1.000000000000000000e+00,-1.884612999856472015e-02,0.000000000000000000e+00
1.045818328857421875e-01,6.605698852539062500e+02,2.700899887084960938e+01,2.700899887084960938e+01,-7.196628451347351074e-01,-1.053755264282226562e+02,-4.888000190258026123e-01,-2.138973951339721680e+00,-7.792559146881103516e+00,9.869133464235346764e-06,-1.415472149848937988e+00,-3.913083076477050781e+00,2.420696255285292864e-04,2.908968329429626465e-01,-5.500097274780273438e-01,-2.673271417617797852e+00,1.000000000000000000e+00,-1.884612999856472015e-02,0.000000000000000000e+00
1.045818328857421875e-01,6.603458251953125000e+02,2.620401763916015625e+01,2.620401763916015625e+01,-7.620782852172851562e-01,-1.055430831909179688e+02,-5.136719346046447754e-01,-2.283630847930908203e+00,-8.219559669494628906e+00,3.693918552016839385e-05,-1.381514668464660645e+00,-4.077976703643798828e+00,2.585267066024243832e-04,1.195026934146881104e-02,-7.381136715412139893e-02,-1.517607331275939941e+00,1.000000000000000000e+00,-1.019236259162425995e-02,0.000000000000000000e+00
2.092907428741455078e-01,6.603458251953125000e+02,2.620401763916015625e+01,2.620401763916015625e+01,-7.620782852172851562e-01,-1.055430831909179688e+02,-5.136719346046447754e-01,-2.283630847930908203e+00,-8.219559669494628906e+00,3.693918552016839385e-05,-1.381514668464660645e+00,-4.077976703643798828e+00,2.585267066024243832e-04,1.195026934146881104e-02,-7.381136715412139893e-02,-1.517607331275939941e+00,1.000000000000000000e+00,-1.019236259162425995e-02,0.000000000000000000e+00
2.092907428741455078e-01,6.603458251953125000e+02,2.620401763916015625e+01,2.620401763916015625e+01,-7.620782852172851562e-01,-1.055430831909179688e+02,-5.136719346046447754e-01,-2.283630847930908203e+00,-8.219559669494628906e+00,3.693918552016839385e-05,-1.381514668464660645e+00,-4.077976703643798828e+00,2.585267066024243832e-04,1.195026934146881104e-02,-7.381136715412139893e-02,-1.517607331275939941e+00,1.000000000000000000e+00,-1.019236259162425995e-02,0.000000000000000000e+00
2.092907428741455078e-01,6.603458251953125000e+02,2.620401763916015625e+01,2.620401763916015625e+01,-7.620782852172851562e-01,-1.055430831909179688e+02,-5.136719346046447754e-01,-2.283630847930908203e+00,-8.219559669494628906e+00,3.693918552016839385e-05,-1.381514668464660645e+00,-4.077976703643798828e+00,2.585267066024243832e-04,1.195026934146881104e-02,-7.381136715412139893e-02,-1.517607331275939941e+00,1.000000000000000000e+00,-1.019236259162425995e-02,0.000000000000000000e+00
2.092907428741455078e-01,6.603458251953125000e+02,2.620401763916015625e+01,2.620401763916015625e+01,-7.620782852172851562e-01,-1.055430831909179688e+02,-5.136719346046447754e-01,-2.283630847930908203e+00,-8.219559669494628906e+00,3.693918552016839385e-05,-1.381514668464660645e+00,-4.077976703643798828e+00,2.585267066024243832e-04,1.195026934146881104e-02,-7.381136715412139893e-02,-1.517607331275939941e+00,1.000000000000000000e+00,-1.019236259162425995e-02,0.000000000000000000e+00
2.092907428741455078e-01,6.601043701171875000e+02,2.535669898986816406e+01,2.535669898986816406e+01,-7.829582095146179199e-01,-1.059049530029296875e+02,-5.389708876609802246e-01,-2.454766273498535156e+00,-8.643697738647460938e+00,5.509411857929080725e-05,-2.293469429016113281e+00,-5.684081554412841797e+00,2.433031186228618026e-04,-1.933126449584960938e-01,-4.020352363586425781e-01,-4.175694465637207031e+00,1.000000000000000000e+00,-2.824351005256175995e-02,0.000000000000000000e+00
2.839093208312988281e-01,6.601043701171875000e+02,2.535669898986816406e+01,2.535669898986816406e+01,-7.829582095146179199e-01,-1.059049530029296875e+02,-5.389708876609802246e-01,-2.454766273498535156e+00,-8.643697738647460938e+00,5.509411857929080725e-05,-2.293469429016113281e+00,-5.684081554412841797e+00,2.433031186228618026e-04,-1.933126449584960938e-01,-4.020352363586425781e-01,-4.175694465637207031e+00,1.000000000000000000e+00,-2.824351005256175995e-02,0.000000000000000000e+00
2.839093208312988281e-01,6.601043701171875000e+02,2.535669898986816406e+01,2.535669898986816406e+01,-7.829582095146179199e-01,-1.059049530029296875e+02,-5.389708876609802246e-01,-2.454766273498535156e+00,-8.643697738647460938e+00,5.509411857929080725e-05,-2.293469429016113281e+00,-5.684081554412841797e+00,2.433031186228618026e-04,-1.933126449584960938e-01,-4.020352363586425781e-01,-4.175694465637207031e+00,1.000000000000000000e+00,-2.824351005256175995e-02,0.000000000000000000e+00
2.839093208312988281e-01,6.601043701171875000e+02,2.535669898986816406e+01,2.535669898986816406e+01,-7.829582095146179199e-01,-1.059049530029296875e+02,-5.389708876609802246e-01,-2.454766273498535156e+00,-8.643697738647460938e+00,5.509411857929080725e-05,-2.293469429016113281e+00,-5.684081554412841797e+00,2.433031186228618026e-04,-1.933126449584960938e-01,-4.020352363586425781e-01,-4.175694465637207031e+00,1.000000000000000000e+00,-2.824351005256175995e-02,0.000000000000000000e+00
2.839093208312988281e-01,6.601043701171875000e+02,2.535669898986816406e+01,2.535669898986816406e+01,-7.829582095146179199e-01,-1.059049530029296875e+02,-5.389708876609802246e-01,-2.454766273498535156e+00,-8.643697738647460938e+00,5.509411857929080725e-05,-2.293469429016113281e+00,-5.684081554412841797e+00,2.433031186228618026e-04,-1.933126449584960938e-01,-4.020352363586425781e-01,-4.175694465637207031e+00,1.000000000000000000e+00,-2.824351005256175995e-02,0.000000000000000000e+00
3.569011688232421875e-01,6.599134521484375000e+02,2.469740676879882812e+01,2.469740676879882812e+01,-7.914959192276000977e-01,-1.061479034423828125e+02,-5.794067978858947754e-01,-2.586716890335083008e+00,-8.966929435729980469e+00,5.326429891283623874e-05,-1.807744622230529785e+00,-4.428326129913330078e+00,-2.506882265151944011e-05,-6.767774373292922974e-02,-6.065822839736938477e-01,-3.010848283767700195e+00,1.000000000000000000e+00,-1.867853850126266479e-02,0.000000000000000000e+00
3.569011688232421875e-01,6.599134521484375000e+02,2.469740676879882812e+01,2.469740676879882812e+01,-7.914959192276000977e-01,-1.061479034423828125e+02,-5.794067978858947754e-01,-2.586716890335083008e+00,-8.966929435729980469e+00,5.326429891283623874e-05,-1.807744622230529785e+00,-4.428326129913330078e+00,-2.506882265151944011e-05,-6.767774373292922974e-02,-6.065822839736938477e-01,-3.010848283767700195e+00,1.000000000000000000e+00,-1.867853850126266479e-02,0.000000000000000000e+00
3.569011688232421875e-01,6.599134521484375000e+02,2.469740676879882812e+01,2.469740676879882812e+01,-7.914959192276000977e-01,-1.061479034423828125e+02,-5.794067978858947754e-01,-2.586716890335083008e+00,-8.966929435729980469e+00,5.326429891283623874e-05,-1.807744622230529785e+00,-4.428326129913330078e+00,-2.506882265151944011e-05,-6.767774373292922974e-02,-6.065822839736938477e-01,-3.010848283767700195e+00,1.000000000000000000e+00,-1.867853850126266479e-02,0.000000000000000000e+00
3.569011688232421875e-01,6.599134521484375000e+02,2.469740676879882812e+01,2.469740676879882812e+01,-7.914959192276000977e-01,-1.061479034423828125e+02,-5.794067978858947754e-01,-2.586716890335083008e+00,-8.966929435729980469e+00,5.326429891283623874e-05,-1.807744622230529785e+00,-4.428326129913330078e+00,-2.506882265151944011e-05,-6.767774373292922974e-02,-6.065822839736938477e-01,-3.010848283767700195e+00,1.000000000000000000e+00,-1.867853850126266479e-02,0.000000000000000000e+00
4.765405654907226562e-01,6.597184448242187500e+02,2.403020286560058594e+01,2.403020286560058594e+01,-7.938796877861022949e-01,-1.063010635375976562e+02,-6.148375868797302246e-01,-2.702012062072753906e+00,-9.265126228332519531e+00,5.031804539612494409e-05,-9.636890292167663574e-01,-2.492463350296020508e+00,-2.462611519149504602e-05,-9.322556853294372559e-02,-3.734481036663055420e-01,-1.834254026412963867e+00,1.000000000000000000e+00,-1.061808224767446518e-02,0.000000000000000000e+00
4.765405654907226562e-01,6.597184448242187500e+02,2.403020286560058594e+01,2.403020286560058594e+01,-7.938796877861022949e-01,-1.063010635375976562e+02,-6.148375868797302246e-01,-2.702012062072753906e+00,-9.265126228332519531e+00,5.031804539612494409e-05,-9.636890292167663574e-01,-2.492463350296020508e+00,-2.462611519149504602e-05,-9.322556853294372559e-02,-3.734481036663055420e-01,-1.834254026412963867e+00,1.000000000000000000e+00,-1.061808224767446518e-02,0.000000000000000000e+00
4.765405654907226562e-01,6.597184448242187500e+02,2.403020286560058594e+01,2.403020286560058594e+01,-7.938796877861022949e-01,-1.063010635375976562e+02,-6.148375868797302246e-01,-2.702012062072753906e+00,-9.265126228332519531e+00,5.031804539612494409e-05,-9.636890292167663574e-01,-2.492463350296020508e+00,-2.462611519149504602e-05,-9.322556853294372559e-02,-3.734481036663055420e-01,-1.834254026412963867e+00,1.000000000000000000e+00,-1.061808224767446518e-02,0.000000000000000000e+00
4.765405654907226562e-01,6.597184448242187500e+02,2.403020286560058594e+01,2.403020286560058594e+01,-7.938796877861022949e-01,-1.063010635375976562e+02,-6.148375868797302246e-01,-2.702012062072753906e+00,-9.265126228332519531e+00,5.031804539612494409e-05,-9.636890292167663574e-01,-2.492463350296020508e+00,-2.462611519149504602e-05,-9.322556853294372559e-02,-3.734481036663055420e-01,-1.834254026412963867e+00,1.000000000000000000e+00,-1.061808224767446518e-02,0.000000000000000000e+00
4.765405654907226562e-01,6.597184448242187500e+02,2.403020286560058594e+01,2.403020286560058594e+01,-7.938796877861022949e-01,-1.063010635375976562e+02,-6.148375868797302246e-01,-2.702012062072753906e+00,-9.265126228332519531e+00,5.031804539612494409e-05,-9.636890292167663574e-01,-2.492463350296020508e+00,-2.462611519149504602e-05,-9.322556853294372559e-02,-3.734481036663055420e-01,-1.834254026412963867e+00,1.000000000000000000e+00,-1.061808224767446518e-02,0.000000000000000000e+00
4.765405654907226562e-01,6.597184448242187500e+02,2.403020286560058594e+01,2.403020286560058594e+01,-7.938796877861022949e-01,-1.063010635375976562e+02,-6.148375868797302246e-01,-2.702012062072753906e+00,-9.265126228332519531e+00,5.031804539612494409e-05,-9.636890292167663574e-01,-2.492463350296020508e+00,-2.462611519149504602e-05,-9.322556853294372559e-02,-3.734481036663055420e-01,-1.834254026412963867e+00,1.000000000000000000e+00,-1.061808224767446518e-02,0.000000000000000000e+00
4.765405654907226562e-01,6.597184448242187500e+02,2.403020286560058594e+01,2.403020286560058594e+01,-7.938796877861022949e-01,-1.063010635375976562e+02,-6.148375868797302246e-01,-2.702012062072753906e+00,-9.265126228332519531e+00,5.031804539612494409e-05,-9.636890292167663574e-01,-2.492463350296020508e+00,-2.462611519149504602e-05,-9.322556853294372559e-02,-3.734481036663055420e-01,-1.834254026412963867e+00,1.000000000000000000e+00,-1.061808224767446518e-02,0.000000000000000000e+00
6.200885772705078125e-01,6.594342651367187500e+02,2.308140563964843750e+01,2.308140563964843750e+01,-7.932034730911254883e-01,-1.067279968261718750e+02,-6.770323514938354492e-01,-2.887424945831298828e+00,-9.660356521606445312e+00,3.966623989981599152e-05,-1.291643738746643066e+00,-2.753296852111816406e+00,-7.420378096867352724e-05,-2.654979825019836426e-01,-8.012433648109436035e-01,-4.952510356903076172e+00,1.000000000000000000e+00,-3.082351759076118469e-02,0.000000000000000000e+00
6.200885772705078125e-01,6.594342651367187500e+02,2.308140563964843750e+01,2.308140563964843750e+01,-7.932034730911254883e-01,-1.067279968261718750e+02,-6.770323514938354492e-01,-2.887424945831298828e+00,-9.660356521606445312e+00,3.966623989981599152e-05,-1.291643738746643066e+00,-2.753296852111816406e+00,-7.420378096867352724e-05,-2.654979825019836426e-01,-8.012433648109436035e-01,-4.952510356903076172e+00,1.000000000000000000e+00,-3.082351759076118469e-02,0.000000000000000000e+00
6.200885772705078125e-01,6.594342651367187500e+02,2.308140563964843750e+01,2.308140563964843750e+01,-7.932034730911254883e-01,-1.067279968261718750e+02,-6.770323514938354492e-01,-2.887424945831298828e+00,-9.660356521606445312e+00,3.966623989981599152e-05,-1.291643738746643066e+00,-2.753296852111816406e+00,-7.420378096867352724e-05,-2.654979825019836426e-01,-8.012433648109436035e-01,-4.952510356903076172e+00,1.000000000000000000e+00,-3.082351759076118469e-02,0.000000000000000000e+00
6.200885772705078125e-01,6.594342651367187500e+02,2.308140563964843750e+01,2.308140563964843750e+01,-7.932034730911254883e-01,-1.067279968261718750e+02,-6.770323514938354492e-01,-2.887424945831298828e+00,-9.660356521606445312e+00,3.966623989981599152e-05,-1.291643738746643066e+00,-2.753296852111816406e+00,-7.420378096867352724e-05,-2.654979825019836426e-01,-8.012433648109436035e-01,-4.952510356903076172e+00,1.000000000000000000e+00,-3.082351759076118469e-02,0.000000000000000000e+00
6.200885772705078125e-01,6.594342651367187500e+02,2.308140563964843750e+01,2.308140563964843750e+01,-7.932034730911254883e-01,-1.067279968261718750e+02,-6.770323514938354492e-01,-2.887424945831298828e+00,-9.660356521606445312e+00,3.966623989981599152e-05,-1.291643738746643066e+00,-2.753296852111816406e+00,-7.420378096867352724e-05,-2.654979825019836426e-01,-8.012433648109436035e-01,-4.952510356903076172e+00,1.000000000000000000e+00,-3.082351759076118469e-02,0.000000000000000000e+00
6.200885772705078125e-01,6.594342651367187500e+02,2.308140563964843750e+01,2.308140563964843750e+01,-7.932034730911254883e-01,-1.067279968261718750e+02,-6.770323514938354492e-01,-2.887424945831298828e+00,-9.660356521606445312e+00,3.966623989981599152e-05,-1.291643738746643066e+00,-2.753296852111816406e+00,-7.420378096867352724e-05,-2.654979825019836426e-01,-8.012433648109436035e-01,-4.952510356903076172e+00,1.000000000000000000e+00,-3.082351759076118469e-02,0.000000000000000000e+00
7.946169376373291016e-01,6.591319580078125000e+02,2.209363555908203125e+01,2.209363555908203125e+01,-7.889414429664611816e-01,-1.071092681884765625e+02,-7.756042480468750000e-01,-3.074054002761840820e+00,-1.004367446899414062e+01,9.859348210738971829e-06,-1.069333672523498535e+00,-2.196307420730590820e+00,-1.707853807602077723e-04,-3.590910434722900391e-01,-9.836938381195068359e-01,-3.559885978698730469e+00,1.000000000000000000e+00,-2.022654190659523010e-02,0.000000000000000000e+00
7.946169376373291016e-01,6.591319580078125000e+02,2.209363555908203125e+01,2.209363555908203125e+01,-7.889414429664611816e-01,-1.071092681884765625e+02,-7.756042480468750000e-01,-3.074054002761840820e+00,-1.004367446899414062e+01,9.859348210738971829e-06,-1.069333672523498535e+00,-2.196307420730590820e+00,-1.707853807602077723e-04,-3.590910434722900391e-01,-9.836938381195068359e-01,-3.559885978698730469e+00,1.000000000000000000e+00,-2.022654190659523010e-02,0.000000000000000000e+00
7.946169376373291016e-01,6.591319580078125000e+02,2.209363555908203125e+01,2.209363555908203125e+01,-7.889414429664611816e-01,-1.071092681884765625e+02,-7.756042480468750000e-01,-3.074054002761840820e+00,-1.004367446899414062e+01,9.859348210738971829e-06,-1.069333672523498535e+00,-2.196307420730590820e+00,-1.707853807602077723e-04,-3.590910434722900391e-01,-9.836938381195068359e-01,-3.559885978698730469e+00,1.000000000000000000e+00,-2.022654190659523010e-02,0.000000000000000000e+00
8.783230781555175781e-01,6.588093872070312500e+02,2.106883239746093750e+01,2.106883239746093750e+01,-7.823776602745056152e-01,-1.076069717407226562e+02,-9.034423828125000000e-01,-3.277704477310180664e+00,-1.040846920013427734e+01,-2.564956412243191153e-05,-2.432921648025512695e+00,-4.358040332794189453e+00,-4.242091963533312082e-04,-5.069180727005004883e-01,-1.364129543304443359e+00,-5.435047149658203125e+00,1.000000000000000000e+00,-3.114446066319942474e-02,0.000000000000000000e+00
8.783230781555175781e-01,6.588093872070312500e+02,2.106883239746093750e+01,2.106883239746093750e+01,-7.823776602745056152e-01,-1.076069717407226562e+02,-9.034423828125000000e-01,-3.277704477310180664e+00,-1.040846920013427734e+01,-2.564956412243191153e-05,-2.432921648025512695e+00,-4.358040332794189453e+00,-4.242091963533312082e-04,-5.069180727005004883e-01,-1.364129543304443359e+00,-5.435047149658203125e+00,1.000000000000000000e+00,-3.114446066319942474e-02,0.000000000000000000e+00
8.783230781555175781e-01,6.588093872070312500e+02,2.106883239746093750e+01,2.106883239746093750e+01,-7.823776602745056152e-01,-1.076069717407226562e+02,-9.034423828125000000e-01,-3.277704477310180664e+00,-1.040846920013427734e+01,-2.564956412243191153e-05,-2.432921648025512695e+00,-4.358040332794189453e+00,-4.242091963533312082e-04,-5.069180727005004883e-01,-1.364129543304443359e+00,-5.435047149658203125e+00,1.000000000000000000e+00,-3.114446066319942474e-02,0.000000000000000000e+00
9.483780860900878906e-01,6.585304565429687500e+02,2.020071411132812500e+01,2.020071411132812500e+01,-6.643998026847839355e-01,-1.079313735961914062e+02,-1.017639040946960449e+00,-3.322858095169067383e+00,-1.033932590484619141e+01,4.195581482235866133e-07,-6.445451974868774414e-01,9.869857430458068848e-01,3.721236134879291058e-04,-2.164949893951416016e+00,-6.488246917724609375e-01,-3.442701816558837891e+00,1.000000000000000000e+00,-1.800104789435863495e-02,0.000000000000000000e+00
9.483780860900878906e-01,6.585304565429687500e+02,2.020071411132812500e+01,2.020071411132812500e+01,-6.643998026847839355e-01,-1.079313735961914062e+02,-1.017639040946960449e+00,-3.322858095169067383e+00,-1.033932590484619141e+01,4.195581482235866133e-07,-6.445451974868774414e-01,9.869857430458068848e-01,3.721236134879291058e-04,-2.164949893951416016e+00,-6.488246917724609375e-01,-3.442701816558837891e+00,1.000000000000000000e+00,-1.800104789435863495e-02,0.000000000000000000e+00
9.483780860900878906e-01,6.585304565429687500e+02,2.020071411132812500e+01,2.020071411132812500e+01,-6.643998026847839355e-01,-1.079313735961914062e+02,-1.017639040946960449e+00,-3.322858095169067383e+00,-1.033932590484619141e+01,4.195581482235866133e-07,-6.445451974868774414e-01,9.869857430458068848e-01,3.721236134879291058e-04,-2.164949893951416016e+00,-6.488246917724609375e-01,-3.442701816558837891e+00,1.000000000000000000e+00,-1.800104789435863495e-02,0.000000000000000000e+00
9.483780860900878906e-01,6.585304565429687500e+02,2.020071411132812500e+01,2.020071411132812500e+01,-6.643998026847839355e-01,-1.079313735961914062e+02,-1.017639040946960449e+00,-3.322858095169067383e+00,-1.033932590484619141e+01,4.195581482235866133e-07,-6.445451974868774414e-01,9.869857430458068848e-01,3.721236134879291058e-04,-2.164949893951416016e+00,-6.488246917724609375e-01,-3.442701816558837891e+00,1.000000000000000000e+00,-1.800104789435863495e-02,0.000000000000000000e+00
9.483780860900878906e-01,6.582932739257812500e+02,1.947916603088378906e+01,1.947916603088378906e+01,-5.354594588279724121e-01,-1.082652511596679688e+02,-1.108032345771789551e+00,-3.367091894149780273e+00,-1.027429389953613281e+01,-1.297768903896212578e-05,-5.613496899604797363e-01,8.252896070480346680e-01,-1.700179564068093896e-04,-2.063242912292480469e+00,-6.579939723014831543e-01,-5.134462356567382812e+00,1.000000000000000000e+00,-3.015111200511455536e-02,0.000000000000000000e+00
1.027177095413208008e+00,6.582932739257812500e+02,1.947916603088378906e+01,1.947916603088378906e+01,-5.354594588279724121e-01,-1.082652511596679688e+02,-1.108032345771789551e+00,-3.367091894149780273e+00,-1.027429389953613281e+01,-1.297768903896212578e-05,-5.613496899604797363e-01,8.252896070480346680e-01,-1.700179564068093896e-04,-2.063242912292480469e+00,-6.579939723014831543e-01,-5.134462356567382812e+00,1.000000000000000000e+00,-3.015111200511455536e-02,0.000000000000000000e+00
1.027177095413208008e+00,6.582932739257812500e+02,1.947916603088378906e+01,1.947916603088378906e+01,-5.354594588279724121e-01,-1.082652511596679688e+02,-1.108032345771789551e+00,-3.367091894149780273e+00,-1.027429389953613281e+01,-1.297768903896212578e-05,-5.613496899604797363e-01,8.252896070480346680e-01,-1.700179564068093896e-04,-2.063242912292480469e+00,-6.579939723014831543e-01,-5.134462356567382812e+00,1.000000000000000000e+00,-3.015111200511455536e-02,0.000000000000000000e+00
1.095043420791625977e+00,6.580234375000000000e+02,1.867296409606933594e+01,1.867296409606933594e+01,-4.136977195739746094e-01,-1.085959167480468750e+02,-1.192474484443664551e+00,-3.408806800842285156e+00,-1.020419502258300781e+01,-6.994098657742142677e-05,-6.146628260612487793e-01,1.032896280288696289e+00,-8.393455063924193382e-04,-1.582008600234985352e+00,-4.481855630874633789e-01,-3.982639551162719727e+00,1.000000000000000000e+00,-2.198715135455131531e-02,0.000000000000000000e+00
1.095043420791625977e+00,6.580234375000000000e+02,1.867296409606933594e+01,1.867296409606933594e+01,-4.136977195739746094e-01,-1.085959167480468750e+02,-1.192474484443664551e+00,-3.408806800842285156e+00,-1.020419502258300781e+01,-6.994098657742142677e-05,-6.146628260612487793e-01,1.032896280288696289e+00,-8.393455063924193382e-04,-1.582008600234985352e+00,-4.481855630874633789e-01,-3.982639551162719727e+00,1.000000000000000000e+00,-2.198715135455131531e-02,0.000000000000000000e+00
1.095043420791625977e+00,6.580234375000000000e+02,1.867296409606933594e+01,1.867296409606933594e+01,-4.136977195739746094e-01,-1.085959167480468750e+02,-1.192474484443664551e+00,-3.408806800842285156e+00,-1.020419502258300781e+01,-6.994098657742142677e-05,-6.146628260612487793e-01,1.032896280288696289e+00,-8.393455063924193382e-04,-1.582008600234985352e+00,-4.481855630874633789e-01,-3.982639551162719727e+00,1.000000000000000000e+00,-2.198715135455131531e-02,0.000000000000000000e+00
1.095043420791625977e+00,6.580234375000000000e+02,1.867296409606933594e+01,1.867296409606933594e+01,-4.136977195739746094e-01,-1.085959167480468750e+02,-1.192474484443664551e+00,-3.408806800842285156e+00,-1.020419502258300781e+01,-6.994098657742142677e-05,-6.146628260612487793e-01,1.032896280288696289e+00,-8.393455063924193382e-04,-1.582008600234985352e+00,-4.481855630874633789e-01,-3.982639551162719727e+00,1.000000000000000000e+00,-2.198715135455131531e-02,0.000000000000000000e+00
1.168572425842285156e+00,6.577896118164062500e+02,1.798276519775390625e+01,1.798276519775390625e+01,-3.379509150981903076e-01,-1.087826919555664062e+02,-1.226562380790710449e+00,-3.431328296661376953e+00,-1.014845943450927734e+01,-9.257967030862346292e-05,-3.062940239906311035e-01,7.580081820487976074e-01,-3.078877925872802734e-04,-1.021754145622253418e+00,1.173890382051467896e-01,-2.398131370544433594e+00,1.000000000000000000e+00,-1.224644947797060013e-02,0.000000000000000000e+00
1.168572425842285156e+00,6.577896118164062500e+02,1.798276519775390625e+01,1.798276519775390625e+01,-3.379509150981903076e-01,-1.087826919555664062e+02,-1.226562380790710449e+00,-3.431328296661376953e+00,-1.014845943450927734e+01,-9.257967030862346292e-05,-3.062940239906311035e-01,7.580081820487976074e-01,-3.078877925872802734e-04,-1.021754145622253418e+00,1.173890382051467896e-01,-2.398131370544433594e+00,1.000000000000000000e+00,-1.224644947797060013e-02,0.000000000000000000e+00
1.168572425842285156e+00,6.577896118164062500e+02,1.798276519775390625e+01,1.798276519775390625e+01,-3.379509150981903076e-01,-1.087826919555664062e+02,-1.226562380790710449e+00,-3.431328296661376953e+00,-1.014845943450927734e+01,-9.257967030862346292e-05,-3.062940239906311035e-01,7.580081820487976074e-01,-3.078877925872802734e-04,-1.021754145622253418e+00,1.173890382051467896e-01,-2.398131370544433594e+00,1.000000000000000000e+00,-1.224644947797060013e-02,0.000000000000000000e+00
1.168572425842285156e+00,6.577896118164062500e+02,1.798276519775390625e+01,1.798276519775390625e+01,-3.379509150981903076e-01,-1.087826919555664062e+02,-1.226562380790710449e+00,-3.431328296661376953e+00,-1.014845943450927734e+01,-9.257967030862346292e-05,-3.062940239906311035e-01,7.580081820487976074e-01,-3.078877925872802734e-04,-1.021754145622253418e+00,1.173890382051467896e-01,-2.398131370544433594e+00,1.000000000000000000e+00,-1.224644947797060013e-02,0.000000000000000000e+00
1.168572425842285156e+00,6.575327758789062500e+02,1.723999404907226562e+01,1.723999404907226562e+01,-2.753863930702209473e-01,-1.091125793457031250e+02,-1.234283685684204102e+00,-3.469021320343017578e+00,-1.008328151702880859e+01,-8.199438889278098941e-05,-5.022492408752441406e-01,8.684778809547424316e-01,1.410459808539599180e-04,-7.137120962142944336e-01,2.096407860517501831e-01,-5.018884658813476562e+00,1.000000000000000000e+00,-3.053614310920238495e-02,0.000000000000000000e+00
1.243620872497558594e+00,6.575327758789062500e+02,1.723999404907226562e+01,1.723999404907226562e+01,-2.753863930702209473e-01,-1.091125793457031250e+02,-1.234283685684204102e+00,-3.469021320343017578e+00,-1.008328151702880859e+01,-8.199438889278098941e-05,-5.022492408752441406e-01,8.684778809547424316e-01,1.410459808539599180e-04,-7.137120962142944336e-01,2.096407860517501831e-01,-5.018884658813476562e+00,1.000000000000000000e+00,-3.053614310920238495e-02,0.000000000000000000e+00
1.243620872497558594e+00,6.575327758789062500e+02,1.723999404907226562e+01,1.723999404907226562e+01,-2.753863930702209473e-01,-1.091125793457031250e+02,-1.234283685684204102e+00,-3.469021320343017578e+00,-1.008328151702880859e+01,-8.199438889278098941e-05,-5.022492408752441406e-01,8.684778809547424316e-01,1.410459808539599180e-04,-7.137120962142944336e-01,2.096407860517501831e-01,-5.018884658813476562e+00,1.000000000000000000e+00,-3.053614310920238495e-02,0.000000000000000000e+00
1.243620872497558594e+00,6.575327758789062500e+02,1.723999404907226562e+01,1.723999404907226562e+01,-2.753863930702209473e-01,-1.091125793457031250e+02,-1.234283685684204102e+00,-3.469021320343017578e+00,-1.008328151702880859e+01,-8.199438889278098941e-05,-5.022492408752441406e-01,8.684778809547424316e-01,1.410459808539599180e-04,-7.137120962142944336e-01,2.096407860517501831e-01,-5.018884658813476562e+00,1.000000000000000000e+00,-3.053614310920238495e-02,0.000000000000000000e+00
1.312042951583862305e+00,6.572681274414062500e+02,1.648686027526855469e+01,1.648686027526855469e+01,-2.293440848588943481e-01,-1.094346237182617188e+02,-1.227477908134460449e+00,-3.505169630050659180e+00,-1.001770210266113281e+01,-6.823468720540404320e-05,-5.283135175704956055e-01,9.584540128707885742e-01,2.011003234656527638e-04,-4.560668468475341797e-01,3.076795041561126709e-01,-4.120125293731689453e+00,1.000000000000000000e+00,-2.333450317382812500e-02,0.000000000000000000e+00
1.312042951583862305e+00,6.572681274414062500e+02,1.648686027526855469e+01,1.648686027526855469e+01,-2.293440848588943481e-01,-1.094346237182617188e+02,-1.227477908134460449e+00,-3.505169630050659180e+00,-1.001770210266113281e+01,-6.823468720540404320e-05,-5.283135175704956055e-01,9.584540128707885742e-01,2.011003234656527638e-04,-4.560668468475341797e-01,3.076795041561126709e-01,-4.120125293731689453e+00,1.000000000000000000e+00,-2.333450317382812500e-02,0.000000000000000000e+00
1.383129358291625977e+00,6.570230102539062500e+02,1.580404376983642578e+01,1.580404376983642578e+01,-2.124598473310470581e-01,-1.098038330078125000e+02,-1.230163693428039551e+00,-3.576604843139648438e+00,-1.002519512176513672e+01,-6.751090404577553272e-05,-1.004906773567199707e+00,-1.054071933031082153e-01,1.018173770717112347e-05,4.740359187126159668e-01,-3.148189485073089600e-01,-5.507085800170898438e+00,1.000000000000000000e+00,-3.515116497874259949e-02,0.000000000000000000e+00
1.383129358291625977e+00,6.570230102539062500e+02,1.580404376983642578e+01,1.580404376983642578e+01,-2.124598473310470581e-01,-1.098038330078125000e+02,-1.230163693428039551e+00,-3.576604843139648438e+00,-1.002519512176513672e+01,-6.751090404577553272e-05,-1.004906773567199707e+00,-1.054071933031082153e-01,1.018173770717112347e-05,4.740359187126159668e-01,-3.148189485073089600e-01,-5.507085800170898438e+00,1.000000000000000000e+00,-3.515116497874259949e-02,0.000000000000000000e+00
1.383129358291625977e+00,6.570230102539062500e+02,1.580404376983642578e+01,1.580404376983642578e+01,-2.124598473310470581e-01,-1.098038330078125000e+02,-1.230163693428039551e+00,-3.576604843139648438e+00,-1.002519512176513672e+01,-6.751090404577553272e-05,-1.004906773567199707e+00,-1.054071933031082153e-01,1.018173770717112347e-05,4.740359187126159668e-01,-3.148189485073089600e-01,-5.507085800170898438e+00,1.000000000000000000e+00,-3.515116497874259949e-02,0.000000000000000000e+00
1.450951814651489258e+00,6.567594604492187500e+02,1.508074569702148438e+01,1.508074569702148438e+01,-3.452728688716888428e-01,-1.101166992187500000e+02,-1.239196896553039551e+00,-3.744449377059936523e+00,-1.031462287902832031e+01,-1.052420630003325641e-04,-2.474763393402099609e+00,-4.267432689666748047e+00,-5.563225131481885910e-04,2.130538225173950195e+00,-8.827230334281921387e-01,-3.882602453231811523e+00,1.000000000000000000e+00,-2.605387382209300995e-02,0.000000000000000000e+00
1.450951814651489258e+00,6.567594604492187500e+02,1.508074569702148438e+01,1.508074569702148438e+01,-3.452728688716888428e-01,-1.101166992187500000e+02,-1.239196896553039551e+00,-3.744449377059936523e+00,-1.031462287902832031e+01,-1.052420630003325641e-04,-2.474763393402099609e+00,-4.267432689666748047e+00,-5.563225131481885910e-04,2.130538225173950195e+00,-8.827230334281921387e-01,-3.882602453231811523e+00,1.000000000000000000e+00,-2.605387382209300995e-02,0.000000000000000000e+00
1.450951814651489258e+00,6.567594604492187500e+02,1.508074569702148438e+01,1.508074569702148438e+01,-3.452728688716888428e-01,-1.101166992187500000e+02,-1.239196896553039551e+00,-3.744449377059936523e+00,-1.031462287902832031e+01,-1.052420630003325641e-04,-2.474763393402099609e+00,-4.267432689666748047e+00,-5.563225131481885910e-04,2.130538225173950195e+00,-8.827230334281921387e-01,-3.882602453231811523e+00,1.000000000000000000e+00,-2.605387382209300995e-02,0.000000000000000000e+00
1.527701377868652344e+00,6.564976196289062500e+02,1.437090396881103516e+01,1.437090396881103516e+01,-4.972513914108276367e-01,-1.103208236694335938e+02,-1.232177734375000000e+00,-3.898043394088745117e+00,-1.060178947448730469e+01,-9.184544614981859922e-05,-2.001236438751220703e+00,-3.741605758666992188e+00,1.745497429510578513e-04,2.070094585418701172e+00,-4.828703403472900391e-01,-2.614327430725097656e+00,1.000000000000000000e+00,-1.809946633875370026e-02,0.000000000000000000e+00
1.527701377868652344e+00,6.564976196289062500e+02,1.437090396881103516e+01,1.437090396881103516e+01,-4.972513914108276367e-01,-1.103208236694335938e+02,-1.232177734375000000e+00,-3.898043394088745117e+00,-1.060178947448730469e+01,-9.184544614981859922e-05,-2.001236438751220703e+00,-3.741605758666992188e+00,1.745497429510578513e-04,2.070094585418701172e+00,-4.828703403472900391e-01,-2.614327430725097656e+00,1.000000000000000000e+00,-1.809946633875370026e-02,0.000000000000000000e+00
1.527701377868652344e+00,6.564976196289062500e+02,1.437090396881103516e+01,1.437090396881103516e+01,-4.972513914108276367e-01,-1.103208236694335938e+02,-1.232177734375000000e+00,-3.898043394088745117e+00,-1.060178947448730469e+01,-9.184544614981859922e-05,-2.001236438751220703e+00,-3.741605758666992188e+00,1.745497429510578513e-04,2.070094585418701172e+00,-4.828703403472900391e-01,-2.614327430725097656e+00,1.000000000000000000e+00,-1.809946633875370026e-02,0.000000000000000000e+00
1.600134611129760742e+00,6.561862182617187500e+02,1.354470920562744141e+01,1.354470920562744141e+01,-6.327555179595947266e-01,-1.107484283447265625e+02,-1.225982546806335449e+00,-4.095481872558593750e+00,-1.091492080688476562e+01,-3.722573092090897262e-05,-2.725799560546875000e+00,-4.323034286499023438e+00,7.540698279626667500e-04,1.334228634834289551e+00,-6.439058184623718262e-01,-6.973000526428222656e+00,1.000000000000000000e+00,-6.024475023150444031e-02,0.000000000000000000e+00
1.600134611129760742e+00,6.561862182617187500e+02,1.354470920562744141e+01,1.354470920562744141e+01,-6.327555179595947266e-01,-1.107484283447265625e+02,-1.225982546806335449e+00,-4.095481872558593750e+00,-1.091492080688476562e+01,-3.722573092090897262e-05,-2.725799560546875000e+00,-4.323034286499023438e+00,7.540698279626667500e-04,1.334228634834289551e+00,-6.439058184623718262e-01,-6.973000526428222656e+00,1.000000000000000000e+00,-6.024475023150444031e-02,0.000000000000000000e+00
1.600134611129760742e+00,6.561862182617187500e+02,1.354470920562744141e+01,1.354470920562744141e+01,-6.327555179595947266e-01,-1.107484283447265625e+02,-1.225982546806335449e+00,-4.095481872558593750e+00,-1.091492080688476562e+01,-3.722573092090897262e-05,-2.725799560546875000e+00,-4.323034286499023438e+00,7.540698279626667500e-04,1.334228634834289551e+00,-6.439058184623718262e-01,-6.973000526428222656e+00,1.000000000000000000e+00,-6.024475023150444031e-02,0.000000000000000000e+00
1.600134611129760742e+00,6.561862182617187500e+02,1.354470920562744141e+01,1.354470920562744141e+01,-6.327555179595947266e-01,-1.107484283447265625e+02,-1.225982546806335449e+00,-4.095481872558593750e+00,-1.091492080688476562e+01,-3.722573092090897262e-05,-2.725799560546875000e+00,-4.323034286499023438e+00,7.540698279626667500e-04,1.334228634834289551e+00,-6.439058184623718262e-01,-6.973000526428222656e+00,1.000000000000000000e+00,-6.024475023150444031e-02,0.000000000000000000e+00
1.600134611129760742e+00,6.561862182617187500e+02,1.354470920562744141e+01,1.354470920562744141e+01,-6.327555179595947266e-01,-1.107484283447265625e+02,-1.225982546806335449e+00,-4.095481872558593750e+00,-1.091492080688476562e+01,-3.722573092090897262e-05,-2.725799560546875000e+00,-4.323034286499023438e+00,7.540698279626667500e-04,1.334228634834289551e+00,-6.439058184623718262e-01,-6.973000526428222656e+00,1.000000000000000000e+00,-6.024475023150444031e-02,0.000000000000000000e+00
1.600134611129760742e+00,6.558766479492187500e+02,1.274372768402099609e+01,1.274372768402099609e+01,-7.133175730705261230e-01,-1.113000793457031250e+02,-1.273773431777954102e+00,-4.305097579956054688e+00,-1.119726657867431641e+01,-2.481101000739727169e-05,-1.816760063171386719e+00,-2.447118759155273438e+00,1.075996187864802778e-04,4.634665548801422119e-01,-1.323960781097412109e+00,-7.861122131347656250e+00,1.000000000000000000e+00,-5.705922469496726990e-02,0.000000000000000000e+00
1.715513467788696289e+00,6.558766479492187500e+02,1.274372768402099609e+01,1.274372768402099609e+01,-7.133175730705261230e-01,-1.113000793457031250e+02,-1.273773431777954102e+00,-4.305097579956054688e+00,-1.119726657867431641e+01,-2.481101000739727169e-05,-1.816760063171386719e+00,-2.447118759155273438e+00,1.075996187864802778e-04,4.634665548801422119e-01,-1.323960781097412109e+00,-7.861122131347656250e+00,1.000000000000000000e+00,-5.705922469496726990e-02,0.000000000000000000e+00
1.715513467788696289e+00,6.558766479492187500e+02,1.274372768402099609e+01,1.274372768402099609e+01,-7.133175730705261230e-01,-1.113000793457031250e+02,-1.273773431777954102e+00,-4.305097579956054688e+00,-1.119726657867431641e+01,-2.481101000739727169e-05,-1.816760063171386719e+00,-2.447118759155273438e+00,1.075996187864802778e-04,4.634665548801422119e-01,-1.323960781097412109e+00,-7.861122131347656250e+00,1.000000000000000000e+00,-5.705922469496726990e-02,0.000000000000000000e+00
1.715513467788696289e+00,6.554234008789062500e+02,1.160419654846191406e+01,1.160419654846191406e+01,-7.761484980583190918e-01,-1.120193481445312500e+02,-1.452789425849914551e+00,-4.612460613250732422e+00,-1.157190132141113281e+01,-1.118282889365218580e-04,-3.149158239364624023e+00,-3.838405847549438477e+00,-8.915554499253630638e-04,-4.163130819797515869e-01,-2.214666843414306641e+00,-6.857169628143310547e+00,1.000000000000000000e+00,-4.966583102941513062e-02,0.000000000000000000e+00
1.813115119934082031e+00,6.554234008789062500e+02,1.160419654846191406e+01,1.160419654846191406e+01,-7.761484980583190918e-01,-1.120193481445312500e+02,-1.452789425849914551e+00,-4.612460613250732422e+00,-1.157190132141113281e+01,-1.118282889365218580e-04,-3.149158239364624023e+00,-3.838405847549438477e+00,-8.915554499253630638e-04,-4.163130819797515869e-01,-2.214666843414306641e+00,-6.857169628143310547e+00,1.000000000000000000e+00,-4.966583102941513062e-02,0.000000000000000000e+00
1.813115119934082031e+00,6.554234008789062500e+02,1.160419654846191406e+01,1.160419654846191406e+01,-7.761484980583190918e-01,-1.120193481445312500e+02,-1.452789425849914551e+00,-4.612460613250732422e+00,-1.157190132141113281e+01,-1.118282889365218580e-04,-3.149158239364624023e+00,-3.838405847549438477e+00,-8.915554499253630638e-04,-4.163130819797515869e-01,-2.214666843414306641e+00,-6.857169628143310547e+00,1.000000000000000000e+00,-4.966583102941513062e-02,0.000000000000000000e+00
1.813115119934082031e+00,6.554234008789062500e+02,1.160419654846191406e+01,1.160419654846191406e+01,-7.761484980583190918e-01,-1.120193481445312500e+02,-1.452789425849914551e+00,-4.612460613250732422e+00,-1.157190132141113281e+01,-1.118282889365218580e-04,-3.149158239364624023e+00,-3.838405847549438477e+00,-8.915554499253630638e-04,-4.163130819797515869e-01,-2.214666843414306641e+00,-6.857169628143310547e+00,1.000000000000000000e+00,-4.966583102941513062e-02,0.000000000000000000e+00
1.813115119934082031e+00,6.549459228515625000e+02,1.045877552032470703e+01,1.045877552032470703e+01,-8.058461546897888184e-01,-1.131322250366210938e+02,-1.776611447334289551e+00,-4.975401878356933594e+00,-1.190003108978271484e+01,-5.736752646043896675e-04,-4.371747016906738281e+00,-3.952430963516235352e+00,-5.563098937273025513e-03,-1.406468152999877930e+00,-4.017334461212158203e+00,-1.359626960754394531e+01,1.000000000000000000e+00,-1.052019745111465454e-01,0.000000000000000000e+00
1.896134853363037109e+00,6.549459228515625000e+02,1.045877552032470703e+01,1.045877552032470703e+01,-8.058461546897888184e-01,-1.131322250366210938e+02,-1.776611447334289551e+00,-4.975401878356933594e+00,-1.190003108978271484e+01,-5.736752646043896675e-04,-4.371747016906738281e+00,-3.952430963516235352e+00,-5.563098937273025513e-03,-1.406468152999877930e+00,-4.017334461212158203e+00,-1.359626960754394531e+01,1.000000000000000000e+00,-1.052019745111465454e-01,0.000000000000000000e+00
1.896134853363037109e+00,6.549459228515625000e+02,1.045877552032470703e+01,1.045877552032470703e+01,-8.058461546897888184e-01,-1.131322250366210938e+02,-1.776611447334289551e+00,-4.975401878356933594e+00,-1.190003108978271484e+01,-5.736752646043896675e-04,-4.371747016906738281e+00,-3.952430963516235352e+00,-5.563098937273025513e-03,-1.406468152999877930e+00,-4.017334461212158203e+00,-1.359626960754394531e+01,1.000000000000000000e+00,-1.052019745111465454e-01,0.000000000000000000e+00
1.896134853363037109e+00,6.549459228515625000e+02,1.045877552032470703e+01,1.045877552032470703e+01,-8.058461546897888184e-01,-1.131322250366210938e+02,-1.776611447334289551e+00,-4.975401878356933594e+00,-1.190003108978271484e+01,-5.736752646043896675e-04,-4.371747016906738281e+00,-3.952430963516235352e+00,-5.563098937273025513e-03,-1.406468152999877930e+00,-4.017334461212158203e+00,-1.359626960754394531e+01,1.000000000000000000e+00,-1.052019745111465454e-01,0.000000000000000000e+00
1.896134853363037109e+00,6.549459228515625000e+02,1.045877552032470703e+01,1.045877552032470703e+01,-8.058461546897888184e-01,-1.131322250366210938e+02,-1.776611447334289551e+00,-4.975401878356933594e+00,-1.190003108978271484e+01,-5.736752646043896675e-04,-4.371747016906738281e+00,-3.952430963516235352e+00,-5.563098937273025513e-03,-1.406468152999877930e+00,-4.017334461212158203e+00,-1.359626960754394531e+01,1.000000000000000000e+00,-1.052019745111465454e-01,0.000000000000000000e+00
1.896134853363037109e+00,6.549459228515625000e+02,1.045877552032470703e+01,1.045877552032470703e+01,-8.058461546897888184e-01,-1.131322250366210938e+02,-1.776611447334289551e+00,-4.975401878356933594e+00,-1.190003108978271484e+01,-5.736752646043896675e-04,-4.371747016906738281e+00,-3.952430963516235352e+00,-5.563098937273025513e-03,-1.406468152999877930e+00,-4.017334461212158203e+00,-1.359626960754394531e+01,1.000000000000000000e+00,-1.052019745111465454e-01,0.000000000000000000e+00
1.896134853363037109e+00,6.549459228515625000e+02,1.045877552032470703e+01,1.045877552032470703e+01,-8.058461546897888184e-01,-1.131322250366210938e+02,-1.776611447334289551e+00,-4.975401878356933594e+00,-1.190003108978271484e+01,-5.736752646043896675e-04,-4.371747016906738281e+00,-3.952430963516235352e+00,-5.563098937273025513e-03,-1.406468152999877930e+00,-4.017334461212158203e+00,-1.359626960754394531e+01,1.000000000000000000e+00,-1.052019745111465454e-01,0.000000000000000000e+00
1.896134853363037109e+00,6.549459228515625000e+02,1.045877552032470703e+01,1.045877552032470703e+01,-8.058461546897888184e-01,-1.131322250366210938e+02,-1.776611447334289551e+00,-4.975401878356933594e+00,-1.190003108978271484e+01,-5.736752646043896675e-04,-4.371747016906738281e+00,-3.952430963516235352e+00,-5.563098937273025513e-03,-1.406468152999877930e+00,-4.017334461212158203e+00,-1.359626960754394531e+01,1.000000000000000000e+00,-1.052019745111465454e-01,0.000000000000000000e+00
2.195794820785522461e+00,6.536178588867187500e+02,7.633856773376464844e+00,7.633856773376464844e+00,8.296493887901306152e-01,-1.201304244995117188e+02,-3.134827136993408203e+00,-3.941913366317749023e+00,-8.373147964477539062e+00,-3.346443176269531250e-02,1.222702789306640625e+01,3.027922630310058594e+01,-6.073527336120605469e-01,-1.676442623138427734e+00,7.465646862983703613e-01,-3.044712448120117188e+01,1.000000000000000000e+00,-1.038602218031883240e-01,0.000000000000000000e+00
2.195794820785522461e+00,6.536178588867187500e+02,7.633856773376464844e+00,7.633856773376464844e+00,8.296493887901306152e-01,-1.201304244995117188e+02,-3.134827136993408203e+00,-3.941913366317749023e+00,-8.373147964477539062e+00,-3.346443176269531250e-02,1.222702789306640625e+01,3.027922630310058594e+01,-6.073527336120605469e-01,-1.676442623138427734e+00,7.465646862983703613e-01,-3.044712448120117188e+01,1.000000000000000000e+00,-1.038602218031883240e-01,0.000000000000000000e+00
2.195794820785522461e+00,6.536178588867187500e+02,7.633856773376464844e+00,7.633856773376464844e+00,8.296493887901306152e-01,-1.201304244995117188e+02,-3.134827136993408203e+00,-3.941913366317749023e+00,-8.373147964477539062e+00,-3.346443176269531250e-02,1.222702789306640625e+01,3.027922630310058594e+01,-6.073527336120605469e-01,-1.676442623138427734e+00,7.465646862983703613e-01,-3.044712448120117188e+01,1.000000000000000000e+00,-1.038602218031883240e-01,0.000000000000000000e+00
2.195794820785522461e+00,6.536178588867187500e+02,7.633856773376464844e+00,7.633856773376464844e+00,8.296493887901306152e-01,-1.201304244995117188e+02,-3.134827136993408203e+00,-3.941913366317749023e+00,-8.373147964477539062e+00,-3.346443176269531250e-02,1.222702789306640625e+01,3.027922630310058594e+01,-6.073527336120605469e-01,-1.676442623138427734e+00,7.465646862983703613e-01,-3.044712448120117188e+01,1.000000000000000000e+00,-1.038602218031883240e-01,0.000000000000000000e+00
2.195794820785522461e+00,6.536178588867187500e+02,7.633856773376464844e+00,7.633856773376464844e+00,8.296493887901306152e-01,-1.201304244995117188e+02,-3.134827136993408203e+00,-3.941913366317749023e+00,-8.373147964477539062e+00,-3.346443176269531250e-02,1.222702789306640625e+01,3.027922630310058594e+01,-6.073527336120605469e-01,-1.676442623138427734e+00,7.465646862983703613e-01,-3.044712448120117188e+01,1.000000000000000000e+00,-1.038602218031883240e-01,0.000000000000000000e+00
2.195794820785522461e+00,6.536178588867187500e+02,7.633856773376464844e+00,7.633856773376464844e+00,8.296493887901306152e-01,-1.201304244995117188e+02,-3.134827136993408203e+00,-3.941913366317749023e+00,-8.373147964477539062e+00,-3.346443176269531250e-02,1.222702789306640625e+01,3.027922630310058594e+01,-6.073527336120605469e-01,-1.676442623138427734e+00,7.465646862983703613e-01,-3.044712448120117188e+01,1.000000000000000000e+00,-1.038602218031883240e-01,0.000000000000000000e+00
2.195794820785522461e+00,6.536178588867187500e+02,7.633856773376464844e+00,7.633856773376464844e+00,8.296493887901306152e-01,-1.201304244995117188e+02,-3.134827136993408203e+00,-3.941913366317749023e+00,-8.373147964477539062e+00,-3.346443176269531250e-02,1.222702789306640625e+01,3.027922630310058594e+01,-6.073527336120605469e-01,-1.676442623138427734e+00,7.465646862983703613e-01,-3.044712448120117188e+01,1.000000000000000000e+00,-1.038602218031883240e-01,0.000000000000000000e+00
2.195794820785522461e+00,6.536178588867187500e+02,7.633856773376464844e+00,7.633856773376464844e+00,8.296493887901306152e-01,-1.201304244995117188e+02,-3.134827136993408203e+00,-3.941913366317749023e+00,-8.373147964477539062e+00,-3.346443176269531250e-02,1.222702789306640625e+01,3.027922630310058594e+01,-6.073527336120605469e-01,-1.676442623138427734e+00,7.465646862983703613e-01,-3.044712448120117188e+01,1.000000000000000000e+00,-1.038602218031883240e-01,0.000000000000000000e+00
2.195794820785522461e+00,6.536178588867187500e+02,7.633856773376464844e+00,7.633856773376464844e+00,8.296493887901306152e-01,-1.201304244995117188e+02,-3.134827136993408203e+00,-3.941913366317749023e+00,-8.373147964477539062e+00,-3.346443176269531250e-02,1.222702789306640625e+01,3.027922630310058594e+01,-6.073527336120605469e-01,-1.676442623138427734e+00,7.465646862983703613e-01,-3.044712448120117188e+01,1.000000000000000000e+00,-1.038602218031883240e-01,0.000000000000000000e+00
2.195794820785522461e+00,6.536178588867187500e+02,7.633856773376464844e+00,7.633856773376464844e+00,8.296493887901306152e-01,-1.201304244995117188e+02,-3.134827136993408203e+00,-3.941913366317749023e+00,-8.373147964477539062e+00,-3.346443176269531250e-02,1.222702789306640625e+01,3.027922630310058594e+01,-6.073527336120605469e-01,-1.676442623138427734e+00,7.465646862983703613e-01,-3.044712448120117188e+01,1.000000000000000000e+00,-1.038602218031883240e-01,0.000000000000000000e+00
2.374083757400512695e+00,6.534080810546875000e+02,7.223986625671386719e+00,7.223986625671386719e+00,7.628842592239379883e-01,-1.212007141113281250e+02,-3.164551019668579102e+00,-3.861216068267822266e+00,-7.568375587463378906e+00,-4.288840293884277344e-02,4.526208937168121338e-01,4.513865947723388672e+00,-5.285785719752311707e-02,2.316297531127929688e+00,-5.083920001983642578e+00,-8.215371131896972656e+00,1.000000000000000000e+00,-2.624969556927680969e-02,0.000000000000000000e+00
2.374083757400512695e+00,6.534080810546875000e+02,7.223986625671386719e+00,7.223986625671386719e+00,7.628842592239379883e-01,-1.212007141113281250e+02,-3.164551019668579102e+00,-3.861216068267822266e+00,-7.568375587463378906e+00,-4.288840293884277344e-02,4.526208937168121338e-01,4.513865947723388672e+00,-5.285785719752311707e-02,2.316297531127929688e+00,-5.083920001983642578e+00,-8.215371131896972656e+00,1.000000000000000000e+00,-2.624969556927680969e-02,0.000000000000000000e+00
2.374083757400512695e+00,6.534080810546875000e+02,7.223986625671386719e+00,7.223986625671386719e+00,7.628842592239379883e-01,-1.212007141113281250e+02,-3.164551019668579102e+00,-3.861216068267822266e+00,-7.568375587463378906e+00,-4.288840293884277344e-02,4.526208937168121338e-01,4.513865947723388672e+00,-5.285785719752311707e-02,2.316297531127929688e+00,-5.083920001983642578e+00,-8.215371131896972656e+00,1.000000000000000000e+00,-2.624969556927680969e-02,0.000000000000000000e+00
2.447860002517700195e+00,6.529874267578125000e+02,6.466066837310791016e+00,6.466066837310791016e+00,-2.342208325862884521e-01,-1.206755142211914062e+02,-3.758668184280395508e+00,-4.528654575347900391e+00,-7.706727027893066406e+00,-7.594015449285507202e-03,-9.046793937683105469e+00,-1.875284433364868164e+00,4.783977270126342773e-01,3.314461469650268555e+00,-8.038949966430664062e+00,5.116622924804687500e+00,1.000000000000000000e+00,7.987975841388106346e-04,0.000000000000000000e+00
2.447860002517700195e+00,6.529874267578125000e+02,6.466066837310791016e+00,6.466066837310791016e+00,-2.342208325862884521e-01,-1.206755142211914062e+02,-3.758668184280395508e+00,-4.528654575347900391e+00,-7.706727027893066406e+00,-7.594015449285507202e-03,-9.046793937683105469e+00,-1.875284433364868164e+00,4.783977270126342773e-01,3.314461469650268555e+00,-8.038949966430664062e+00,5.116622924804687500e+00,1.000000000000000000e+00,7.987975841388106346e-04,0.000000000000000000e+00
2.500878810882568359e+00,6.526395263671875000e+02,5.887244224548339844e+00,5.887244224548339844e+00,-2.866562008857727051e-01,-1.209691162109375000e+02,-3.771790742874145508e+00,-4.781894683837890625e+00,-7.969412803649902344e+00,1.655159145593643188e-02,-4.776420116424560547e+00,-4.954576969146728516e+00,4.554158747196197510e-01,3.255523204803466797e+00,-9.451920390129089355e-01,-7.603218555450439453e+00,1.000000000000000000e+00,-8.824361115694046021e-02,0.000000000000000000e+00
2.500878810882568359e+00,6.526395263671875000e+02,5.887244224548339844e+00,5.887244224548339844e+00,-2.866562008857727051e-01,-1.209691162109375000e+02,-3.771790742874145508e+00,-4.781894683837890625e+00,-7.969412803649902344e+00,1.655159145593643188e-02,-4.776420116424560547e+00,-4.954576969146728516e+00,4.554158747196197510e-01,3.255523204803466797e+00,-9.451920390129089355e-01,-7.603218555450439453e+00,1.000000000000000000e+00,-8.824361115694046021e-02,0.000000000000000000e+00
2.560195446014404297e+00,6.523754272460937500e+02,5.461896419525146484e+00,5.461896419525146484e+00,-3.681061863899230957e-01,-1.215108337402343750e+02,-3.617218494415283203e+00,-4.964465618133544922e+00,-8.148386955261230469e+00,1.192284282296895981e-02,-3.077904462814331055e+00,-3.017267465591430664e+00,-7.803457975387573242e-02,4.880436420440673828e+00,5.839142948389053345e-02,-1.113226699829101562e+01,1.000000000000000000e+00,-9.328892827033996582e-02,0.000000000000000000e+00
2.560195446014404297e+00,6.523754272460937500e+02,5.461896419525146484e+00,5.461896419525146484e+00,-3.681061863899230957e-01,-1.215108337402343750e+02,-3.617218494415283203e+00,-4.964465618133544922e+00,-8.148386955261230469e+00,1.192284282296895981e-02,-3.077904462814331055e+00,-3.017267465591430664e+00,-7.803457975387573242e-02,4.880436420440673828e+00,5.839142948389053345e-02,-1.113226699829101562e+01,1.000000000000000000e+00,-9.328892827033996582e-02,0.000000000000000000e+00
2.560195446014404297e+00,6.523754272460937500e+02,5.461896419525146484e+00,5.461896419525146484e+00,-3.681061863899230957e-01,-1.215108337402343750e+02,-3.617218494415283203e+00,-4.964465618133544922e+00,-8.148386955261230469e+00,1.192284282296895981e-02,-3.077904462814331055e+00,-3.017267465591430664e+00,-7.803457975387573242e-02,4.880436420440673828e+00,5.839142948389053345e-02,-1.113226699829101562e+01,1.000000000000000000e+00,-9.328892827033996582e-02,0.000000000000000000e+00
2.618730545043945312e+00,6.520667114257812500e+02,4.975571632385253906e+00,4.975571632385253906e+00,-4.697598814964294434e-01,-1.222005310058593750e+02,-3.371521949768066406e+00,-5.188598632812500000e+00,-8.339851379394531250e+00,6.061990279704332352e-03,-3.829036235809326172e+00,-3.270933628082275391e+00,-1.001254394650459290e-01,5.657392501831054688e+00,2.239708304405212402e-01,-1.152417755126953125e+01,1.000000000000000000e+00,-8.258184045553207397e-02,0.000000000000000000e+00
2.618730545043945312e+00,6.520667114257812500e+02,4.975571632385253906e+00,4.975571632385253906e+00,-4.697598814964294434e-01,-1.222005310058593750e+02,-3.371521949768066406e+00,-5.188598632812500000e+00,-8.339851379394531250e+00,6.061990279704332352e-03,-3.829036235809326172e+00,-3.270933628082275391e+00,-1.001254394650459290e-01,5.657392501831054688e+00,2.239708304405212402e-01,-1.152417755126953125e+01,1.000000000000000000e+00,-8.258184045553207397e-02,0.000000000000000000e+00
2.677334070205688477e+00,6.517490234375000000e+02,4.484595298767089844e+00,4.484595298767089844e+00,-5.542902946472167969e-01,-1.228212890625000000e+02,-3.112763643264770508e+00,-5.418318748474121094e+00,-8.522381782531738281e+00,-4.380538666737265885e-05,-3.919902563095092773e+00,-3.114665985107421875e+00,-1.041881963610649109e-01,5.780381679534912109e+00,-1.103681772947311401e-01,-9.867060661315917969e+00,1.000000000000000000e+00,-6.580403447151184082e-02,0.000000000000000000e+00
2.677334070205688477e+00,6.517490234375000000e+02,4.484595298767089844e+00,4.484595298767089844e+00,-5.542902946472167969e-01,-1.228212890625000000e+02,-3.112763643264770508e+00,-5.418318748474121094e+00,-8.522381782531738281e+00,-4.380538666737265885e-05,-3.919902563095092773e+00,-3.114665985107421875e+00,-1.041881963610649109e-01,5.780381679534912109e+00,-1.103681772947311401e-01,-9.867060661315917969e+00,1.000000000000000000e+00,-6.580403447151184082e-02,0.000000000000000000e+00
2.677334070205688477e+00,6.517490234375000000e+02,4.484595298767089844e+00,4.484595298767089844e+00,-5.542902946472167969e-01,-1.228212890625000000e+02,-3.112763643264770508e+00,-5.418318748474121094e+00,-8.522381782531738281e+00,-4.380538666737265885e-05,-3.919902563095092773e+00,-3.114665985107421875e+00,-1.041881963610649109e-01,5.780381679534912109e+00,-1.103681772947311401e-01,-9.867060661315917969e+00,1.000000000000000000e+00,-6.580403447151184082e-02,0.000000000000000000e+00
2.677334070205688477e+00,6.514161987304687500e+02,3.983232975006103516e+00,3.983232975006103516e+00,-6.275645494461059570e-01,-1.235268173217773438e+02,-2.890747308731079102e+00,-5.669442176818847656e+00,-8.688144683837890625e+00,-5.076503846794366837e-03,-3.232342958450317383e+00,-2.133622169494628906e+00,-6.477853655815124512e-02,5.232883930206298828e+00,-1.139196634292602539e+00,-1.268151187896728516e+01,1.000000000000000000e+00,-1.015111282467842102e-01,0.000000000000000000e+00
2.755024909973144531e+00,6.514161987304687500e+02,3.983232975006103516e+00,3.983232975006103516e+00,-6.275645494461059570e-01,-1.235268173217773438e+02,-2.890747308731079102e+00,-5.669442176818847656e+00,-8.688144683837890625e+00,-5.076503846794366837e-03,-3.232342958450317383e+00,-2.133622169494628906e+00,-6.477853655815124512e-02,5.232883930206298828e+00,-1.139196634292602539e+00,-1.268151187896728516e+01,1.000000000000000000e+00,-1.015111282467842102e-01,0.000000000000000000e+00
2.755024909973144531e+00,6.514161987304687500e+02,3.983232975006103516e+00,3.983232975006103516e+00,-6.275645494461059570e-01,-1.235268173217773438e+02,-2.890747308731079102e+00,-5.669442176818847656e+00,-8.688144683837890625e+00,-5.076503846794366837e-03,-3.232342958450317383e+00,-2.133622169494628906e+00,-6.477853655815124512e-02,5.232883930206298828e+00,-1.139196634292602539e+00,-1.268151187896728516e+01,1.000000000000000000e+00,-1.015111282467842102e-01,0.000000000000000000e+00
2.755024909973144531e+00,6.514161987304687500e+02,3.983232975006103516e+00,3.983232975006103516e+00,-6.275645494461059570e-01,-1.235268173217773438e+02,-2.890747308731079102e+00,-5.669442176818847656e+00,-8.688144683837890625e+00,-5.076503846794366837e-03,-3.232342958450317383e+00,-2.133622169494628906e+00,-6.477853655815124512e-02,5.232883930206298828e+00,-1.139196634292602539e+00,-1.268151187896728516e+01,1.000000000000000000e+00,-1.015111282467842102e-01,0.000000000000000000e+00
2.830169916152954102e+00,6.509518432617187500e+02,3.303931236267089844e+00,3.303931236267089844e+00,-6.977174282073974609e-01,-1.245083007812500000e+02,-2.700897693634033203e+00,-6.014254570007324219e+00,-8.895413398742675781e+00,-1.046245079487562180e-02,-4.588626861572265625e+00,-2.758249998092651367e+00,-7.167404890060424805e-02,4.263286113739013672e+00,-2.743236064910888672e+00,-1.225836563110351562e+01,1.000000000000000000e+00,-8.718490600585937500e-02,0.000000000000000000e+00
2.830169916152954102e+00,6.509518432617187500e+02,3.303931236267089844e+00,3.303931236267089844e+00,-6.977174282073974609e-01,-1.245083007812500000e+02,-2.700897693634033203e+00,-6.014254570007324219e+00,-8.895413398742675781e+00,-1.046245079487562180e-02,-4.588626861572265625e+00,-2.758249998092651367e+00,-7.167404890060424805e-02,4.263286113739013672e+00,-2.743236064910888672e+00,-1.225836563110351562e+01,1.000000000000000000e+00,-8.718490600585937500e-02,0.000000000000000000e+00
2.830169916152954102e+00,6.509518432617187500e+02,3.303931236267089844e+00,3.303931236267089844e+00,-6.977174282073974609e-01,-1.245083007812500000e+02,-2.700897693634033203e+00,-6.014254570007324219e+00,-8.895413398742675781e+00,-1.046245079487562180e-02,-4.588626861572265625e+00,-2.758249998092651367e+00,-7.167404890060424805e-02,4.263286113739013672e+00,-2.743236064910888672e+00,-1.225836563110351562e+01,1.000000000000000000e+00,-8.718490600585937500e-02,0.000000000000000000e+00
2.830169916152954102e+00,6.509518432617187500e+02,3.303931236267089844e+00,3.303931236267089844e+00,-6.977174282073974609e-01,-1.245083007812500000e+02,-2.700897693634033203e+00,-6.014254570007324219e+00,-8.895413398742675781e+00,-1.046245079487562180e-02,-4.588626861572265625e+00,-2.758249998092651367e+00,-7.167404890060424805e-02,4.263286113739013672e+00,-2.743236064910888672e+00,-1.225836563110351562e+01,1.000000000000000000e+00,-8.718490600585937500e-02,0.000000000000000000e+00
2.830169916152954102e+00,6.509518432617187500e+02,3.303931236267089844e+00,3.303931236267089844e+00,-6.977174282073974609e-01,-1.245083007812500000e+02,-2.700897693634033203e+00,-6.014254570007324219e+00,-8.895413398742675781e+00,-1.046245079487562180e-02,-4.588626861572265625e+00,-2.758249998092651367e+00,-7.167404890060424805e-02,4.263286113739013672e+00,-2.743236064910888672e+00,-1.225836563110351562e+01,1.000000000000000000e+00,-8.718490600585937500e-02,0.000000000000000000e+00
