# Time,X,Y,Z,Roll,Pitch,Yaw,Vx,Vy,Vz,Ax,Ay,Az,Wx,Wy,Wz,Throttle,Steer,Brake
0.000000000000000000e+00,2.226405181884765625e+02,4.887066650390625000e+01,4.887066650390625000e+01,3.480527698993682861e-01,-3.221740722656250000e-01,-4.342651739716529846e-02,1.384631729125976562e+01,-4.150005802512168884e-02,-3.620589268393814564e-05,-6.425197601318359375e+00,5.899598449468612671e-02,-3.452850505709648132e-04,-2.030998915433883667e-01,-1.311092495918273926e+00,6.538305878639221191e-01,1.000000000000000000e+00,4.611467942595481873e-03,0.000000000000000000e+00
1.045818328857421875e-01,2.226405181884765625e+02,4.887066650390625000e+01,4.887066650390625000e+01,3.480527698993682861e-01,-3.221740722656250000e-01,-4.342651739716529846e-02,1.384631729125976562e+01,-4.150005802512168884e-02,-3.620589268393814564e-05,-6.425197601318359375e+00,5.899598449468612671e-02,-3.452850505709648132e-04,-2.030998915433883667e-01,-1.311092495918273926e+00,6.538305878639221191e-01,1.000000000000000000e+00,4.611467942595481873e-03,0.000000000000000000e+00
1.045818328857421875e-01,2.226405181884765625e+02,4.887066650390625000e+01,4.887066650390625000e+01,3.480527698993682861e-01,-3.221740722656250000e-01,-4.342651739716529846e-02,1.384631729125976562e+01,-4.150005802512168884e-02,-3.620589268393814564e-05,-6.425197601318359375e+00,5.899598449468612671e-02,-3.452850505709648132e-04,-2.030998915433883667e-01,-1.311092495918273926e+00,6.538305878639221191e-01,1.000000000000000000e+00,4.611467942595481873e-03,0.000000000000000000e+00
1.045818328857421875e-01,2.226405181884765625e+02,4.887066650390625000e+01,4.887066650390625000e+01,3.480527698993682861e-01,-3.221740722656250000e-01,-4.342651739716529846e-02,1.384631729125976562e+01,-4.150005802512168884e-02,-3.620589268393814564e-05,-6.425197601318359375e+00,5.899598449468612671e-02,-3.452850505709648132e-04,-2.030998915433883667e-01,-1.311092495918273926e+00,6.538305878639221191e-01,1.000000000000000000e+00,4.611467942595481873e-03,0.000000000000000000e+00
1.045818328857421875e-01,2.226405181884765625e+02,4.887066650390625000e+01,4.887066650390625000e+01,3.480527698993682861e-01,-3.221740722656250000e-01,-4.342651739716529846e-02,1.384631729125976562e+01,-4.150005802512168884e-02,-3.620589268393814564e-05,-6.425197601318359375e+00,5.899598449468612671e-02,-3.452850505709648132e-04,-2.030998915433883667e-01,-1.311092495918273926e+00,6.538305878639221191e-01,1.000000000000000000e+00,4.611467942595481873e-03,0.000000000000000000e+00
1.045818328857421875e-01,2.226405181884765625e+02,4.887066650390625000e+01,4.887066650390625000e+01,3.480527698993682861e-01,-3.221740722656250000e-01,-4.342651739716529846e-02,1.384631729125976562e+01,-4.150005802512168884e-02,-3.620589268393814564e-05,-6.425197601318359375e+00,5.899598449468612671e-02,-3.452850505709648132e-04,-2.030998915433883667e-01,-1.311092495918273926e+00,6.538305878639221191e-01,1.000000000000000000e+00,4.611467942595481873e-03,0.000000000000000000e+00
1.045818328857421875e-01,2.240099792480468750e+02,4.886672210693359375e+01,4.886672210693359375e+01,3.712412416934967041e-01,-2.181701660156250000e-01,-2.206420712172985077e-02,1.363688564300537109e+01,-2.599974162876605988e-02,-2.780450631689745933e-05,-2.000132083892822266e+00,1.480324417352676392e-01,8.023563714232295752e-05,-2.127270847558975220e-01,4.750897884368896484e-01,1.233178853988647461e+00,1.000000000000000000e+00,5.026157479733228683e-03,0.000000000000000000e+00
2.092907428741455078e-01,2.240099792480468750e+02,4.886672210693359375e+01,4.886672210693359375e+01,3.712412416934967041e-01,-2.181701660156250000e-01,-2.206420712172985077e-02,1.363688564300537109e+01,-2.599974162876605988e-02,-2.780450631689745933e-05,-2.000132083892822266e+00,1.480324417352676392e-01,8.023563714232295752e-05,-2.127270847558975220e-01,4.750897884368896484e-01,1.233178853988647461e+00,1.000000000000000000e+00,5.026157479733228683e-03,0.000000000000000000e+00
2.092907428741455078e-01,2.240099792480468750e+02,4.886672210693359375e+01,4.886672210693359375e+01,3.712412416934967041e-01,-2.181701660156250000e-01,-2.206420712172985077e-02,1.363688564300537109e+01,-2.599974162876605988e-02,-2.780450631689745933e-05,-2.000132083892822266e+00,1.480324417352676392e-01,8.023563714232295752e-05,-2.127270847558975220e-01,4.750897884368896484e-01,1.233178853988647461e+00,1.000000000000000000e+00,5.026157479733228683e-03,0.000000000000000000e+00
2.092907428741455078e-01,2.240099792480468750e+02,4.886672210693359375e+01,4.886672210693359375e+01,3.712412416934967041e-01,-2.181701660156250000e-01,-2.206420712172985077e-02,1.363688564300537109e+01,-2.599974162876605988e-02,-2.780450631689745933e-05,-2.000132083892822266e+00,1.480324417352676392e-01,8.023563714232295752e-05,-2.127270847558975220e-01,4.750897884368896484e-01,1.233178853988647461e+00,1.000000000000000000e+00,5.026157479733228683e-03,0.000000000000000000e+00
2.092907428741455078e-01,2.240099792480468750e+02,4.886672210693359375e+01,4.886672210693359375e+01,3.712412416934967041e-01,-2.181701660156250000e-01,-2.206420712172985077e-02,1.363688564300537109e+01,-2.599974162876605988e-02,-2.780450631689745933e-05,-2.000132083892822266e+00,1.480324417352676392e-01,8.023563714232295752e-05,-2.127270847558975220e-01,4.750897884368896484e-01,1.233178853988647461e+00,1.000000000000000000e+00,5.026157479733228683e-03,0.000000000000000000e+00
2.092907428741455078e-01,2.253716735839843750e+02,4.886429977416992188e+01,4.886429977416992188e+01,2.812603414058685303e-01,-9.851073473691940308e-02,-5.645751487463712692e-03,1.360951137542724609e+01,-9.760918095707893372e-03,9.001184480439405888e-06,-3.668559193611145020e-01,2.176244109869003296e-01,4.932510200887918472e-04,-1.546388566493988037e-01,1.013834357261657715e+00,1.176725506782531738e+00,1.000000000000000000e+00,3.698839107528328896e-03,0.000000000000000000e+00
2.839093208312988281e-01,2.253716735839843750e+02,4.886429977416992188e+01,4.886429977416992188e+01,2.812603414058685303e-01,-9.851073473691940308e-02,-5.645751487463712692e-03,1.360951137542724609e+01,-9.760918095707893372e-03,9.001184480439405888e-06,-3.668559193611145020e-01,2.176244109869003296e-01,4.932510200887918472e-04,-1.546388566493988037e-01,1.013834357261657715e+00,1.176725506782531738e+00,1.000000000000000000e+00,3.698839107528328896e-03,0.000000000000000000e+00
2.839093208312988281e-01,2.253716735839843750e+02,4.886429977416992188e+01,4.886429977416992188e+01,2.812603414058685303e-01,-9.851073473691940308e-02,-5.645751487463712692e-03,1.360951137542724609e+01,-9.760918095707893372e-03,9.001184480439405888e-06,-3.668559193611145020e-01,2.176244109869003296e-01,4.932510200887918472e-04,-1.546388566493988037e-01,1.013834357261657715e+00,1.176725506782531738e+00,1.000000000000000000e+00,3.698839107528328896e-03,0.000000000000000000e+00
2.839093208312988281e-01,2.253716735839843750e+02,4.886429977416992188e+01,4.886429977416992188e+01,2.812603414058685303e-01,-9.851073473691940308e-02,-5.645751487463712692e-03,1.360951137542724609e+01,-9.760918095707893372e-03,9.001184480439405888e-06,-3.668559193611145020e-01,2.176244109869003296e-01,4.932510200887918472e-04,-1.546388566493988037e-01,1.013834357261657715e+00,1.176725506782531738e+00,1.000000000000000000e+00,3.698839107528328896e-03,0.000000000000000000e+00
2.839093208312988281e-01,2.253716735839843750e+02,4.886429977416992188e+01,4.886429977416992188e+01,2.812603414058685303e-01,-9.851073473691940308e-02,-5.645751487463712692e-03,1.360951137542724609e+01,-9.760918095707893372e-03,9.001184480439405888e-06,-3.668559193611145020e-01,2.176244109869003296e-01,4.932510200887918472e-04,-1.546388566493988037e-01,1.013834357261657715e+00,1.176725506782531738e+00,1.000000000000000000e+00,3.698839107528328896e-03,0.000000000000000000e+00
3.569011688232421875e-01,2.263860473632812500e+02,4.886357879638671875e+01,4.886357879638671875e+01,2.110255062580108643e-01,-2.267455868422985077e-02,2.218827838078141212e-03,1.358967208862304688e+01,4.330708470661193132e-04,1.970950506802182645e-05,-2.718014121055603027e-01,1.396592706441879272e-01,1.467057008994743228e-04,-9.753663092851638794e-02,8.891706466674804688e-01,9.340704679489135742e-01,1.000000000000000000e+00,2.371359616518020630e-03,0.000000000000000000e+00
3.569011688232421875e-01,2.263860473632812500e+02,4.886357879638671875e+01,4.886357879638671875e+01,2.110255062580108643e-01,-2.267455868422985077e-02,2.218827838078141212e-03,1.358967208862304688e+01,4.330708470661193132e-04,1.970950506802182645e-05,-2.718014121055603027e-01,1.396592706441879272e-01,1.467057008994743228e-04,-9.753663092851638794e-02,8.891706466674804688e-01,9.340704679489135742e-01,1.000000000000000000e+00,2.371359616518020630e-03,0.000000000000000000e+00
3.569011688232421875e-01,2.263860473632812500e+02,4.886357879638671875e+01,4.886357879638671875e+01,2.110255062580108643e-01,-2.267455868422985077e-02,2.218827838078141212e-03,1.358967208862304688e+01,4.330708470661193132e-04,1.970950506802182645e-05,-2.718014121055603027e-01,1.396592706441879272e-01,1.467057008994743228e-04,-9.753663092851638794e-02,8.891706466674804688e-01,9.340704679489135742e-01,1.000000000000000000e+00,2.371359616518020630e-03,0.000000000000000000e+00
3.569011688232421875e-01,2.263860473632812500e+02,4.886357879638671875e+01,4.886357879638671875e+01,2.110255062580108643e-01,-2.267455868422985077e-02,2.218827838078141212e-03,1.358967208862304688e+01,4.330708470661193132e-04,1.970950506802182645e-05,-2.718014121055603027e-01,1.396592706441879272e-01,1.467057008994743228e-04,-9.753663092851638794e-02,8.891706466674804688e-01,9.340704679489135742e-01,1.000000000000000000e+00,2.371359616518020630e-03,0.000000000000000000e+00
4.765405654907226562e-01,2.273769226074218750e+02,4.886352539062500000e+01,4.886352539062500000e+01,1.543144583702087402e-01,2.813183702528476715e-02,5.678112152963876724e-03,1.357029056549072266e+01,5.420441273599863052e-03,2.160710391763132066e-05,-1.619995087385177612e-01,4.168668761849403381e-02,1.586098733241669834e-05,-3.934897109866142273e-02,7.021358609199523926e-01,5.739244818687438965e-01,1.000000000000000000e+00,8.708867244422435760e-04,0.000000000000000000e+00
4.765405654907226562e-01,2.273769226074218750e+02,4.886352539062500000e+01,4.886352539062500000e+01,1.543144583702087402e-01,2.813183702528476715e-02,5.678112152963876724e-03,1.357029056549072266e+01,5.420441273599863052e-03,2.160710391763132066e-05,-1.619995087385177612e-01,4.168668761849403381e-02,1.586098733241669834e-05,-3.934897109866142273e-02,7.021358609199523926e-01,5.739244818687438965e-01,1.000000000000000000e+00,8.708867244422435760e-04,0.000000000000000000e+00
4.765405654907226562e-01,2.273769226074218750e+02,4.886352539062500000e+01,4.886352539062500000e+01,1.543144583702087402e-01,2.813183702528476715e-02,5.678112152963876724e-03,1.357029056549072266e+01,5.420441273599863052e-03,2.160710391763132066e-05,-1.619995087385177612e-01,4.168668761849403381e-02,1.586098733241669834e-05,-3.934897109866142273e-02,7.021358609199523926e-01,5.739244818687438965e-01,1.000000000000000000e+00,8.708867244422435760e-04,0.000000000000000000e+00
4.765405654907226562e-01,2.273769226074218750e+02,4.886352539062500000e+01,4.886352539062500000e+01,1.543144583702087402e-01,2.813183702528476715e-02,5.678112152963876724e-03,1.357029056549072266e+01,5.420441273599863052e-03,2.160710391763132066e-05,-1.619995087385177612e-01,4.168668761849403381e-02,1.586098733241669834e-05,-3.934897109866142273e-02,7.021358609199523926e-01,5.739244818687438965e-01,1.000000000000000000e+00,8.708867244422435760e-04,0.000000000000000000e+00
4.765405654907226562e-01,2.273769226074218750e+02,4.886352539062500000e+01,4.886352539062500000e+01,1.543144583702087402e-01,2.813183702528476715e-02,5.678112152963876724e-03,1.357029056549072266e+01,5.420441273599863052e-03,2.160710391763132066e-05,-1.619995087385177612e-01,4.168668761849403381e-02,1.586098733241669834e-05,-3.934897109866142273e-02,7.021358609199523926e-01,5.739244818687438965e-01,1.000000000000000000e+00,8.708867244422435760e-04,0.000000000000000000e+00
4.765405654907226562e-01,2.273769226074218750e+02,4.886352539062500000e+01,4.886352539062500000e+01,1.543144583702087402e-01,2.813183702528476715e-02,5.678112152963876724e-03,1.357029056549072266e+01,5.420441273599863052e-03,2.160710391763132066e-05,-1.619995087385177612e-01,4.168668761849403381e-02,1.586098733241669834e-05,-3.934897109866142273e-02,7.021358609199523926e-01,5.739244818687438965e-01,1.000000000000000000e+00,8.708867244422435760e-04,0.000000000000000000e+00
4.765405654907226562e-01,2.273769226074218750e+02,4.886352539062500000e+01,4.886352539062500000e+01,1.543144583702087402e-01,2.813183702528476715e-02,5.678112152963876724e-03,1.357029056549072266e+01,5.420441273599863052e-03,2.160710391763132066e-05,-1.619995087385177612e-01,4.168668761849403381e-02,1.586098733241669834e-05,-3.934897109866142273e-02,7.021358609199523926e-01,5.739244818687438965e-01,1.000000000000000000e+00,8.708867244422435760e-04,0.000000000000000000e+00
6.200885772705078125e-01,2.287322235107421875e+02,4.886392593383789062e+01,4.886392593383789062e+01,9.729603677988052368e-02,5.353903397917747498e-02,5.241117440164089203e-03,1.354378509521484375e+01,6.116377655416727066e-03,1.731583870423492044e-05,-1.846453398466110229e-01,4.848109092563390732e-03,-2.989428503497038037e-05,6.035158876329660416e-03,4.679480195045471191e-01,9.601276367902755737e-02,1.000000000000000000e+00,-4.743584140669554472e-04,0.000000000000000000e+00
6.200885772705078125e-01,2.287322235107421875e+02,4.886392593383789062e+01,4.886392593383789062e+01,9.729603677988052368e-02,5.353903397917747498e-02,5.241117440164089203e-03,1.354378509521484375e+01,6.116377655416727066e-03,1.731583870423492044e-05,-1.846453398466110229e-01,4.848109092563390732e-03,-2.989428503497038037e-05,6.035158876329660416e-03,4.679480195045471191e-01,9.601276367902755737e-02,1.000000000000000000e+00,-4.743584140669554472e-04,0.000000000000000000e+00
6.200885772705078125e-01,2.287322235107421875e+02,4.886392593383789062e+01,4.886392593383789062e+01,9.729603677988052368e-02,5.353903397917747498e-02,5.241117440164089203e-03,1.354378509521484375e+01,6.116377655416727066e-03,1.731583870423492044e-05,-1.846453398466110229e-01,4.848109092563390732e-03,-2.989428503497038037e-05,6.035158876329660416e-03,4.679480195045471191e-01,9.601276367902755737e-02,1.000000000000000000e+00,-4.743584140669554472e-04,0.000000000000000000e+00
6.200885772705078125e-01,2.287322235107421875e+02,4.886392593383789062e+01,4.886392593383789062e+01,9.729603677988052368e-02,5.353903397917747498e-02,5.241117440164089203e-03,1.354378509521484375e+01,6.116377655416727066e-03,1.731583870423492044e-05,-1.846453398466110229e-01,4.848109092563390732e-03,-2.989428503497038037e-05,6.035158876329660416e-03,4.679480195045471191e-01,9.601276367902755737e-02,1.000000000000000000e+00,-4.743584140669554472e-04,0.000000000000000000e+00
6.200885772705078125e-01,2.287322235107421875e+02,4.886392593383789062e+01,4.886392593383789062e+01,9.729603677988052368e-02,5.353903397917747498e-02,5.241117440164089203e-03,1.354378509521484375e+01,6.116377655416727066e-03,1.731583870423492044e-05,-1.846453398466110229e-01,4.848109092563390732e-03,-2.989428503497038037e-05,6.035158876329660416e-03,4.679480195045471191e-01,9.601276367902755737e-02,1.000000000000000000e+00,-4.743584140669554472e-04,0.000000000000000000e+00
6.200885772705078125e-01,2.287322235107421875e+02,4.886392593383789062e+01,4.886392593383789062e+01,9.729603677988052368e-02,5.353903397917747498e-02,5.241117440164089203e-03,1.354378509521484375e+01,6.116377655416727066e-03,1.731583870423492044e-05,-1.846453398466110229e-01,4.848109092563390732e-03,-2.989428503497038037e-05,6.035158876329660416e-03,4.679480195045471191e-01,9.601276367902755737e-02,1.000000000000000000e+00,-4.743584140669554472e-04,0.000000000000000000e+00
7.946169376373291016e-01,2.300849609375000000e+02,4.886437988281250000e+01,4.886437988281250000e+01,6.148536130785942078e-02,4.197683930397033691e-02,2.154890913516283035e-03,1.351734828948974609e+01,2.280837157741189003e-03,1.369248093396890908e-05,-1.514756977558135986e-01,-2.197660319507122040e-02,-2.076085365843027830e-05,3.210447356104850769e-02,2.902852296829223633e-01,-2.198314070701599121e-01,1.000000000000000000e+00,-1.228201203048229218e-03,0.000000000000000000e+00
7.946169376373291016e-01,2.300849609375000000e+02,4.886437988281250000e+01,4.886437988281250000e+01,6.148536130785942078e-02,4.197683930397033691e-02,2.154890913516283035e-03,1.351734828948974609e+01,2.280837157741189003e-03,1.369248093396890908e-05,-1.514756977558135986e-01,-2.197660319507122040e-02,-2.076085365843027830e-05,3.210447356104850769e-02,2.902852296829223633e-01,-2.198314070701599121e-01,1.000000000000000000e+00,-1.228201203048229218e-03,0.000000000000000000e+00
7.946169376373291016e-01,2.300849609375000000e+02,4.886437988281250000e+01,4.886437988281250000e+01,6.148536130785942078e-02,4.197683930397033691e-02,2.154890913516283035e-03,1.351734828948974609e+01,2.280837157741189003e-03,1.369248093396890908e-05,-1.514756977558135986e-01,-2.197660319507122040e-02,-2.076085365843027830e-05,3.210447356104850769e-02,2.902852296829223633e-01,-2.198314070701599121e-01,1.000000000000000000e+00,-1.228201203048229218e-03,0.000000000000000000e+00
7.946169376373291016e-01,2.300849609375000000e+02,4.886437988281250000e+01,4.886437988281250000e+01,6.148536130785942078e-02,4.197683930397033691e-02,2.154890913516283035e-03,1.351734828948974609e+01,2.280837157741189003e-03,1.369248093396890908e-05,-1.514756977558135986e-01,-2.197660319507122040e-02,-2.076085365843027830e-05,3.210447356104850769e-02,2.902852296829223633e-01,-2.198314070701599121e-01,1.000000000000000000e+00,-1.228201203048229218e-03,0.000000000000000000e+00
8.783230781555175781e-01,2.314232330322265625e+02,4.886447525024414062e+01,4.886447525024414062e+01,8.566422760486602783e-02,1.297950558364391327e-02,-1.037597539834678173e-03,1.313447380065917969e+01,-2.622487256303429604e-03,8.886762770998757333e-06,-4.574031352996826172e+00,-5.857783555984497070e-02,-5.741177665186114609e-05,2.803550288081169128e-02,-1.055413126945495605e+00,-3.038612604141235352e-01,1.000000000000000000e+00,-1.326530589722096920e-03,0.000000000000000000e+00
8.783230781555175781e-01,2.314232330322265625e+02,4.886447525024414062e+01,4.886447525024414062e+01,8.566422760486602783e-02,1.297950558364391327e-02,-1.037597539834678173e-03,1.313447380065917969e+01,-2.622487256303429604e-03,8.886762770998757333e-06,-4.574031352996826172e+00,-5.857783555984497070e-02,-5.741177665186114609e-05,2.803550288081169128e-02,-1.055413126945495605e+00,-3.038612604141235352e-01,1.000000000000000000e+00,-1.326530589722096920e-03,0.000000000000000000e+00
9.483780860900878906e-01,2.324964752197265625e+02,4.886425781250000000e+01,4.886425781250000000e+01,1.934650987386703491e-01,-9.094237349927425385e-03,-2.349853515625000000e-03,1.260351085662841797e+01,-5.340302363038063049e-03,-5.492397121997782961e-06,-7.579228878021240234e+00,-3.879544511437416077e-02,-2.052552881650626659e-04,1.434172037988901138e-02,-1.298066854476928711e+00,-2.419268339872360229e-01,1.000000000000000000e+00,-9.109497186727821827e-04,0.000000000000000000e+00
9.483780860900878906e-01,2.324964752197265625e+02,4.886425781250000000e+01,4.886425781250000000e+01,1.934650987386703491e-01,-9.094237349927425385e-03,-2.349853515625000000e-03,1.260351085662841797e+01,-5.340302363038063049e-03,-5.492397121997782961e-06,-7.579228878021240234e+00,-3.879544511437416077e-02,-2.052552881650626659e-04,1.434172037988901138e-02,-1.298066854476928711e+00,-2.419268339872360229e-01,1.000000000000000000e+00,-9.109497186727821827e-04,0.000000000000000000e+00
9.483780860900878906e-01,2.324964752197265625e+02,4.886425781250000000e+01,4.886425781250000000e+01,1.934650987386703491e-01,-9.094237349927425385e-03,-2.349853515625000000e-03,1.260351085662841797e+01,-5.340302363038063049e-03,-5.492397121997782961e-06,-7.579228878021240234e+00,-3.879544511437416077e-02,-2.052552881650626659e-04,1.434172037988901138e-02,-1.298066854476928711e+00,-2.419268339872360229e-01,1.000000000000000000e+00,-9.109497186727821827e-04,0.000000000000000000e+00
9.483780860900878906e-01,2.324964752197265625e+02,4.886425781250000000e+01,4.886425781250000000e+01,1.934650987386703491e-01,-9.094237349927425385e-03,-2.349853515625000000e-03,1.260351085662841797e+01,-5.340302363038063049e-03,-5.492397121997782961e-06,-7.579228878021240234e+00,-3.879544511437416077e-02,-2.052552881650626659e-04,1.434172037988901138e-02,-1.298066854476928711e+00,-2.419268339872360229e-01,1.000000000000000000e+00,-9.109497186727821827e-04,0.000000000000000000e+00
9.483780860900878906e-01,2.333640136718750000e+02,4.886387634277343750e+01,4.886387634277343750e+01,2.697924673557281494e-01,-2.371215634047985077e-02,-3.021240234375000000e-03,1.223959159851074219e+01,-7.436295971274375916e-03,-1.941408845596015453e-05,-4.618322849273681641e+00,-2.659923769533634186e-02,-1.766734349075704813e-04,8.671454153954982758e-03,-9.172987341880798340e-01,-1.921203434467315674e-01,1.000000000000000000e+00,-7.020713528618216515e-04,0.000000000000000000e+00
1.027177095413208008e+00,2.333640136718750000e+02,4.886387634277343750e+01,4.886387634277343750e+01,2.697924673557281494e-01,-2.371215634047985077e-02,-3.021240234375000000e-03,1.223959159851074219e+01,-7.436295971274375916e-03,-1.941408845596015453e-05,-4.618322849273681641e+00,-2.659923769533634186e-02,-1.766734349075704813e-04,8.671454153954982758e-03,-9.172987341880798340e-01,-1.921203434467315674e-01,1.000000000000000000e+00,-7.020713528618216515e-04,0.000000000000000000e+00
1.027177095413208008e+00,2.333640136718750000e+02,4.886387634277343750e+01,4.886387634277343750e+01,2.697924673557281494e-01,-2.371215634047985077e-02,-3.021240234375000000e-03,1.223959159851074219e+01,-7.436295971274375916e-03,-1.941408845596015453e-05,-4.618322849273681641e+00,-2.659923769533634186e-02,-1.766734349075704813e-04,8.671454153954982758e-03,-9.172987341880798340e-01,-1.921203434467315674e-01,1.000000000000000000e+00,-7.020713528618216515e-04,0.000000000000000000e+00
1.095043420791625977e+00,2.343128204345703125e+02,4.886332321166992188e+01,4.886332321166992188e+01,3.172486126422882080e-01,-3.451538085937500000e-02,-2.868652110919356346e-03,1.191673946380615234e+01,-8.110298775136470795e-03,-2.475348264852073044e-05,-4.757177352905273438e+00,-9.931328706443309784e-03,-7.867516251280903816e-05,-3.179460996761918068e-03,-3.760123550891876221e-01,-1.102541908621788025e-01,1.000000000000000000e+00,-3.059617301914840937e-04,0.000000000000000000e+00
1.095043420791625977e+00,2.343128204345703125e+02,4.886332321166992188e+01,4.886332321166992188e+01,3.172486126422882080e-01,-3.451538085937500000e-02,-2.868652110919356346e-03,1.191673946380615234e+01,-8.110298775136470795e-03,-2.475348264852073044e-05,-4.757177352905273438e+00,-9.931328706443309784e-03,-7.867516251280903816e-05,-3.179460996761918068e-03,-3.760123550891876221e-01,-1.102541908621788025e-01,1.000000000000000000e+00,-3.059617301914840937e-04,0.000000000000000000e+00
1.095043420791625977e+00,2.343128204345703125e+02,4.886332321166992188e+01,4.886332321166992188e+01,3.172486126422882080e-01,-3.451538085937500000e-02,-2.868652110919356346e-03,1.191673946380615234e+01,-8.110298775136470795e-03,-2.475348264852073044e-05,-4.757177352905273438e+00,-9.931328706443309784e-03,-7.867516251280903816e-05,-3.179460996761918068e-03,-3.760123550891876221e-01,-1.102541908621788025e-01,1.000000000000000000e+00,-3.059617301914840937e-04,0.000000000000000000e+00
1.095043420791625977e+00,2.343128204345703125e+02,4.886332321166992188e+01,4.886332321166992188e+01,3.172486126422882080e-01,-3.451538085937500000e-02,-2.868652110919356346e-03,1.191673946380615234e+01,-8.110298775136470795e-03,-2.475348264852073044e-05,-4.757177352905273438e+00,-9.931328706443309784e-03,-7.867516251280903816e-05,-3.179460996761918068e-03,-3.760123550891876221e-01,-1.102541908621788025e-01,1.000000000000000000e+00,-3.059617301914840937e-04,0.000000000000000000e+00
1.168572425842285156e+00,2.351128997802734375e+02,4.886278533935546875e+01,4.886278533935546875e+01,3.244817852973937988e-01,-3.973388299345970154e-02,-2.471923595294356346e-03,1.171171283721923828e+01,-8.437141776084899902e-03,-1.752615389705169946e-05,-2.788377523422241211e+00,-4.445089027285575867e-03,9.829221380641683936e-05,-5.594030953943729401e-03,5.210670828819274902e-02,-6.077126413583755493e-02,1.000000000000000000e+00,-1.447715912945568562e-04,0.000000000000000000e+00
1.168572425842285156e+00,2.351128997802734375e+02,4.886278533935546875e+01,4.886278533935546875e+01,3.244817852973937988e-01,-3.973388299345970154e-02,-2.471923595294356346e-03,1.171171283721923828e+01,-8.437141776084899902e-03,-1.752615389705169946e-05,-2.788377523422241211e+00,-4.445089027285575867e-03,9.829221380641683936e-05,-5.594030953943729401e-03,5.210670828819274902e-02,-6.077126413583755493e-02,1.000000000000000000e+00,-1.447715912945568562e-04,0.000000000000000000e+00
1.168572425842285156e+00,2.351128997802734375e+02,4.886278533935546875e+01,4.886278533935546875e+01,3.244817852973937988e-01,-3.973388299345970154e-02,-2.471923595294356346e-03,1.171171283721923828e+01,-8.437141776084899902e-03,-1.752615389705169946e-05,-2.788377523422241211e+00,-4.445089027285575867e-03,9.829221380641683936e-05,-5.594030953943729401e-03,5.210670828819274902e-02,-6.077126413583755493e-02,1.000000000000000000e+00,-1.447715912945568562e-04,0.000000000000000000e+00
1.168572425842285156e+00,2.351128997802734375e+02,4.886278533935546875e+01,4.886278533935546875e+01,3.244817852973937988e-01,-3.973388299345970154e-02,-2.471923595294356346e-03,1.171171283721923828e+01,-8.437141776084899902e-03,-1.752615389705169946e-05,-2.788377523422241211e+00,-4.445089027285575867e-03,9.829221380641683936e-05,-5.594030953943729401e-03,5.210670828819274902e-02,-6.077126413583755493e-02,1.000000000000000000e+00,-1.447715912945568562e-04,0.000000000000000000e+00
1.168572425842285156e+00,2.359668426513671875e+02,4.886219787597656250e+01,4.886219787597656250e+01,3.046947121620178223e-01,-4.165649414062500000e-02,-1.739501836709678173e-03,1.155987930297851562e+01,-7.995514199137687683e-03,-3.280156988694216125e-06,-2.023140192031860352e+00,5.884566344320774078e-03,1.898240006994456053e-04,-9.361505508422851562e-03,3.979011178016662598e-01,-9.365443140268325806e-03,1.000000000000000000e+00,5.789276838186196983e-05,0.000000000000000000e+00
1.243620872497558594e+00,2.359668426513671875e+02,4.886219787597656250e+01,4.886219787597656250e+01,3.046947121620178223e-01,-4.165649414062500000e-02,-1.739501836709678173e-03,1.155987930297851562e+01,-7.995514199137687683e-03,-3.280156988694216125e-06,-2.023140192031860352e+00,5.884566344320774078e-03,1.898240006994456053e-04,-9.361505508422851562e-03,3.979011178016662598e-01,-9.365443140268325806e-03,1.000000000000000000e+00,5.789276838186196983e-05,0.000000000000000000e+00
1.243620872497558594e+00,2.359668426513671875e+02,4.886219787597656250e+01,4.886219787597656250e+01,3.046947121620178223e-01,-4.165649414062500000e-02,-1.739501836709678173e-03,1.155987930297851562e+01,-7.995514199137687683e-03,-3.280156988694216125e-06,-2.023140192031860352e+00,5.884566344320774078e-03,1.898240006994456053e-04,-9.361505508422851562e-03,3.979011178016662598e-01,-9.365443140268325806e-03,1.000000000000000000e+00,5.789276838186196983e-05,0.000000000000000000e+00
1.243620872497558594e+00,2.359668426513671875e+02,4.886219787597656250e+01,4.886219787597656250e+01,3.046947121620178223e-01,-4.165649414062500000e-02,-1.739501836709678173e-03,1.155987930297851562e+01,-7.995514199137687683e-03,-3.280156988694216125e-06,-2.023140192031860352e+00,5.884566344320774078e-03,1.898240006994456053e-04,-9.361505508422851562e-03,3.979011178016662598e-01,-9.365443140268325806e-03,1.000000000000000000e+00,5.789276838186196983e-05,0.000000000000000000e+00
1.312042951583862305e+00,2.368299713134765625e+02,4.886161422729492188e+01,4.886161422729492188e+01,2.634335458278656006e-01,-4.095458984375000000e-02,-1.068115234375000000e-03,1.147433185577392578e+01,-7.578835356980562210e-03,8.934586730902083218e-06,-1.250290155410766602e+00,6.089830305427312851e-03,1.785205095075070858e-04,-7.547067478299140930e-03,6.345604658126831055e-01,1.787688769400119781e-02,1.000000000000000000e+00,1.137650469900108874e-04,0.000000000000000000e+00
1.312042951583862305e+00,2.368299713134765625e+02,4.886161422729492188e+01,4.886161422729492188e+01,2.634335458278656006e-01,-4.095458984375000000e-02,-1.068115234375000000e-03,1.147433185577392578e+01,-7.578835356980562210e-03,8.934586730902083218e-06,-1.250290155410766602e+00,6.089830305427312851e-03,1.785205095075070858e-04,-7.547067478299140930e-03,6.345604658126831055e-01,1.787688769400119781e-02,1.000000000000000000e+00,1.137650469900108874e-04,0.000000000000000000e+00
1.312042951583862305e+00,2.376136627197265625e+02,4.886110305786132812e+01,4.886110305786132812e+01,2.151031345129013062e-01,-3.924560546875000000e-02,-5.798338679596781731e-04,1.145107269287109375e+01,-7.205824833363294601e-03,1.493249510531313717e-05,-3.271956443786621094e-01,5.247283261269330978e-03,8.437489304924383759e-05,-5.770809948444366455e-03,7.533814907073974609e-01,2.809381298720836639e-02,1.000000000000000000e+00,1.301646698266267776e-04,0.000000000000000000e+00
1.383129358291625977e+00,2.376136627197265625e+02,4.886110305786132812e+01,4.886110305786132812e+01,2.151031345129013062e-01,-3.924560546875000000e-02,-5.798338679596781731e-04,1.145107269287109375e+01,-7.205824833363294601e-03,1.493249510531313717e-05,-3.271956443786621094e-01,5.247283261269330978e-03,8.437489304924383759e-05,-5.770809948444366455e-03,7.533814907073974609e-01,2.809381298720836639e-02,1.000000000000000000e+00,1.301646698266267776e-04,0.000000000000000000e+00
1.383129358291625977e+00,2.376136627197265625e+02,4.886110305786132812e+01,4.886110305786132812e+01,2.151031345129013062e-01,-3.924560546875000000e-02,-5.798338679596781731e-04,1.145107269287109375e+01,-7.205824833363294601e-03,1.493249510531313717e-05,-3.271956443786621094e-01,5.247283261269330978e-03,8.437489304924383759e-05,-5.770809948444366455e-03,7.533814907073974609e-01,2.809381298720836639e-02,1.000000000000000000e+00,1.301646698266267776e-04,0.000000000000000000e+00
1.450951814651489258e+00,2.384281158447265625e+02,4.886059570312500000e+01,4.886059570312500000e+01,1.585423350334167480e-01,-3.695678710937500000e-02,-1.525878760730847716e-04,1.147238731384277344e+01,-6.724086124449968338e-03,1.733533463266212493e-05,3.142708539962768555e-01,7.102937903255224228e-03,3.542837657732889056e-05,-4.789490718394517899e-03,8.083031773567199707e-01,3.382703289389610291e-02,1.000000000000000000e+00,1.505019899923354387e-04,0.000000000000000000e+00
1.450951814651489258e+00,2.384281158447265625e+02,4.886059570312500000e+01,4.886059570312500000e+01,1.585423350334167480e-01,-3.695678710937500000e-02,-1.525878760730847716e-04,1.147238731384277344e+01,-6.724086124449968338e-03,1.733533463266212493e-05,3.142708539962768555e-01,7.102937903255224228e-03,3.542837657732889056e-05,-4.789490718394517899e-03,8.083031773567199707e-01,3.382703289389610291e-02,1.000000000000000000e+00,1.505019899923354387e-04,0.000000000000000000e+00
1.450951814651489258e+00,2.384281158447265625e+02,4.886059570312500000e+01,4.886059570312500000e+01,1.585423350334167480e-01,-3.695678710937500000e-02,-1.525878760730847716e-04,1.147238731384277344e+01,-6.724086124449968338e-03,1.733533463266212493e-05,3.142708539962768555e-01,7.102937903255224228e-03,3.542837657732889056e-05,-4.789490718394517899e-03,8.083031773567199707e-01,3.382703289389610291e-02,1.000000000000000000e+00,1.505019899923354387e-04,0.000000000000000000e+00
1.527701377868652344e+00,2.392080230712890625e+02,4.886014175415039062e+01,4.886014175415039062e+01,1.044882312417030334e-01,-3.472900390625000000e-02,1.001907294266857207e-04,1.152654552459716797e+01,-6.383793428540229797e-03,1.813642484194133431e-05,7.056484818458557129e-01,4.433806519955396652e-03,1.043771680997451767e-05,-2.890644595026969910e-03,7.884097695350646973e-01,3.210520371794700623e-02,1.000000000000000000e+00,1.335181004833430052e-04,0.000000000000000000e+00
1.527701377868652344e+00,2.392080230712890625e+02,4.886014175415039062e+01,4.886014175415039062e+01,1.044882312417030334e-01,-3.472900390625000000e-02,1.001907294266857207e-04,1.152654552459716797e+01,-6.383793428540229797e-03,1.813642484194133431e-05,7.056484818458557129e-01,4.433806519955396652e-03,1.043771680997451767e-05,-2.890644595026969910e-03,7.884097695350646973e-01,3.210520371794700623e-02,1.000000000000000000e+00,1.335181004833430052e-04,0.000000000000000000e+00
1.527701377868652344e+00,2.392080230712890625e+02,4.886014175415039062e+01,4.886014175415039062e+01,1.044882312417030334e-01,-3.472900390625000000e-02,1.001907294266857207e-04,1.152654552459716797e+01,-6.383793428540229797e-03,1.813642484194133431e-05,7.056484818458557129e-01,4.433806519955396652e-03,1.043771680997451767e-05,-2.890644595026969910e-03,7.884097695350646973e-01,3.210520371794700623e-02,1.000000000000000000e+00,1.335181004833430052e-04,0.000000000000000000e+00
1.600134611129760742e+00,2.400964965820312500e+02,4.885965347290039062e+01,4.885965347290039062e+01,4.562566056847572327e-02,-3.256225585937500000e-02,2.628971415106207132e-04,1.161832141876220703e+01,-6.106826942414045334e-03,1.341613824479281902e-05,1.267041206359863281e+00,3.823748789727687836e-03,-6.516741268569603562e-05,-1.272927620448172092e-03,7.324138879776000977e-01,2.614868804812431335e-02,1.000000000000000000e+00,1.098803404602222145e-04,0.000000000000000000e+00
1.600134611129760742e+00,2.400964965820312500e+02,4.885965347290039062e+01,4.885965347290039062e+01,4.562566056847572327e-02,-3.256225585937500000e-02,2.628971415106207132e-04,1.161832141876220703e+01,-6.106826942414045334e-03,1.341613824479281902e-05,1.267041206359863281e+00,3.823748789727687836e-03,-6.516741268569603562e-05,-1.272927620448172092e-03,7.324138879776000977e-01,2.614868804812431335e-02,1.000000000000000000e+00,1.098803404602222145e-04,0.000000000000000000e+00
1.600134611129760742e+00,2.400964965820312500e+02,4.885965347290039062e+01,4.885965347290039062e+01,4.562566056847572327e-02,-3.256225585937500000e-02,2.628971415106207132e-04,1.161832141876220703e+01,-6.106826942414045334e-03,1.341613824479281902e-05,1.267041206359863281e+00,3.823748789727687836e-03,-6.516741268569603562e-05,-1.272927620448172092e-03,7.324138879776000977e-01,2.614868804812431335e-02,1.000000000000000000e+00,1.098803404602222145e-04,0.000000000000000000e+00
1.600134611129760742e+00,2.400964965820312500e+02,4.885965347290039062e+01,4.885965347290039062e+01,4.562566056847572327e-02,-3.256225585937500000e-02,2.628971415106207132e-04,1.161832141876220703e+01,-6.106826942414045334e-03,1.341613824479281902e-05,1.267041206359863281e+00,3.823748789727687836e-03,-6.516741268569603562e-05,-1.272927620448172092e-03,7.324138879776000977e-01,2.614868804812431335e-02,1.000000000000000000e+00,1.098803404602222145e-04,0.000000000000000000e+00
1.600134611129760742e+00,2.400964965820312500e+02,4.885965347290039062e+01,4.885965347290039062e+01,4.562566056847572327e-02,-3.256225585937500000e-02,2.628971415106207132e-04,1.161832141876220703e+01,-6.106826942414045334e-03,1.341613824479281902e-05,1.267041206359863281e+00,3.823748789727687836e-03,-6.516741268569603562e-05,-1.272927620448172092e-03,7.324138879776000977e-01,2.614868804812431335e-02,1.000000000000000000e+00,1.098803404602222145e-04,0.000000000000000000e+00
1.600134611129760742e+00,2.409425354003906250e+02,4.885920333862304688e+01,4.885920333862304688e+01,-3.141886787489056587e-03,-3.100585564970970154e-02,3.126399824395775795e-04,1.172867202758789062e+01,-5.940159317106008530e-03,1.092752427211962640e-05,9.564196467399597168e-01,1.444524852558970451e-03,-2.156906339223496616e-05,-1.042337898979894817e-04,6.402052044868469238e-01,1.920263655483722687e-02,1.000000000000000000e+00,8.613270620116963983e-05,0.000000000000000000e+00
1.715513467788696289e+00,2.409425354003906250e+02,4.885920333862304688e+01,4.885920333862304688e+01,-3.141886787489056587e-03,-3.100585564970970154e-02,3.126399824395775795e-04,1.172867202758789062e+01,-5.940159317106008530e-03,1.092752427211962640e-05,9.564196467399597168e-01,1.444524852558970451e-03,-2.156906339223496616e-05,-1.042337898979894817e-04,6.402052044868469238e-01,1.920263655483722687e-02,1.000000000000000000e+00,8.613270620116963983e-05,0.000000000000000000e+00
1.715513467788696289e+00,2.409425354003906250e+02,4.885920333862304688e+01,4.885920333862304688e+01,-3.141886787489056587e-03,-3.100585564970970154e-02,3.126399824395775795e-04,1.172867202758789062e+01,-5.940159317106008530e-03,1.092752427211962640e-05,9.564196467399597168e-01,1.444524852558970451e-03,-2.156906339223496616e-05,-1.042337898979894817e-04,6.402052044868469238e-01,1.920263655483722687e-02,1.000000000000000000e+00,8.613270620116963983e-05,0.000000000000000000e+00
1.715513467788696289e+00,2.409425354003906250e+02,4.885920333862304688e+01,4.885920333862304688e+01,-3.141886787489056587e-03,-3.100585564970970154e-02,3.126399824395775795e-04,1.172867202758789062e+01,-5.940159317106008530e-03,1.092752427211962640e-05,9.564196467399597168e-01,1.444524852558970451e-03,-2.156906339223496616e-05,-1.042337898979894817e-04,6.402052044868469238e-01,1.920263655483722687e-02,1.000000000000000000e+00,8.613270620116963983e-05,0.000000000000000000e+00
1.813115119934082031e+00,2.421255187988281250e+02,4.885860824584960938e+01,4.885860824584960938e+01,-6.119166314601898193e-02,-2.951049804687500000e-02,3.147205861750990152e-04,1.190966415405273438e+01,-5.751836579293012619e-03,6.750889042450580746e-06,1.854396224021911621e+00,1.929503632709383965e-03,-4.279267159290611744e-05,3.748408053070306778e-04,5.230912566184997559e-01,1.262223627418279648e-02,1.000000000000000000e+00,7.549580186605453491e-05,0.000000000000000000e+00
1.813115119934082031e+00,2.421255187988281250e+02,4.885860824584960938e+01,4.885860824584960938e+01,-6.119166314601898193e-02,-2.951049804687500000e-02,3.147205861750990152e-04,1.190966415405273438e+01,-5.751836579293012619e-03,6.750889042450580746e-06,1.854396224021911621e+00,1.929503632709383965e-03,-4.279267159290611744e-05,3.748408053070306778e-04,5.230912566184997559e-01,1.262223627418279648e-02,1.000000000000000000e+00,7.549580186605453491e-05,0.000000000000000000e+00
1.813115119934082031e+00,2.421255187988281250e+02,4.885860824584960938e+01,4.885860824584960938e+01,-6.119166314601898193e-02,-2.951049804687500000e-02,3.147205861750990152e-04,1.190966415405273438e+01,-5.751836579293012619e-03,6.750889042450580746e-06,1.854396224021911621e+00,1.929503632709383965e-03,-4.279267159290611744e-05,3.748408053070306778e-04,5.230912566184997559e-01,1.262223627418279648e-02,1.000000000000000000e+00,7.549580186605453491e-05,0.000000000000000000e+00
1.813115119934082031e+00,2.421255187988281250e+02,4.885860824584960938e+01,4.885860824584960938e+01,-6.119166314601898193e-02,-2.951049804687500000e-02,3.147205861750990152e-04,1.190966415405273438e+01,-5.751836579293012619e-03,6.750889042450580746e-06,1.854396224021911621e+00,1.929503632709383965e-03,-4.279267159290611744e-05,3.748408053070306778e-04,5.230912566184997559e-01,1.262223627418279648e-02,1.000000000000000000e+00,7.549580186605453491e-05,0.000000000000000000e+00
1.896134853363037109e+00,2.432910461425781250e+02,4.885805130004882812e+01,4.885805130004882812e+01,-7.656641304492950439e-02,-2.847289666533470154e-02,2.101163263432681561e-04,1.189939689636230469e+01,-5.706446245312690735e-03,8.324222108058165759e-06,-1.236725002527236938e-01,5.467415321618318558e-04,1.895131390483584255e-05,6.152184214442968369e-04,-2.788396775722503662e-01,1.314435526728630066e-02,0.000000000000000000e+00,4.129125227336771786e-05,1.000000000000000000e+00
1.896134853363037109e+00,2.432910461425781250e+02,4.885805130004882812e+01,4.885805130004882812e+01,-7.656641304492950439e-02,-2.847289666533470154e-02,2.101163263432681561e-04,1.189939689636230469e+01,-5.706446245312690735e-03,8.324222108058165759e-06,-1.236725002527236938e-01,5.467415321618318558e-04,1.895131390483584255e-05,6.152184214442968369e-04,-2.788396775722503662e-01,1.314435526728630066e-02,0.000000000000000000e+00,4.129125227336771786e-05,1.000000000000000000e+00
1.896134853363037109e+00,2.432910461425781250e+02,4.885805130004882812e+01,4.885805130004882812e+01,-7.656641304492950439e-02,-2.847289666533470154e-02,2.101163263432681561e-04,1.189939689636230469e+01,-5.706446245312690735e-03,8.324222108058165759e-06,-1.236725002527236938e-01,5.467415321618318558e-04,1.895131390483584255e-05,6.152184214442968369e-04,-2.788396775722503662e-01,1.314435526728630066e-02,0.000000000000000000e+00,4.129125227336771786e-05,1.000000000000000000e+00
1.896134853363037109e+00,2.432910461425781250e+02,4.885805130004882812e+01,4.885805130004882812e+01,-7.656641304492950439e-02,-2.847289666533470154e-02,2.101163263432681561e-04,1.189939689636230469e+01,-5.706446245312690735e-03,8.324222108058165759e-06,-1.236725002527236938e-01,5.467415321618318558e-04,1.895131390483584255e-05,6.152184214442968369e-04,-2.788396775722503662e-01,1.314435526728630066e-02,0.000000000000000000e+00,4.129125227336771786e-05,1.000000000000000000e+00
1.896134853363037109e+00,2.432910461425781250e+02,4.885805130004882812e+01,4.885805130004882812e+01,-7.656641304492950439e-02,-2.847289666533470154e-02,2.101163263432681561e-04,1.189939689636230469e+01,-5.706446245312690735e-03,8.324222108058165759e-06,-1.236725002527236938e-01,5.467415321618318558e-04,1.895131390483584255e-05,6.152184214442968369e-04,-2.788396775722503662e-01,1.314435526728630066e-02,0.000000000000000000e+00,4.129125227336771786e-05,1.000000000000000000e+00
1.896134853363037109e+00,2.432910461425781250e+02,4.885805130004882812e+01,4.885805130004882812e+01,-7.656641304492950439e-02,-2.847289666533470154e-02,2.101163263432681561e-04,1.189939689636230469e+01,-5.706446245312690735e-03,8.324222108058165759e-06,-1.236725002527236938e-01,5.467415321618318558e-04,1.895131390483584255e-05,6.152184214442968369e-04,-2.788396775722503662e-01,1.314435526728630066e-02,0.000000000000000000e+00,4.129125227336771786e-05,1.000000000000000000e+00
1.896134853363037109e+00,2.432910461425781250e+02,4.885805130004882812e+01,4.885805130004882812e+01,-7.656641304492950439e-02,-2.847289666533470154e-02,2.101163263432681561e-04,1.189939689636230469e+01,-5.706446245312690735e-03,8.324222108058165759e-06,-1.236725002527236938e-01,5.467415321618318558e-04,1.895131390483584255e-05,6.152184214442968369e-04,-2.788396775722503662e-01,1.314435526728630066e-02,0.000000000000000000e+00,4.129125227336771786e-05,1.000000000000000000e+00
2.195794820785522461e+00,2.462512969970703125e+02,4.885662460327148438e+01,4.885662460327148438e+01,3.532573580741882324e-01,-1.980590447783470154e-02,5.859899101778864861e-04,9.967290878295898438e+00,-4.330301657319068909e-03,-4.441565761226229370e-05,-1.187640190124511719e+01,9.816954843699932098e-03,-6.037090788595378399e-04,-3.505898406729102135e-03,-1.159484863281250000e+00,2.657725103199481964e-02,1.000000000000000000e+00,-8.067294402280822396e-05,0.000000000000000000e+00
2.195794820785522461e+00,2.462512969970703125e+02,4.885662460327148438e+01,4.885662460327148438e+01,3.532573580741882324e-01,-1.980590447783470154e-02,5.859899101778864861e-04,9.967290878295898438e+00,-4.330301657319068909e-03,-4.441565761226229370e-05,-1.187640190124511719e+01,9.816954843699932098e-03,-6.037090788595378399e-04,-3.505898406729102135e-03,-1.159484863281250000e+00,2.657725103199481964e-02,1.000000000000000000e+00,-8.067294402280822396e-05,0.000000000000000000e+00
2.195794820785522461e+00,2.462512969970703125e+02,4.885662460327148438e+01,4.885662460327148438e+01,3.532573580741882324e-01,-1.980590447783470154e-02,5.859899101778864861e-04,9.967290878295898438e+00,-4.330301657319068909e-03,-4.441565761226229370e-05,-1.187640190124511719e+01,9.816954843699932098e-03,-6.037090788595378399e-04,-3.505898406729102135e-03,-1.159484863281250000e+00,2.657725103199481964e-02,1.000000000000000000e+00,-8.067294402280822396e-05,0.000000000000000000e+00
2.195794820785522461e+00,2.462512969970703125e+02,4.885662460327148438e+01,4.885662460327148438e+01,3.532573580741882324e-01,-1.980590447783470154e-02,5.859899101778864861e-04,9.967290878295898438e+00,-4.330301657319068909e-03,-4.441565761226229370e-05,-1.187640190124511719e+01,9.816954843699932098e-03,-6.037090788595378399e-04,-3.505898406729102135e-03,-1.159484863281250000e+00,2.657725103199481964e-02,1.000000000000000000e+00,-8.067294402280822396e-05,0.000000000000000000e+00
2.195794820785522461e+00,2.462512969970703125e+02,4.885662460327148438e+01,4.885662460327148438e+01,3.532573580741882324e-01,-1.980590447783470154e-02,5.859899101778864861e-04,9.967290878295898438e+00,-4.330301657319068909e-03,-4.441565761226229370e-05,-1.187640190124511719e+01,9.816954843699932098e-03,-6.037090788595378399e-04,-3.505898406729102135e-03,-1.159484863281250000e+00,2.657725103199481964e-02,1.000000000000000000e+00,-8.067294402280822396e-05,0.000000000000000000e+00
2.195794820785522461e+00,2.462512969970703125e+02,4.885662460327148438e+01,4.885662460327148438e+01,3.532573580741882324e-01,-1.980590447783470154e-02,5.859899101778864861e-04,9.967290878295898438e+00,-4.330301657319068909e-03,-4.441565761226229370e-05,-1.187640190124511719e+01,9.816954843699932098e-03,-6.037090788595378399e-04,-3.505898406729102135e-03,-1.159484863281250000e+00,2.657725103199481964e-02,1.000000000000000000e+00,-8.067294402280822396e-05,0.000000000000000000e+00
2.195794820785522461e+00,2.462512969970703125e+02,4.885662460327148438e+01,4.885662460327148438e+01,3.532573580741882324e-01,-1.980590447783470154e-02,5.859899101778864861e-04,9.967290878295898438e+00,-4.330301657319068909e-03,-4.441565761226229370e-05,-1.187640190124511719e+01,9.816954843699932098e-03,-6.037090788595378399e-04,-3.505898406729102135e-03,-1.159484863281250000e+00,2.657725103199481964e-02,1.000000000000000000e+00,-8.067294402280822396e-05,0.000000000000000000e+00
2.195794820785522461e+00,2.462512969970703125e+02,4.885662460327148438e+01,4.885662460327148438e+01,3.532573580741882324e-01,-1.980590447783470154e-02,5.859899101778864861e-04,9.967290878295898438e+00,-4.330301657319068909e-03,-4.441565761226229370e-05,-1.187640190124511719e+01,9.816954843699932098e-03,-6.037090788595378399e-04,-3.505898406729102135e-03,-1.159484863281250000e+00,2.657725103199481964e-02,1.000000000000000000e+00,-8.067294402280822396e-05,0.000000000000000000e+00
2.195794820785522461e+00,2.462512969970703125e+02,4.885662460327148438e+01,4.885662460327148438e+01,3.532573580741882324e-01,-1.980590447783470154e-02,5.859899101778864861e-04,9.967290878295898438e+00,-4.330301657319068909e-03,-4.441565761226229370e-05,-1.187640190124511719e+01,9.816954843699932098e-03,-6.037090788595378399e-04,-3.505898406729102135e-03,-1.159484863281250000e+00,2.657725103199481964e-02,1.000000000000000000e+00,-8.067294402280822396e-05,0.000000000000000000e+00
2.195794820785522461e+00,2.462512969970703125e+02,4.885662460327148438e+01,4.885662460327148438e+01,3.532573580741882324e-01,-1.980590447783470154e-02,5.859899101778864861e-04,9.967290878295898438e+00,-4.330301657319068909e-03,-4.441565761226229370e-05,-1.187640190124511719e+01,9.816954843699932098e-03,-6.037090788595378399e-04,-3.505898406729102135e-03,-1.159484863281250000e+00,2.657725103199481964e-02,1.000000000000000000e+00,-8.067294402280822396e-05,0.000000000000000000e+00
2.374083757400512695e+00,2.467749176025390625e+02,4.885639190673828125e+01,4.885639190673828125e+01,3.817460834980010986e-01,-1.934814639389514923e-02,6.275535561144351959e-04,9.809157371520996094e+00,-4.300942178815603256e-03,-4.186074511380866170e-05,-8.869507312774658203e-01,1.646735763642936945e-04,1.433017951057991013e-05,-3.781340637942776084e-05,-2.327897995710372925e-01,2.074165386147797108e-04,1.000000000000000000e+00,-1.573937042849138379e-04,0.000000000000000000e+00
2.374083757400512695e+00,2.467749176025390625e+02,4.885639190673828125e+01,4.885639190673828125e+01,3.817460834980010986e-01,-1.934814639389514923e-02,6.275535561144351959e-04,9.809157371520996094e+00,-4.300942178815603256e-03,-4.186074511380866170e-05,-8.869507312774658203e-01,1.646735763642936945e-04,1.433017951057991013e-05,-3.781340637942776084e-05,-2.327897995710372925e-01,2.074165386147797108e-04,1.000000000000000000e+00,-1.573937042849138379e-04,0.000000000000000000e+00
2.374083757400512695e+00,2.467749176025390625e+02,4.885639190673828125e+01,4.885639190673828125e+01,3.817460834980010986e-01,-1.934814639389514923e-02,6.275535561144351959e-04,9.809157371520996094e+00,-4.300942178815603256e-03,-4.186074511380866170e-05,-8.869507312774658203e-01,1.646735763642936945e-04,1.433017951057991013e-05,-3.781340637942776084e-05,-2.327897995710372925e-01,2.074165386147797108e-04,1.000000000000000000e+00,-1.573937042849138379e-04,0.000000000000000000e+00
2.447860002517700195e+00,2.477434692382812500e+02,4.885595703125000000e+01,4.885595703125000000e+01,3.498832583427429199e-01,-2.117919735610485077e-02,4.020910128019750118e-04,9.621167182922363281e+00,-4.546420183032751083e-03,-9.382591088069602847e-06,-2.548112869262695312e+00,-3.327331272885203362e-03,4.402250924613326788e-04,3.127021947875618935e-03,6.219286322593688965e-01,-2.768634818494319916e-02,1.000000000000000000e+00,-1.885189849417656660e-04,0.000000000000000000e+00
2.447860002517700195e+00,2.477434692382812500e+02,4.885595703125000000e+01,4.885595703125000000e+01,3.498832583427429199e-01,-2.117919735610485077e-02,4.020910128019750118e-04,9.621167182922363281e+00,-4.546420183032751083e-03,-9.382591088069602847e-06,-2.548112869262695312e+00,-3.327331272885203362e-03,4.402250924613326788e-04,3.127021947875618935e-03,6.219286322593688965e-01,-2.768634818494319916e-02,1.000000000000000000e+00,-1.885189849417656660e-04,0.000000000000000000e+00
2.500878810882568359e+00,2.484512634277343750e+02,4.885562515258789062e+01,4.885562515258789062e+01,2.888691723346710205e-01,-2.334594726562500000e-02,2.565948816481977701e-04,9.591166496276855469e+00,-4.641138948500156403e-03,1.151868582383031026e-05,-5.658499002456665039e-01,-1.786512555554509163e-03,3.942237817682325840e-04,2.623497741296887398e-03,9.435734152793884277e-01,-3.062162734568119049e-02,1.000000000000000000e+00,-1.432386634405702353e-04,0.000000000000000000e+00
2.500878810882568359e+00,2.484512634277343750e+02,4.885562515258789062e+01,4.885562515258789062e+01,2.888691723346710205e-01,-2.334594726562500000e-02,2.565948816481977701e-04,9.591166496276855469e+00,-4.641138948500156403e-03,1.151868582383031026e-05,-5.658499002456665039e-01,-1.786512555554509163e-03,3.942237817682325840e-04,2.623497741296887398e-03,9.435734152793884277e-01,-3.062162734568119049e-02,1.000000000000000000e+00,-1.432386634405702353e-04,0.000000000000000000e+00
2.500878810882568359e+00,2.484512634277343750e+02,4.885562515258789062e+01,4.885562515258789062e+01,2.888691723346710205e-01,-2.334594726562500000e-02,2.565948816481977701e-04,9.591166496276855469e+00,-4.641138948500156403e-03,1.151868582383031026e-05,-5.658499002456665039e-01,-1.786512555554509163e-03,3.942237817682325840e-04,2.623497741296887398e-03,9.435734152793884277e-01,-3.062162734568119049e-02,1.000000000000000000e+00,-1.432386634405702353e-04,0.000000000000000000e+00
2.560195446014404297e+00,2.489592590332031250e+02,4.885538101196289062e+01,4.885538101196289062e+01,2.393366396427154541e-01,-2.490234188735485077e-02,1.525454281363636255e-04,9.581455230712890625e+00,-4.739235620945692062e-03,1.884210541902575642e-05,-1.637190878391265869e-01,-1.653780112974345684e-03,1.234631636179983616e-04,2.479701302945613861e-03,9.261064529418945312e-01,-2.845690026879310608e-02,1.000000000000000000e+00,-1.172013580799102783e-04,0.000000000000000000e+00
2.560195446014404297e+00,2.489592590332031250e+02,4.885538101196289062e+01,4.885538101196289062e+01,2.393366396427154541e-01,-2.490234188735485077e-02,1.525454281363636255e-04,9.581455230712890625e+00,-4.739235620945692062e-03,1.884210541902575642e-05,-1.637190878391265869e-01,-1.653780112974345684e-03,1.234631636179983616e-04,2.479701302945613861e-03,9.261064529418945312e-01,-2.845690026879310608e-02,1.000000000000000000e+00,-1.172013580799102783e-04,0.000000000000000000e+00
2.618730545043945312e+00,2.495270080566406250e+02,4.885511016845703125e+01,4.885511016845703125e+01,1.872427910566329956e-01,-2.627563290297985077e-02,8.795294706942513585e-05,9.571097373962402344e+00,-4.735597874969244003e-03,2.222685179731342942e-05,-1.769512146711349487e-01,6.214640598045662045e-05,5.782421794719994068e-05,1.402468769811093807e-03,8.257128000259399414e-01,-2.088118903338909149e-02,1.000000000000000000e+00,-6.931530515430495143e-05,0.000000000000000000e+00
2.618730545043945312e+00,2.495270080566406250e+02,4.885511016845703125e+01,4.885511016845703125e+01,1.872427910566329956e-01,-2.627563290297985077e-02,8.795294706942513585e-05,9.571097373962402344e+00,-4.735597874969244003e-03,2.222685179731342942e-05,-1.769512146711349487e-01,6.214640598045662045e-05,5.782421794719994068e-05,1.402468769811093807e-03,8.257128000259399414e-01,-2.088118903338909149e-02,1.000000000000000000e+00,-6.931530515430495143e-05,0.000000000000000000e+00
2.677334070205688477e+00,2.500866699218750000e+02,4.885484313964843750e+01,4.885484313964843750e+01,1.445882618427276611e-01,-2.725219726562500000e-02,3.660782022052444518e-05,9.560888290405273438e+00,-4.772271029651165009e-03,2.004330053750891238e-05,-1.742059588432312012e-01,-6.257841014303267002e-04,-3.725972419488243759e-05,1.359399873763322830e-03,6.714776158332824707e-01,-1.513123791664838791e-02,1.000000000000000000e+00,-4.949633512296713889e-05,0.000000000000000000e+00
2.677334070205688477e+00,2.500866699218750000e+02,4.885484313964843750e+01,4.885484313964843750e+01,1.445882618427276611e-01,-2.725219726562500000e-02,3.660782022052444518e-05,9.560888290405273438e+00,-4.772271029651165009e-03,2.004330053750891238e-05,-1.742059588432312012e-01,-6.257841014303267002e-04,-3.725972419488243759e-05,1.359399873763322830e-03,6.714776158332824707e-01,-1.513123791664838791e-02,1.000000000000000000e+00,-4.949633512296713889e-05,0.000000000000000000e+00
2.677334070205688477e+00,2.500866699218750000e+02,4.885484313964843750e+01,4.885484313964843750e+01,1.445882618427276611e-01,-2.725219726562500000e-02,3.660782022052444518e-05,9.560888290405273438e+00,-4.772271029651165009e-03,2.004330053750891238e-05,-1.742059588432312012e-01,-6.257841014303267002e-04,-3.725972419488243759e-05,1.359399873763322830e-03,6.714776158332824707e-01,-1.513123791664838791e-02,1.000000000000000000e+00,-4.949633512296713889e-05,0.000000000000000000e+00
2.677334070205688477e+00,2.500866699218750000e+02,4.885484313964843750e+01,4.885484313964843750e+01,1.445882618427276611e-01,-2.725219726562500000e-02,3.660782022052444518e-05,9.560888290405273438e+00,-4.772271029651165009e-03,2.004330053750891238e-05,-1.742059588432312012e-01,-6.257841014303267002e-04,-3.725972419488243759e-05,1.359399873763322830e-03,6.714776158332824707e-01,-1.513123791664838791e-02,1.000000000000000000e+00,-4.949633512296713889e-05,0.000000000000000000e+00
2.755024909973144531e+00,2.506464843750000000e+02,4.885457229614257812e+01,4.885457229614257812e+01,1.105534359812736511e-01,-2.798461355268955231e-02,0.000000000000000000e+00,9.550681114196777344e+00,-4.818729124963283539e-03,1.567610888741910458e-05,-1.313819736242294312e-01,-5.979868001304566860e-04,-5.621244054054841399e-05,1.174201606772840023e-03,5.287507772445678711e-01,-1.100764051079750061e-02,1.000000000000000000e+00,-3.657317211036570370e-05,0.000000000000000000e+00
2.755024909973144531e+00,2.506464843750000000e+02,4.885457229614257812e+01,4.885457229614257812e+01,1.105534359812736511e-01,-2.798461355268955231e-02,0.000000000000000000e+00,9.550681114196777344e+00,-4.818729124963283539e-03,1.567610888741910458e-05,-1.313819736242294312e-01,-5.979868001304566860e-04,-5.621244054054841399e-05,1.174201606772840023e-03,5.287507772445678711e-01,-1.100764051079750061e-02,1.000000000000000000e+00,-3.657317211036570370e-05,0.000000000000000000e+00
2.755024909973144531e+00,2.506464843750000000e+02,4.885457229614257812e+01,4.885457229614257812e+01,1.105534359812736511e-01,-2.798461355268955231e-02,0.000000000000000000e+00,9.550681114196777344e+00,-4.818729124963283539e-03,1.567610888741910458e-05,-1.313819736242294312e-01,-5.979868001304566860e-04,-5.621244054054841399e-05,1.174201606772840023e-03,5.287507772445678711e-01,-1.100764051079750061e-02,1.000000000000000000e+00,-3.657317211036570370e-05,0.000000000000000000e+00
2.830169916152954102e+00,2.513877105712890625e+02,4.885420608520507812e+01,4.885420608520507812e+01,7.667569816112518311e-02,-2.865600027143955231e-02,-6.103513806010596454e-05,9.537172317504882812e+00,-4.877544008195400238e-03,1.110857920139096677e-05,-1.797697097063064575e-01,-7.826851797290146351e-04,-6.078287697164341807e-05,7.147785509005188942e-04,3.748251795768737793e-01,-7.523439824581146240e-03,1.000000000000000000e+00,-2.726960337895434350e-05,0.000000000000000000e+00
2.830169916152954102e+00,2.513877105712890625e+02,4.885420608520507812e+01,4.885420608520507812e+01,7.667569816112518311e-02,-2.865600027143955231e-02,-6.103513806010596454e-05,9.537172317504882812e+00,-4.877544008195400238e-03,1.110857920139096677e-05,-1.797697097063064575e-01,-7.826851797290146351e-04,-6.078287697164341807e-05,7.147785509005188942e-04,3.748251795768737793e-01,-7.523439824581146240e-03,1.000000000000000000e+00,-2.726960337895434350e-05,0.000000000000000000e+00
2.830169916152954102e+00,2.513877105712890625e+02,4.885420608520507812e+01,4.885420608520507812e+01,7.667569816112518311e-02,-2.865600027143955231e-02,-6.103513806010596454e-05,9.537172317504882812e+00,-4.877544008195400238e-03,1.110857920139096677e-05,-1.797697097063064575e-01,-7.826851797290146351e-04,-6.078287697164341807e-05,7.147785509005188942e-04,3.748251795768737793e-01,-7.523439824581146240e-03,1.000000000000000000e+00,-2.726960337895434350e-05,0.000000000000000000e+00
2.830169916152954102e+00,2.513877105712890625e+02,4.885420608520507812e+01,4.885420608520507812e+01,7.667569816112518311e-02,-2.865600027143955231e-02,-6.103513806010596454e-05,9.537172317504882812e+00,-4.877544008195400238e-03,1.110857920139096677e-05,-1.797697097063064575e-01,-7.826851797290146351e-04,-6.078287697164341807e-05,7.147785509005188942e-04,3.748251795768737793e-01,-7.523439824581146240e-03,1.000000000000000000e+00,-2.726960337895434350e-05,0.000000000000000000e+00
2.830169916152954102e+00,2.513877105712890625e+02,4.885420608520507812e+01,4.885420608520507812e+01,7.667569816112518311e-02,-2.865600027143955231e-02,-6.103513806010596454e-05,9.537172317504882812e+00,-4.877544008195400238e-03,1.110857920139096677e-05,-1.797697097063064575e-01,-7.826851797290146351e-04,-6.078287697164341807e-05,7.147785509005188942e-04,3.748251795768737793e-01,-7.523439824581146240e-03,1.000000000000000000e+00,-2.726960337895434350e-05,0.000000000000000000e+00
2.917726278305053711e+00,2.521037292480468750e+02,4.885383987426757812e+01,4.885383987426757812e+01,5.401996150612831116e-02,-2.896117791533470154e-02,-6.103514533606357872e-05,9.524134635925292969e+00,-4.832968115806579590e-03,7.304047358047682792e-06,-1.489061564207077026e-01,5.091108032502233982e-04,-4.345237175584770739e-05,-4.777505455422215164e-05,2.597752511501312256e-01,-2.842229790985584259e-03,1.000000000000000000e+00,-3.871295120916329324e-06,0.000000000000000000e+00
