# Time,X,Y,Z,Roll,Pitch,Yaw,Vx,Vy,Vz,Ax,Ay,Az,Wx,Wy,Wz,Throttle,Steer,Brake
0.000000000000000000e+00,2.564520568847656250e+02,4.885172653198242188e+01,4.885172653198242188e+01,3.385246396064758301e-01,-2.383422665297985077e-02,4.622777112217590911e-07,5.725263118743896484e+00,-2.896556397899985313e-03,-6.198006303748115897e-07,4.153854846954345703e-01,1.584126846864819527e-03,3.373291974639869295e-06,1.791544840671122074e-03,8.459003269672393799e-02,2.464846521615982056e-01,1.000000000000000000e+00,-7.586274296045303345e-05,0.000000000000000000e+00
1.045818328857421875e-01,2.564520568847656250e+02,4.885172653198242188e+01,4.885172653198242188e+01,3.385246396064758301e-01,-2.383422665297985077e-02,4.622777112217590911e-07,5.725263118743896484e+00,-2.896556397899985313e-03,-6.198006303748115897e-07,4.153854846954345703e-01,1.584126846864819527e-03,3.373291974639869295e-06,1.791544840671122074e-03,8.459003269672393799e-02,2.464846521615982056e-01,1.000000000000000000e+00,-7.586274296045303345e-05,0.000000000000000000e+00
1.045818328857421875e-01,2.564520568847656250e+02,4.885172653198242188e+01,4.885172653198242188e+01,3.385246396064758301e-01,-2.383422665297985077e-02,4.622777112217590911e-07,5.725263118743896484e+00,-2.896556397899985313e-03,-6.198006303748115897e-07,4.153854846954345703e-01,1.584126846864819527e-03,3.373291974639869295e-06,1.791544840671122074e-03,8.459003269672393799e-02,2.464846521615982056e-01,1.000000000000000000e+00,-7.586274296045303345e-05,0.000000000000000000e+00
1.045818328857421875e-01,2.564520568847656250e+02,4.885172653198242188e+01,4.885172653198242188e+01,3.385246396064758301e-01,-2.383422665297985077e-02,4.622777112217590911e-07,5.725263118743896484e+00,-2.896556397899985313e-03,-6.198006303748115897e-07,4.153854846954345703e-01,1.584126846864819527e-03,3.373291974639869295e-06,1.791544840671122074e-03,8.459003269672393799e-02,2.464846521615982056e-01,1.000000000000000000e+00,-7.586274296045303345e-05,0.000000000000000000e+00
1.045818328857421875e-01,2.564520568847656250e+02,4.885172653198242188e+01,4.885172653198242188e+01,3.385246396064758301e-01,-2.383422665297985077e-02,4.622777112217590911e-07,5.725263118743896484e+00,-2.896556397899985313e-03,-6.198006303748115897e-07,4.153854846954345703e-01,1.584126846864819527e-03,3.373291974639869295e-06,1.791544840671122074e-03,8.459003269672393799e-02,2.464846521615982056e-01,1.000000000000000000e+00,-7.586274296045303345e-05,0.000000000000000000e+00
1.045818328857421875e-01,2.564520568847656250e+02,4.885172653198242188e+01,4.885172653198242188e+01,3.385246396064758301e-01,-2.383422665297985077e-02,4.622777112217590911e-07,5.725263118743896484e+00,-2.896556397899985313e-03,-6.198006303748115897e-07,4.153854846954345703e-01,1.584126846864819527e-03,3.373291974639869295e-06,1.791544840671122074e-03,8.459003269672393799e-02,2.464846521615982056e-01,1.000000000000000000e+00,-7.586274296045303345e-05,0.000000000000000000e+00
1.045818328857421875e-01,2.570285339355468750e+02,4.885142517089843750e+01,4.885142517089843750e+01,3.377801477909088135e-01,-2.233886718750000000e-02,-3.051757266803178936e-05,5.682743549346923828e+00,-2.967110136523842812e-03,-1.811679226193518844e-06,-4.060740172863006592e-01,-6.738083320669829845e-04,-1.138278094003908336e-05,3.315860871225595474e-03,1.704176366329193115e-01,4.898894131183624268e-01,1.000000000000000000e+00,-7.247179746627807617e-05,0.000000000000000000e+00
2.092907428741455078e-01,2.570285339355468750e+02,4.885142517089843750e+01,4.885142517089843750e+01,3.377801477909088135e-01,-2.233886718750000000e-02,-3.051757266803178936e-05,5.682743549346923828e+00,-2.967110136523842812e-03,-1.811679226193518844e-06,-4.060740172863006592e-01,-6.738083320669829845e-04,-1.138278094003908336e-05,3.315860871225595474e-03,1.704176366329193115e-01,4.898894131183624268e-01,1.000000000000000000e+00,-7.247179746627807617e-05,0.000000000000000000e+00
2.092907428741455078e-01,2.570285339355468750e+02,4.885142517089843750e+01,4.885142517089843750e+01,3.377801477909088135e-01,-2.233886718750000000e-02,-3.051757266803178936e-05,5.682743549346923828e+00,-2.967110136523842812e-03,-1.811679226193518844e-06,-4.060740172863006592e-01,-6.738083320669829845e-04,-1.138278094003908336e-05,3.315860871225595474e-03,1.704176366329193115e-01,4.898894131183624268e-01,1.000000000000000000e+00,-7.247179746627807617e-05,0.000000000000000000e+00
2.092907428741455078e-01,2.570285339355468750e+02,4.885142517089843750e+01,4.885142517089843750e+01,3.377801477909088135e-01,-2.233886718750000000e-02,-3.051757266803178936e-05,5.682743549346923828e+00,-2.967110136523842812e-03,-1.811679226193518844e-06,-4.060740172863006592e-01,-6.738083320669829845e-04,-1.138278094003908336e-05,3.315860871225595474e-03,1.704176366329193115e-01,4.898894131183624268e-01,1.000000000000000000e+00,-7.247179746627807617e-05,0.000000000000000000e+00
2.092907428741455078e-01,2.570285339355468750e+02,4.885142517089843750e+01,4.885142517089843750e+01,3.377801477909088135e-01,-2.233886718750000000e-02,-3.051757266803178936e-05,5.682743549346923828e+00,-2.967110136523842812e-03,-1.811679226193518844e-06,-4.060740172863006592e-01,-6.738083320669829845e-04,-1.138278094003908336e-05,3.315860871225595474e-03,1.704176366329193115e-01,4.898894131183624268e-01,1.000000000000000000e+00,-7.247179746627807617e-05,0.000000000000000000e+00
2.092907428741455078e-01,2.576048583984375000e+02,4.885113143920898438e+01,4.885113143920898438e+01,3.369810283184051514e-01,-2.194213494658470154e-02,-3.051756903005298227e-05,5.679529666900634766e+00,-2.986930776387453079e-03,-1.029796635521051940e-06,-4.307080805301666260e-02,-2.656260621733963490e-04,1.047839032253250480e-05,3.354870248585939407e-03,1.715137809514999390e-01,5.021144747734069824e-01,1.000000000000000000e+00,-8.285685180453583598e-05,0.000000000000000000e+00
2.839093208312988281e-01,2.576048583984375000e+02,4.885113143920898438e+01,4.885113143920898438e+01,3.369810283184051514e-01,-2.194213494658470154e-02,-3.051756903005298227e-05,5.679529666900634766e+00,-2.986930776387453079e-03,-1.029796635521051940e-06,-4.307080805301666260e-02,-2.656260621733963490e-04,1.047839032253250480e-05,3.354870248585939407e-03,1.715137809514999390e-01,5.021144747734069824e-01,1.000000000000000000e+00,-8.285685180453583598e-05,0.000000000000000000e+00
2.839093208312988281e-01,2.576048583984375000e+02,4.885113143920898438e+01,4.885113143920898438e+01,3.369810283184051514e-01,-2.194213494658470154e-02,-3.051756903005298227e-05,5.679529666900634766e+00,-2.986930776387453079e-03,-1.029796635521051940e-06,-4.307080805301666260e-02,-2.656260621733963490e-04,1.047839032253250480e-05,3.354870248585939407e-03,1.715137809514999390e-01,5.021144747734069824e-01,1.000000000000000000e+00,-8.285685180453583598e-05,0.000000000000000000e+00
2.839093208312988281e-01,2.576048583984375000e+02,4.885113143920898438e+01,4.885113143920898438e+01,3.369810283184051514e-01,-2.194213494658470154e-02,-3.051756903005298227e-05,5.679529666900634766e+00,-2.986930776387453079e-03,-1.029796635521051940e-06,-4.307080805301666260e-02,-2.656260621733963490e-04,1.047839032253250480e-05,3.354870248585939407e-03,1.715137809514999390e-01,5.021144747734069824e-01,1.000000000000000000e+00,-8.285685180453583598e-05,0.000000000000000000e+00
2.839093208312988281e-01,2.576048583984375000e+02,4.885113143920898438e+01,4.885113143920898438e+01,3.369810283184051514e-01,-2.194213494658470154e-02,-3.051756903005298227e-05,5.679529666900634766e+00,-2.986930776387453079e-03,-1.029796635521051940e-06,-4.307080805301666260e-02,-2.656260621733963490e-04,1.047839032253250480e-05,3.354870248585939407e-03,1.715137809514999390e-01,5.021144747734069824e-01,1.000000000000000000e+00,-8.285685180453583598e-05,0.000000000000000000e+00
3.569011688232421875e-01,2.580361022949218750e+02,4.885093307495117188e+01,4.885093307495117188e+01,3.391598463058471680e-01,-2.722168155014514923e-02,0.000000000000000000e+00,5.825604915618896484e+00,-2.798524918034672737e-03,8.677141067892080173e-07,2.001254320144653320e+00,2.581190317869186401e-03,2.599620165710803121e-05,-1.887575257569551468e-03,-1.215917691588401794e-01,-3.266004323959350586e-01,1.000000000000000000e+00,-9.073900582734495401e-05,0.000000000000000000e+00
3.569011688232421875e-01,2.580361022949218750e+02,4.885093307495117188e+01,4.885093307495117188e+01,3.391598463058471680e-01,-2.722168155014514923e-02,0.000000000000000000e+00,5.825604915618896484e+00,-2.798524918034672737e-03,8.677141067892080173e-07,2.001254320144653320e+00,2.581190317869186401e-03,2.599620165710803121e-05,-1.887575257569551468e-03,-1.215917691588401794e-01,-3.266004323959350586e-01,1.000000000000000000e+00,-9.073900582734495401e-05,0.000000000000000000e+00
3.569011688232421875e-01,2.580361022949218750e+02,4.885093307495117188e+01,4.885093307495117188e+01,3.391598463058471680e-01,-2.722168155014514923e-02,0.000000000000000000e+00,5.825604915618896484e+00,-2.798524918034672737e-03,8.677141067892080173e-07,2.001254320144653320e+00,2.581190317869186401e-03,2.599620165710803121e-05,-1.887575257569551468e-03,-1.215917691588401794e-01,-3.266004323959350586e-01,1.000000000000000000e+00,-9.073900582734495401e-05,0.000000000000000000e+00
3.569011688232421875e-01,2.580361022949218750e+02,4.885093307495117188e+01,4.885093307495117188e+01,3.391598463058471680e-01,-2.722168155014514923e-02,0.000000000000000000e+00,5.825604915618896484e+00,-2.798524918034672737e-03,8.677141067892080173e-07,2.001254320144653320e+00,2.581190317869186401e-03,2.599620165710803121e-05,-1.887575257569551468e-03,-1.215917691588401794e-01,-3.266004323959350586e-01,1.000000000000000000e+00,-9.073900582734495401e-05,0.000000000000000000e+00
4.765405654907226562e-01,2.584563598632812500e+02,4.885072326660156250e+01,4.885072326660156250e+01,3.381558060646057129e-01,-2.301025390625000000e-02,-9.155274165095761418e-05,5.716431617736816406e+00,-2.656322903931140900e-03,-6.197977882038685493e-07,-9.125196337699890137e-01,1.188588561490178108e-03,-1.243329552380600944e-05,2.503793453797698021e-03,9.725739061832427979e-02,2.840526103973388672e-01,1.000000000000000000e+00,-1.670292840572074056e-05,0.000000000000000000e+00
4.765405654907226562e-01,2.584563598632812500e+02,4.885072326660156250e+01,4.885072326660156250e+01,3.381558060646057129e-01,-2.301025390625000000e-02,-9.155274165095761418e-05,5.716431617736816406e+00,-2.656322903931140900e-03,-6.197977882038685493e-07,-9.125196337699890137e-01,1.188588561490178108e-03,-1.243329552380600944e-05,2.503793453797698021e-03,9.725739061832427979e-02,2.840526103973388672e-01,1.000000000000000000e+00,-1.670292840572074056e-05,0.000000000000000000e+00
4.765405654907226562e-01,2.584563598632812500e+02,4.885072326660156250e+01,4.885072326660156250e+01,3.381558060646057129e-01,-2.301025390625000000e-02,-9.155274165095761418e-05,5.716431617736816406e+00,-2.656322903931140900e-03,-6.197977882038685493e-07,-9.125196337699890137e-01,1.188588561490178108e-03,-1.243329552380600944e-05,2.503793453797698021e-03,9.725739061832427979e-02,2.840526103973388672e-01,1.000000000000000000e+00,-1.670292840572074056e-05,0.000000000000000000e+00
4.765405654907226562e-01,2.584563598632812500e+02,4.885072326660156250e+01,4.885072326660156250e+01,3.381558060646057129e-01,-2.301025390625000000e-02,-9.155274165095761418e-05,5.716431617736816406e+00,-2.656322903931140900e-03,-6.197977882038685493e-07,-9.125196337699890137e-01,1.188588561490178108e-03,-1.243329552380600944e-05,2.503793453797698021e-03,9.725739061832427979e-02,2.840526103973388672e-01,1.000000000000000000e+00,-1.670292840572074056e-05,0.000000000000000000e+00
4.765405654907226562e-01,2.584563598632812500e+02,4.885072326660156250e+01,4.885072326660156250e+01,3.381558060646057129e-01,-2.301025390625000000e-02,-9.155274165095761418e-05,5.716431617736816406e+00,-2.656322903931140900e-03,-6.197977882038685493e-07,-9.125196337699890137e-01,1.188588561490178108e-03,-1.243329552380600944e-05,2.503793453797698021e-03,9.725739061832427979e-02,2.840526103973388672e-01,1.000000000000000000e+00,-1.670292840572074056e-05,0.000000000000000000e+00
4.765405654907226562e-01,2.584563598632812500e+02,4.885072326660156250e+01,4.885072326660156250e+01,3.381558060646057129e-01,-2.301025390625000000e-02,-9.155274165095761418e-05,5.716431617736816406e+00,-2.656322903931140900e-03,-6.197977882038685493e-07,-9.125196337699890137e-01,1.188588561490178108e-03,-1.243329552380600944e-05,2.503793453797698021e-03,9.725739061832427979e-02,2.840526103973388672e-01,1.000000000000000000e+00,-1.670292840572074056e-05,0.000000000000000000e+00
4.765405654907226562e-01,2.584563598632812500e+02,4.885072326660156250e+01,4.885072326660156250e+01,3.381558060646057129e-01,-2.301025390625000000e-02,-9.155274165095761418e-05,5.716431617736816406e+00,-2.656322903931140900e-03,-6.197977882038685493e-07,-9.125196337699890137e-01,1.188588561490178108e-03,-1.243329552380600944e-05,2.503793453797698021e-03,9.725739061832427979e-02,2.840526103973388672e-01,1.000000000000000000e+00,-1.670292840572074056e-05,0.000000000000000000e+00
6.200885772705078125e-01,2.590327453613281250e+02,4.885043716430664062e+01,4.885043716430664062e+01,3.376367092132568359e-01,-2.197265625000000000e-02,-9.155273437500000000e-05,5.681166172027587891e+00,-2.923583844676613808e-03,-1.239569996869249735e-06,-2.456700503826141357e-01,-1.861822674982249737e-03,-4.317525508668040857e-06,3.082108218222856522e-03,1.687465012073516846e-01,4.917182624340057373e-01,1.000000000000000000e+00,-7.687052857363596559e-05,0.000000000000000000e+00
6.200885772705078125e-01,2.590327453613281250e+02,4.885043716430664062e+01,4.885043716430664062e+01,3.376367092132568359e-01,-2.197265625000000000e-02,-9.155273437500000000e-05,5.681166172027587891e+00,-2.923583844676613808e-03,-1.239569996869249735e-06,-2.456700503826141357e-01,-1.861822674982249737e-03,-4.317525508668040857e-06,3.082108218222856522e-03,1.687465012073516846e-01,4.917182624340057373e-01,1.000000000000000000e+00,-7.687052857363596559e-05,0.000000000000000000e+00
6.200885772705078125e-01,2.590327453613281250e+02,4.885043716430664062e+01,4.885043716430664062e+01,3.376367092132568359e-01,-2.197265625000000000e-02,-9.155273437500000000e-05,5.681166172027587891e+00,-2.923583844676613808e-03,-1.239569996869249735e-06,-2.456700503826141357e-01,-1.861822674982249737e-03,-4.317525508668040857e-06,3.082108218222856522e-03,1.687465012073516846e-01,4.917182624340057373e-01,1.000000000000000000e+00,-7.687052857363596559e-05,0.000000000000000000e+00
6.200885772705078125e-01,2.590327453613281250e+02,4.885043716430664062e+01,4.885043716430664062e+01,3.376367092132568359e-01,-2.197265625000000000e-02,-9.155273437500000000e-05,5.681166172027587891e+00,-2.923583844676613808e-03,-1.239569996869249735e-06,-2.456700503826141357e-01,-1.861822674982249737e-03,-4.317525508668040857e-06,3.082108218222856522e-03,1.687465012073516846e-01,4.917182624340057373e-01,1.000000000000000000e+00,-7.687052857363596559e-05,0.000000000000000000e+00
6.200885772705078125e-01,2.590327453613281250e+02,4.885043716430664062e+01,4.885043716430664062e+01,3.376367092132568359e-01,-2.197265625000000000e-02,-9.155273437500000000e-05,5.681166172027587891e+00,-2.923583844676613808e-03,-1.239569996869249735e-06,-2.456700503826141357e-01,-1.861822674982249737e-03,-4.317525508668040857e-06,3.082108218222856522e-03,1.687465012073516846e-01,4.917182624340057373e-01,1.000000000000000000e+00,-7.687052857363596559e-05,0.000000000000000000e+00
6.200885772705078125e-01,2.590327453613281250e+02,4.885043716430664062e+01,4.885043716430664062e+01,3.376367092132568359e-01,-2.197265625000000000e-02,-9.155273437500000000e-05,5.681166172027587891e+00,-2.923583844676613808e-03,-1.239569996869249735e-06,-2.456700503826141357e-01,-1.861822674982249737e-03,-4.317525508668040857e-06,3.082108218222856522e-03,1.687465012073516846e-01,4.917182624340057373e-01,1.000000000000000000e+00,-7.687052857363596559e-05,0.000000000000000000e+00
7.946169376373291016e-01,2.596088867187500000e+02,4.885014724731445312e+01,4.885014724731445312e+01,3.370083570480346680e-01,-2.157592587172985077e-02,-9.155273437500000000e-05,5.678195476531982422e+00,-2.957168966531753540e-03,4.767576911035575904e-07,-1.702127605676651001e-02,-1.924336102092638612e-04,9.834090633376035839e-06,3.115397645160555840e-03,1.701027899980545044e-01,5.020645260810852051e-01,1.000000000000000000e+00,-8.579796849517151713e-05,0.000000000000000000e+00
7.946169376373291016e-01,2.596088867187500000e+02,4.885014724731445312e+01,4.885014724731445312e+01,3.370083570480346680e-01,-2.157592587172985077e-02,-9.155273437500000000e-05,5.678195476531982422e+00,-2.957168966531753540e-03,4.767576911035575904e-07,-1.702127605676651001e-02,-1.924336102092638612e-04,9.834090633376035839e-06,3.115397645160555840e-03,1.701027899980545044e-01,5.020645260810852051e-01,1.000000000000000000e+00,-8.579796849517151713e-05,0.000000000000000000e+00
7.946169376373291016e-01,2.596088867187500000e+02,4.885014724731445312e+01,4.885014724731445312e+01,3.370083570480346680e-01,-2.157592587172985077e-02,-9.155273437500000000e-05,5.678195476531982422e+00,-2.957168966531753540e-03,4.767576911035575904e-07,-1.702127605676651001e-02,-1.924336102092638612e-04,9.834090633376035839e-06,3.115397645160555840e-03,1.701027899980545044e-01,5.020645260810852051e-01,1.000000000000000000e+00,-8.579796849517151713e-05,0.000000000000000000e+00
7.946169376373291016e-01,2.596088867187500000e+02,4.885014724731445312e+01,4.885014724731445312e+01,3.370083570480346680e-01,-2.157592587172985077e-02,-9.155273437500000000e-05,5.678195476531982422e+00,-2.957168966531753540e-03,4.767576911035575904e-07,-1.702127605676651001e-02,-1.924336102092638612e-04,9.834090633376035839e-06,3.115397645160555840e-03,1.701027899980545044e-01,5.020645260810852051e-01,1.000000000000000000e+00,-8.579796849517151713e-05,0.000000000000000000e+00
8.783230781555175781e-01,2.601847534179687500e+02,4.884988021850585938e+01,4.884988021850585938e+01,3.363799750804901123e-01,-2.020263485610485077e-02,-1.220703125000000000e-04,5.675689697265625000e+00,-2.596702193841338158e-03,-9.535153822071151808e-07,-2.993543073534965515e-02,4.306336399167776108e-03,-1.708683703327551484e-05,3.976820968091487885e-03,1.692765504121780396e-01,5.137333273887634277e-01,1.000000000000000000e+00,0.000000000000000000e+00,0.000000000000000000e+00
8.783230781555175781e-01,2.601847534179687500e+02,4.884988021850585938e+01,4.884988021850585938e+01,3.363799750804901123e-01,-2.020263485610485077e-02,-1.220703125000000000e-04,5.675689697265625000e+00,-2.596702193841338158e-03,-9.535153822071151808e-07,-2.993543073534965515e-02,4.306336399167776108e-03,-1.708683703327551484e-05,3.976820968091487885e-03,1.692765504121780396e-01,5.137333273887634277e-01,1.000000000000000000e+00,0.000000000000000000e+00,0.000000000000000000e+00
9.483780860900878906e-01,2.606674804687500000e+02,4.884968185424804688e+01,4.884968185424804688e+01,3.376025855541229248e-01,-1.998901367187500000e-02,-2.136230177711695433e-04,5.723386287689208984e+00,-2.281416906043887138e-03,-2.669915488695551176e-07,6.808448433876037598e-01,4.500539042055606842e-03,9.799782674235757440e-06,2.406966639682650566e-03,7.282834500074386597e-02,2.415818572044372559e-01,1.000000000000000000e+00,0.000000000000000000e+00,0.000000000000000000e+00
9.483780860900878906e-01,2.606674804687500000e+02,4.884968185424804688e+01,4.884968185424804688e+01,3.376025855541229248e-01,-1.998901367187500000e-02,-2.136230177711695433e-04,5.723386287689208984e+00,-2.281416906043887138e-03,-2.669915488695551176e-07,6.808448433876037598e-01,4.500539042055606842e-03,9.799782674235757440e-06,2.406966639682650566e-03,7.282834500074386597e-02,2.415818572044372559e-01,1.000000000000000000e+00,0.000000000000000000e+00,0.000000000000000000e+00
9.483780860900878906e-01,2.606674804687500000e+02,4.884968185424804688e+01,4.884968185424804688e+01,3.376025855541229248e-01,-1.998901367187500000e-02,-2.136230177711695433e-04,5.723386287689208984e+00,-2.281416906043887138e-03,-2.669915488695551176e-07,6.808448433876037598e-01,4.500539042055606842e-03,9.799782674235757440e-06,2.406966639682650566e-03,7.282834500074386597e-02,2.415818572044372559e-01,1.000000000000000000e+00,0.000000000000000000e+00,0.000000000000000000e+00
9.483780860900878906e-01,2.606674804687500000e+02,4.884968185424804688e+01,4.884968185424804688e+01,3.376025855541229248e-01,-1.998901367187500000e-02,-2.136230177711695433e-04,5.723386287689208984e+00,-2.281416906043887138e-03,-2.669915488695551176e-07,6.808448433876037598e-01,4.500539042055606842e-03,9.799782674235757440e-06,2.406966639682650566e-03,7.282834500074386597e-02,2.415818572044372559e-01,1.000000000000000000e+00,0.000000000000000000e+00,0.000000000000000000e+00
9.483780860900878906e-01,2.610722656250000000e+02,4.884951019287109375e+01,4.884951019287109375e+01,3.398223817348480225e-01,-2.310180291533470154e-02,-1.831054541980847716e-04,5.814559936523437500e+00,-2.615157281979918480e-03,5.530535531761415768e-07,1.157040476799011230e+00,-4.235337022691965103e-03,1.040679399011423811e-05,-2.017911989241838455e-03,-1.028130874037742615e-01,-2.276706844568252563e-01,1.000000000000000000e+00,-1.528944267192855477e-04,0.000000000000000000e+00
1.027177095413208008e+00,2.610722656250000000e+02,4.884951019287109375e+01,4.884951019287109375e+01,3.398223817348480225e-01,-2.310180291533470154e-02,-1.831054541980847716e-04,5.814559936523437500e+00,-2.615157281979918480e-03,5.530535531761415768e-07,1.157040476799011230e+00,-4.235337022691965103e-03,1.040679399011423811e-05,-2.017911989241838455e-03,-1.028130874037742615e-01,-2.276706844568252563e-01,1.000000000000000000e+00,-1.528944267192855477e-04,0.000000000000000000e+00
1.027177095413208008e+00,2.610722656250000000e+02,4.884951019287109375e+01,4.884951019287109375e+01,3.398223817348480225e-01,-2.310180291533470154e-02,-1.831054541980847716e-04,5.814559936523437500e+00,-2.615157281979918480e-03,5.530535531761415768e-07,1.157040476799011230e+00,-4.235337022691965103e-03,1.040679399011423811e-05,-2.017911989241838455e-03,-1.028130874037742615e-01,-2.276706844568252563e-01,1.000000000000000000e+00,-1.528944267192855477e-04,0.000000000000000000e+00
1.095043420791625977e+00,2.615258483886718750e+02,4.884928512573242188e+01,4.884928512573242188e+01,3.387090563774108887e-01,-1.870727352797985077e-02,-1.525878906250000000e-04,5.697872638702392578e+00,-2.658837940543889999e-03,-2.831966185112833045e-06,-1.719369649887084961e+00,-6.436278927139937878e-04,-4.987775173503905535e-05,2.005039481446146965e-03,1.321875005960464478e-01,3.750253319740295410e-01,1.000000000000000000e+00,-1.232375361723825336e-04,0.000000000000000000e+00
1.095043420791625977e+00,2.615258483886718750e+02,4.884928512573242188e+01,4.884928512573242188e+01,3.387090563774108887e-01,-1.870727352797985077e-02,-1.525878906250000000e-04,5.697872638702392578e+00,-2.658837940543889999e-03,-2.831966185112833045e-06,-1.719369649887084961e+00,-6.436278927139937878e-04,-4.987775173503905535e-05,2.005039481446146965e-03,1.321875005960464478e-01,3.750253319740295410e-01,1.000000000000000000e+00,-1.232375361723825336e-04,0.000000000000000000e+00
1.095043420791625977e+00,2.615258483886718750e+02,4.884928512573242188e+01,4.884928512573242188e+01,3.387090563774108887e-01,-1.870727352797985077e-02,-1.525878906250000000e-04,5.697872638702392578e+00,-2.658837940543889999e-03,-2.831966185112833045e-06,-1.719369649887084961e+00,-6.436278927139937878e-04,-4.987775173503905535e-05,2.005039481446146965e-03,1.321875005960464478e-01,3.750253319740295410e-01,1.000000000000000000e+00,-1.232375361723825336e-04,0.000000000000000000e+00
1.095043420791625977e+00,2.615258483886718750e+02,4.884928512573242188e+01,4.884928512573242188e+01,3.387090563774108887e-01,-1.870727352797985077e-02,-1.525878906250000000e-04,5.697872638702392578e+00,-2.658837940543889999e-03,-2.831966185112833045e-06,-1.719369649887084961e+00,-6.436278927139937878e-04,-4.987775173503905535e-05,2.005039481446146965e-03,1.321875005960464478e-01,3.750253319740295410e-01,1.000000000000000000e+00,-1.232375361723825336e-04,0.000000000000000000e+00
1.168572425842285156e+00,2.619182128906250000e+02,4.884910964965820312e+01,4.884910964965820312e+01,3.408947288990020752e-01,-2.346801757812500000e-02,-9.155274165095761418e-05,5.812324047088623047e+00,-2.804216928780078888e-03,-1.048899321176577359e-06,1.556547760963439941e+00,-1.977164996787905693e-03,2.424984268145635724e-05,-2.430919557809829712e-03,-9.099239110946655273e-02,-2.242999076843261719e-01,1.000000000000000000e+00,-1.932021841639652848e-04,0.000000000000000000e+00
1.168572425842285156e+00,2.619182128906250000e+02,4.884910964965820312e+01,4.884910964965820312e+01,3.408947288990020752e-01,-2.346801757812500000e-02,-9.155274165095761418e-05,5.812324047088623047e+00,-2.804216928780078888e-03,-1.048899321176577359e-06,1.556547760963439941e+00,-1.977164996787905693e-03,2.424984268145635724e-05,-2.430919557809829712e-03,-9.099239110946655273e-02,-2.242999076843261719e-01,1.000000000000000000e+00,-1.932021841639652848e-04,0.000000000000000000e+00
1.168572425842285156e+00,2.619182128906250000e+02,4.884910964965820312e+01,4.884910964965820312e+01,3.408947288990020752e-01,-2.346801757812500000e-02,-9.155274165095761418e-05,5.812324047088623047e+00,-2.804216928780078888e-03,-1.048899321176577359e-06,1.556547760963439941e+00,-1.977164996787905693e-03,2.424984268145635724e-05,-2.430919557809829712e-03,-9.099239110946655273e-02,-2.242999076843261719e-01,1.000000000000000000e+00,-1.932021841639652848e-04,0.000000000000000000e+00
1.168572425842285156e+00,2.619182128906250000e+02,4.884910964965820312e+01,4.884910964965820312e+01,3.408947288990020752e-01,-2.346801757812500000e-02,-9.155274165095761418e-05,5.812324047088623047e+00,-2.804216928780078888e-03,-1.048899321176577359e-06,1.556547760963439941e+00,-1.977164996787905693e-03,2.424984268145635724e-05,-2.430919557809829712e-03,-9.099239110946655273e-02,-2.242999076843261719e-01,1.000000000000000000e+00,-1.932021841639652848e-04,0.000000000000000000e+00
1.168572425842285156e+00,2.623420104980468750e+02,4.884891128540039062e+01,4.884891128540039062e+01,3.402595221996307373e-01,-2.145385555922985077e-02,-6.103515261202119291e-05,5.719028949737548828e+00,-2.741491189226508141e-03,-1.106099489334155805e-06,-1.243131637573242188e+00,8.358032791875302792e-04,-7.621765689691528678e-07,1.250727917067706585e-03,9.929100424051284790e-02,2.570143938064575195e-01,1.000000000000000000e+00,-1.063285380951128900e-04,0.000000000000000000e+00
1.243620872497558594e+00,2.623420104980468750e+02,4.884891128540039062e+01,4.884891128540039062e+01,3.402595221996307373e-01,-2.145385555922985077e-02,-6.103515261202119291e-05,5.719028949737548828e+00,-2.741491189226508141e-03,-1.106099489334155805e-06,-1.243131637573242188e+00,8.358032791875302792e-04,-7.621765689691528678e-07,1.250727917067706585e-03,9.929100424051284790e-02,2.570143938064575195e-01,1.000000000000000000e+00,-1.063285380951128900e-04,0.000000000000000000e+00
1.243620872497558594e+00,2.623420104980468750e+02,4.884891128540039062e+01,4.884891128540039062e+01,3.402595221996307373e-01,-2.145385555922985077e-02,-6.103515261202119291e-05,5.719028949737548828e+00,-2.741491189226508141e-03,-1.106099489334155805e-06,-1.243131637573242188e+00,8.358032791875302792e-04,-7.621765689691528678e-07,1.250727917067706585e-03,9.929100424051284790e-02,2.570143938064575195e-01,1.000000000000000000e+00,-1.063285380951128900e-04,0.000000000000000000e+00
1.243620872497558594e+00,2.623420104980468750e+02,4.884891128540039062e+01,4.884891128540039062e+01,3.402595221996307373e-01,-2.145385555922985077e-02,-6.103515261202119291e-05,5.719028949737548828e+00,-2.741491189226508141e-03,-1.106099489334155805e-06,-1.243131637573242188e+00,8.358032791875302792e-04,-7.621765689691528678e-07,1.250727917067706585e-03,9.929100424051284790e-02,2.570143938064575195e-01,1.000000000000000000e+00,-1.063285380951128900e-04,0.000000000000000000e+00
1.312042951583862305e+00,2.627761535644531250e+02,4.884871292114257812e+01,4.884871292114257812e+01,3.423495590686798096e-01,-2.780150994658470154e-02,3.863337042275816202e-05,5.832636356353759766e+00,-2.889492549002170563e-03,2.002415584456684883e-07,1.660391092300415039e+00,-2.163064433261752129e-03,1.909239108499605209e-05,-3.069052938371896744e-03,-1.206722259521484375e-01,-3.454759120941162109e-01,1.000000000000000000e+00,-1.351104147033765912e-04,0.000000000000000000e+00
1.312042951583862305e+00,2.627761535644531250e+02,4.884871292114257812e+01,4.884871292114257812e+01,3.423495590686798096e-01,-2.780150994658470154e-02,3.863337042275816202e-05,5.832636356353759766e+00,-2.889492549002170563e-03,2.002415584456684883e-07,1.660391092300415039e+00,-2.163064433261752129e-03,1.909239108499605209e-05,-3.069052938371896744e-03,-1.206722259521484375e-01,-3.454759120941162109e-01,1.000000000000000000e+00,-1.351104147033765912e-04,0.000000000000000000e+00
1.312042951583862305e+00,2.631706848144531250e+02,4.884851455688476562e+01,4.884851455688476562e+01,3.414001464843750000e-01,-2.603149600327014923e-02,5.475505895446985960e-05,5.736189842224121094e+00,-2.886154921725392342e-03,-6.102680458752729464e-07,-1.356750369071960449e+00,4.695169263868592680e-05,-1.140175209002336487e-05,8.833046886138617992e-04,7.613175362348556519e-02,1.845406889915466309e-01,1.000000000000000000e+00,-4.171011823927983642e-05,0.000000000000000000e+00
1.383129358291625977e+00,2.631706848144531250e+02,4.884851455688476562e+01,4.884851455688476562e+01,3.414001464843750000e-01,-2.603149600327014923e-02,5.475505895446985960e-05,5.736189842224121094e+00,-2.886154921725392342e-03,-6.102680458752729464e-07,-1.356750369071960449e+00,4.695169263868592680e-05,-1.140175209002336487e-05,8.833046886138617992e-04,7.613175362348556519e-02,1.845406889915466309e-01,1.000000000000000000e+00,-4.171011823927983642e-05,0.000000000000000000e+00
1.383129358291625977e+00,2.631706848144531250e+02,4.884851455688476562e+01,4.884851455688476562e+01,3.414001464843750000e-01,-2.603149600327014923e-02,5.475505895446985960e-05,5.736189842224121094e+00,-2.886154921725392342e-03,-6.102680458752729464e-07,-1.356750369071960449e+00,4.695169263868592680e-05,-1.140175209002336487e-05,8.833046886138617992e-04,7.613175362348556519e-02,1.845406889915466309e-01,1.000000000000000000e+00,-4.171011823927983642e-05,0.000000000000000000e+00
1.450951814651489258e+00,2.635820312500000000e+02,4.884831619262695312e+01,4.884831619262695312e+01,3.427798449993133545e-01,-3.054809197783470154e-02,1.158829763880930841e-04,5.824635028839111328e+00,-2.999440766870975494e-03,5.911940093028533738e-07,1.304069399833679199e+00,-1.670329482294619083e-03,1.771481220202986151e-05,-2.168165287002921104e-03,-9.399037808179855347e-02,-2.527053058147430420e-01,1.000000000000000000e+00,-5.526061431737616658e-05,0.000000000000000000e+00
1.450951814651489258e+00,2.635820312500000000e+02,4.884831619262695312e+01,4.884831619262695312e+01,3.427798449993133545e-01,-3.054809197783470154e-02,1.158829763880930841e-04,5.824635028839111328e+00,-2.999440766870975494e-03,5.911940093028533738e-07,1.304069399833679199e+00,-1.670329482294619083e-03,1.771481220202986151e-05,-2.168165287002921104e-03,-9.399037808179855347e-02,-2.527053058147430420e-01,1.000000000000000000e+00,-5.526061431737616658e-05,0.000000000000000000e+00
1.450951814651489258e+00,2.635820312500000000e+02,4.884831619262695312e+01,4.884831619262695312e+01,3.427798449993133545e-01,-3.054809197783470154e-02,1.158829763880930841e-04,5.824635028839111328e+00,-2.999440766870975494e-03,5.911940093028533738e-07,1.304069399833679199e+00,-1.670329482294619083e-03,1.771481220202986151e-05,-2.168165287002921104e-03,-9.399037808179855347e-02,-2.527053058147430420e-01,1.000000000000000000e+00,-5.526061431737616658e-05,0.000000000000000000e+00
1.527701377868652344e+00,2.639733581542968750e+02,4.884811401367187500e+01,4.884811401367187500e+01,3.416528701782226562e-01,-2.871703542768955231e-02,1.142744222306646407e-04,5.740219593048095703e+00,-2.971066860482096672e-03,-5.721269644709536806e-07,-1.099881649017333984e+00,3.696946951095014811e-04,-1.515736403234768659e-05,1.099038869142532349e-03,7.695249468088150024e-02,1.741523593664169312e-01,1.000000000000000000e+00,1.378183605993399397e-05,0.000000000000000000e+00
1.527701377868652344e+00,2.639733581542968750e+02,4.884811401367187500e+01,4.884811401367187500e+01,3.416528701782226562e-01,-2.871703542768955231e-02,1.142744222306646407e-04,5.740219593048095703e+00,-2.971066860482096672e-03,-5.721269644709536806e-07,-1.099881649017333984e+00,3.696946951095014811e-04,-1.515736403234768659e-05,1.099038869142532349e-03,7.695249468088150024e-02,1.741523593664169312e-01,1.000000000000000000e+00,1.378183605993399397e-05,0.000000000000000000e+00
1.527701377868652344e+00,2.639733581542968750e+02,4.884811401367187500e+01,4.884811401367187500e+01,3.416528701782226562e-01,-2.871703542768955231e-02,1.142744222306646407e-04,5.740219593048095703e+00,-2.971066860482096672e-03,-5.721269644709536806e-07,-1.099881649017333984e+00,3.696946951095014811e-04,-1.515736403234768659e-05,1.099038869142532349e-03,7.695249468088150024e-02,1.741523593664169312e-01,1.000000000000000000e+00,1.378183605993399397e-05,0.000000000000000000e+00
1.600134611129760742e+00,2.644176635742187500e+02,4.884790039062500000e+01,4.884790039062500000e+01,3.428754806518554688e-01,-3.347777947783470154e-02,1.514432224212214351e-04,5.840401649475097656e+00,-2.996200229972600937e-03,5.911873017794277985e-07,1.383095145225524902e+00,-3.469867224339395761e-04,1.606050318514462560e-05,-2.305073896422982216e-03,-1.185498014092445374e-01,-3.420150279998779297e-01,1.000000000000000000e+00,8.230190360336564481e-06,0.000000000000000000e+00
1.600134611129760742e+00,2.644176635742187500e+02,4.884790039062500000e+01,4.884790039062500000e+01,3.428754806518554688e-01,-3.347777947783470154e-02,1.514432224212214351e-04,5.840401649475097656e+00,-2.996200229972600937e-03,5.911873017794277985e-07,1.383095145225524902e+00,-3.469867224339395761e-04,1.606050318514462560e-05,-2.305073896422982216e-03,-1.185498014092445374e-01,-3.420150279998779297e-01,1.000000000000000000e+00,8.230190360336564481e-06,0.000000000000000000e+00
1.600134611129760742e+00,2.644176635742187500e+02,4.884790039062500000e+01,4.884790039062500000e+01,3.428754806518554688e-01,-3.347777947783470154e-02,1.514432224212214351e-04,5.840401649475097656e+00,-2.996200229972600937e-03,5.911873017794277985e-07,1.383095145225524902e+00,-3.469867224339395761e-04,1.606050318514462560e-05,-2.305073896422982216e-03,-1.185498014092445374e-01,-3.420150279998779297e-01,1.000000000000000000e+00,8.230190360336564481e-06,0.000000000000000000e+00
1.600134611129760742e+00,2.644176635742187500e+02,4.884790039062500000e+01,4.884790039062500000e+01,3.428754806518554688e-01,-3.347777947783470154e-02,1.514432224212214351e-04,5.840401649475097656e+00,-2.996200229972600937e-03,5.911873017794277985e-07,1.383095145225524902e+00,-3.469867224339395761e-04,1.606050318514462560e-05,-2.305073896422982216e-03,-1.185498014092445374e-01,-3.420150279998779297e-01,1.000000000000000000e+00,8.230190360336564481e-06,0.000000000000000000e+00
1.600134611129760742e+00,2.644176635742187500e+02,4.884790039062500000e+01,4.884790039062500000e+01,3.428754806518554688e-01,-3.347777947783470154e-02,1.514432224212214351e-04,5.840401649475097656e+00,-2.996200229972600937e-03,5.911873017794277985e-07,1.383095145225524902e+00,-3.469867224339395761e-04,1.606050318514462560e-05,-2.305073896422982216e-03,-1.185498014092445374e-01,-3.420150279998779297e-01,1.000000000000000000e+00,8.230190360336564481e-06,0.000000000000000000e+00
1.600134611129760742e+00,2.648353881835937500e+02,4.884767150878906250e+01,4.884767150878906250e+01,3.408879041671752930e-01,-2.929687500000000000e-02,9.872965165413916111e-05,5.727192401885986328e+00,-2.914674114435911179e-03,-1.811718703947917675e-07,-9.811957478523254395e-01,7.065949030220508575e-04,-6.694113380945054814e-06,2.308449707925319672e-03,1.076556518673896790e-01,2.781381607055664062e-01,1.000000000000000000e+00,8.372422598768025637e-05,0.000000000000000000e+00
1.715513467788696289e+00,2.648353881835937500e+02,4.884767150878906250e+01,4.884767150878906250e+01,3.408879041671752930e-01,-2.929687500000000000e-02,9.872965165413916111e-05,5.727192401885986328e+00,-2.914674114435911179e-03,-1.811718703947917675e-07,-9.811957478523254395e-01,7.065949030220508575e-04,-6.694113380945054814e-06,2.308449707925319672e-03,1.076556518673896790e-01,2.781381607055664062e-01,1.000000000000000000e+00,8.372422598768025637e-05,0.000000000000000000e+00
1.715513467788696289e+00,2.648353881835937500e+02,4.884767150878906250e+01,4.884767150878906250e+01,3.408879041671752930e-01,-2.929687500000000000e-02,9.872965165413916111e-05,5.727192401885986328e+00,-2.914674114435911179e-03,-1.811718703947917675e-07,-9.811957478523254395e-01,7.065949030220508575e-04,-6.694113380945054814e-06,2.308449707925319672e-03,1.076556518673896790e-01,2.781381607055664062e-01,1.000000000000000000e+00,8.372422598768025637e-05,0.000000000000000000e+00
1.715513467788696289e+00,2.648353881835937500e+02,4.884767150878906250e+01,4.884767150878906250e+01,3.408879041671752930e-01,-2.929687500000000000e-02,9.872965165413916111e-05,5.727192401885986328e+00,-2.914674114435911179e-03,-1.811718703947917675e-07,-9.811957478523254395e-01,7.065949030220508575e-04,-6.694113380945054814e-06,2.308449707925319672e-03,1.076556518673896790e-01,2.781381607055664062e-01,1.000000000000000000e+00,8.372422598768025637e-05,0.000000000000000000e+00
1.813115119934082031e+00,2.654125671386718750e+02,4.884735870361328125e+01,4.884735870361328125e+01,3.389344513416290283e-01,-2.725219726562500000e-02,7.201845437521114945e-05,5.688664436340332031e+00,-3.115691244602203369e-03,-4.004764377896208316e-07,-3.947470784187316895e-01,-2.059567021206021309e-03,-2.246935082439449616e-06,3.417293541133403778e-03,1.820404827594757080e-01,5.021722316741943359e-01,1.000000000000000000e+00,3.064836710109375417e-05,0.000000000000000000e+00
1.813115119934082031e+00,2.654125671386718750e+02,4.884735870361328125e+01,4.884735870361328125e+01,3.389344513416290283e-01,-2.725219726562500000e-02,7.201845437521114945e-05,5.688664436340332031e+00,-3.115691244602203369e-03,-4.004764377896208316e-07,-3.947470784187316895e-01,-2.059567021206021309e-03,-2.246935082439449616e-06,3.417293541133403778e-03,1.820404827594757080e-01,5.021722316741943359e-01,1.000000000000000000e+00,3.064836710109375417e-05,0.000000000000000000e+00
1.813115119934082031e+00,2.654125671386718750e+02,4.884735870361328125e+01,4.884735870361328125e+01,3.389344513416290283e-01,-2.725219726562500000e-02,7.201845437521114945e-05,5.688664436340332031e+00,-3.115691244602203369e-03,-4.004764377896208316e-07,-3.947470784187316895e-01,-2.059567021206021309e-03,-2.246935082439449616e-06,3.417293541133403778e-03,1.820404827594757080e-01,5.021722316741943359e-01,1.000000000000000000e+00,3.064836710109375417e-05,0.000000000000000000e+00
1.813115119934082031e+00,2.654125671386718750e+02,4.884735870361328125e+01,4.884735870361328125e+01,3.389344513416290283e-01,-2.725219726562500000e-02,7.201845437521114945e-05,5.688664436340332031e+00,-3.115691244602203369e-03,-4.004764377896208316e-07,-3.947470784187316895e-01,-2.059567021206021309e-03,-2.246935082439449616e-06,3.417293541133403778e-03,1.820404827594757080e-01,5.021722316741943359e-01,1.000000000000000000e+00,3.064836710109375417e-05,0.000000000000000000e+00
1.896134853363037109e+00,2.659757080078125000e+02,4.884706115722656250e+01,4.884706115722656250e+01,3.374591469764709473e-01,-2.584838867187500000e-02,3.802339051617309451e-05,5.692176818847656250e+00,-3.033561864867806435e-03,-7.628153042560370523e-08,4.230780154466629028e-02,9.892754023894667625e-04,3.905034191120648757e-06,3.480370854958891869e-03,1.662975996732711792e-01,4.734939932823181152e-01,1.000000000000000000e+00,1.677001455391291529e-05,0.000000000000000000e+00
1.896134853363037109e+00,2.659757080078125000e+02,4.884706115722656250e+01,4.884706115722656250e+01,3.374591469764709473e-01,-2.584838867187500000e-02,3.802339051617309451e-05,5.692176818847656250e+00,-3.033561864867806435e-03,-7.628153042560370523e-08,4.230780154466629028e-02,9.892754023894667625e-04,3.905034191120648757e-06,3.480370854958891869e-03,1.662975996732711792e-01,4.734939932823181152e-01,1.000000000000000000e+00,1.677001455391291529e-05,0.000000000000000000e+00
1.896134853363037109e+00,2.659757080078125000e+02,4.884706115722656250e+01,4.884706115722656250e+01,3.374591469764709473e-01,-2.584838867187500000e-02,3.802339051617309451e-05,5.692176818847656250e+00,-3.033561864867806435e-03,-7.628153042560370523e-08,4.230780154466629028e-02,9.892754023894667625e-04,3.905034191120648757e-06,3.480370854958891869e-03,1.662975996732711792e-01,4.734939932823181152e-01,1.000000000000000000e+00,1.677001455391291529e-05,0.000000000000000000e+00
1.896134853363037109e+00,2.659757080078125000e+02,4.884706115722656250e+01,4.884706115722656250e+01,3.374591469764709473e-01,-2.584838867187500000e-02,3.802339051617309451e-05,5.692176818847656250e+00,-3.033561864867806435e-03,-7.628153042560370523e-08,4.230780154466629028e-02,9.892754023894667625e-04,3.905034191120648757e-06,3.480370854958891869e-03,1.662975996732711792e-01,4.734939932823181152e-01,1.000000000000000000e+00,1.677001455391291529e-05,0.000000000000000000e+00
1.896134853363037109e+00,2.659757080078125000e+02,4.884706115722656250e+01,4.884706115722656250e+01,3.374591469764709473e-01,-2.584838867187500000e-02,3.802339051617309451e-05,5.692176818847656250e+00,-3.033561864867806435e-03,-7.628153042560370523e-08,4.230780154466629028e-02,9.892754023894667625e-04,3.905034191120648757e-06,3.480370854958891869e-03,1.662975996732711792e-01,4.734939932823181152e-01,1.000000000000000000e+00,1.677001455391291529e-05,0.000000000000000000e+00
1.896134853363037109e+00,2.659757080078125000e+02,4.884706115722656250e+01,4.884706115722656250e+01,3.374591469764709473e-01,-2.584838867187500000e-02,3.802339051617309451e-05,5.692176818847656250e+00,-3.033561864867806435e-03,-7.628153042560370523e-08,4.230780154466629028e-02,9.892754023894667625e-04,3.905034191120648757e-06,3.480370854958891869e-03,1.662975996732711792e-01,4.734939932823181152e-01,1.000000000000000000e+00,1.677001455391291529e-05,0.000000000000000000e+00
1.896134853363037109e+00,2.659757080078125000e+02,4.884706115722656250e+01,4.884706115722656250e+01,3.374591469764709473e-01,-2.584838867187500000e-02,3.802339051617309451e-05,5.692176818847656250e+00,-3.033561864867806435e-03,-7.628153042560370523e-08,4.230780154466629028e-02,9.892754023894667625e-04,3.905034191120648757e-06,3.480370854958891869e-03,1.662975996732711792e-01,4.734939932823181152e-01,1.000000000000000000e+00,1.677001455391291529e-05,0.000000000000000000e+00
2.195794820785522461e+00,2.675373840332031250e+02,4.884634780883789062e+01,4.884634780883789062e+01,3.378416299819946289e-01,-2.645873837172985077e-02,-1.831054833019152284e-04,5.823151588439941406e+00,-2.403733087703585625e-03,-1.287272198169375770e-06,-3.799580335617065430e-01,-1.001565135084092617e-03,-5.587793566519394517e-05,-1.055689761415123940e-03,-1.141100823879241943e-01,-2.711685299873352051e-01,1.000000000000000000e+00,1.864973455667495728e-05,0.000000000000000000e+00
2.195794820785522461e+00,2.675373840332031250e+02,4.884634780883789062e+01,4.884634780883789062e+01,3.378416299819946289e-01,-2.645873837172985077e-02,-1.831054833019152284e-04,5.823151588439941406e+00,-2.403733087703585625e-03,-1.287272198169375770e-06,-3.799580335617065430e-01,-1.001565135084092617e-03,-5.587793566519394517e-05,-1.055689761415123940e-03,-1.141100823879241943e-01,-2.711685299873352051e-01,1.000000000000000000e+00,1.864973455667495728e-05,0.000000000000000000e+00
2.195794820785522461e+00,2.675373840332031250e+02,4.884634780883789062e+01,4.884634780883789062e+01,3.378416299819946289e-01,-2.645873837172985077e-02,-1.831054833019152284e-04,5.823151588439941406e+00,-2.403733087703585625e-03,-1.287272198169375770e-06,-3.799580335617065430e-01,-1.001565135084092617e-03,-5.587793566519394517e-05,-1.055689761415123940e-03,-1.141100823879241943e-01,-2.711685299873352051e-01,1.000000000000000000e+00,1.864973455667495728e-05,0.000000000000000000e+00
2.195794820785522461e+00,2.675373840332031250e+02,4.884634780883789062e+01,4.884634780883789062e+01,3.378416299819946289e-01,-2.645873837172985077e-02,-1.831054833019152284e-04,5.823151588439941406e+00,-2.403733087703585625e-03,-1.287272198169375770e-06,-3.799580335617065430e-01,-1.001565135084092617e-03,-5.587793566519394517e-05,-1.055689761415123940e-03,-1.141100823879241943e-01,-2.711685299873352051e-01,1.000000000000000000e+00,1.864973455667495728e-05,0.000000000000000000e+00
2.195794820785522461e+00,2.675373840332031250e+02,4.884634780883789062e+01,4.884634780883789062e+01,3.378416299819946289e-01,-2.645873837172985077e-02,-1.831054833019152284e-04,5.823151588439941406e+00,-2.403733087703585625e-03,-1.287272198169375770e-06,-3.799580335617065430e-01,-1.001565135084092617e-03,-5.587793566519394517e-05,-1.055689761415123940e-03,-1.141100823879241943e-01,-2.711685299873352051e-01,1.000000000000000000e+00,1.864973455667495728e-05,0.000000000000000000e+00
2.195794820785522461e+00,2.675373840332031250e+02,4.884634780883789062e+01,4.884634780883789062e+01,3.378416299819946289e-01,-2.645873837172985077e-02,-1.831054833019152284e-04,5.823151588439941406e+00,-2.403733087703585625e-03,-1.287272198169375770e-06,-3.799580335617065430e-01,-1.001565135084092617e-03,-5.587793566519394517e-05,-1.055689761415123940e-03,-1.141100823879241943e-01,-2.711685299873352051e-01,1.000000000000000000e+00,1.864973455667495728e-05,0.000000000000000000e+00
2.195794820785522461e+00,2.675373840332031250e+02,4.884634780883789062e+01,4.884634780883789062e+01,3.378416299819946289e-01,-2.645873837172985077e-02,-1.831054833019152284e-04,5.823151588439941406e+00,-2.403733087703585625e-03,-1.287272198169375770e-06,-3.799580335617065430e-01,-1.001565135084092617e-03,-5.587793566519394517e-05,-1.055689761415123940e-03,-1.141100823879241943e-01,-2.711685299873352051e-01,1.000000000000000000e+00,1.864973455667495728e-05,0.000000000000000000e+00
2.195794820785522461e+00,2.675373840332031250e+02,4.884634780883789062e+01,4.884634780883789062e+01,3.378416299819946289e-01,-2.645873837172985077e-02,-1.831054833019152284e-04,5.823151588439941406e+00,-2.403733087703585625e-03,-1.287272198169375770e-06,-3.799580335617065430e-01,-1.001565135084092617e-03,-5.587793566519394517e-05,-1.055689761415123940e-03,-1.141100823879241943e-01,-2.711685299873352051e-01,1.000000000000000000e+00,1.864973455667495728e-05,0.000000000000000000e+00
2.195794820785522461e+00,2.675373840332031250e+02,4.884634780883789062e+01,4.884634780883789062e+01,3.378416299819946289e-01,-2.645873837172985077e-02,-1.831054833019152284e-04,5.823151588439941406e+00,-2.403733087703585625e-03,-1.287272198169375770e-06,-3.799580335617065430e-01,-1.001565135084092617e-03,-5.587793566519394517e-05,-1.055689761415123940e-03,-1.141100823879241943e-01,-2.711685299873352051e-01,1.000000000000000000e+00,1.864973455667495728e-05,0.000000000000000000e+00
2.195794820785522461e+00,2.675373840332031250e+02,4.884634780883789062e+01,4.884634780883789062e+01,3.378416299819946289e-01,-2.645873837172985077e-02,-1.831054833019152284e-04,5.823151588439941406e+00,-2.403733087703585625e-03,-1.287272198169375770e-06,-3.799580335617065430e-01,-1.001565135084092617e-03,-5.587793566519394517e-05,-1.055689761415123940e-03,-1.141100823879241943e-01,-2.711685299873352051e-01,1.000000000000000000e+00,1.864973455667495728e-05,0.000000000000000000e+00
2.374083757400512695e+00,2.678436279296875000e+02,4.884620666503906250e+01,4.884620666503906250e+01,3.382650911808013916e-01,-2.523803710937500000e-02,-2.136230468750000000e-04,5.808666229248046875e+00,-2.562484936788678169e-03,2.860643348867597524e-07,-8.124653995037078857e-02,-8.904189453460276127e-04,8.824644282867666334e-06,-1.088166609406471252e-03,-8.303927630186080933e-02,-1.685472577810287476e-01,1.000000000000000000e+00,-4.990013985661789775e-05,0.000000000000000000e+00
2.374083757400512695e+00,2.678436279296875000e+02,4.884620666503906250e+01,4.884620666503906250e+01,3.382650911808013916e-01,-2.523803710937500000e-02,-2.136230468750000000e-04,5.808666229248046875e+00,-2.562484936788678169e-03,2.860643348867597524e-07,-8.124653995037078857e-02,-8.904189453460276127e-04,8.824644282867666334e-06,-1.088166609406471252e-03,-8.303927630186080933e-02,-1.685472577810287476e-01,1.000000000000000000e+00,-4.990013985661789775e-05,0.000000000000000000e+00
2.374083757400512695e+00,2.678436279296875000e+02,4.884620666503906250e+01,4.884620666503906250e+01,3.382650911808013916e-01,-2.523803710937500000e-02,-2.136230468750000000e-04,5.808666229248046875e+00,-2.562484936788678169e-03,2.860643348867597524e-07,-8.124653995037078857e-02,-8.904189453460276127e-04,8.824644282867666334e-06,-1.088166609406471252e-03,-8.303927630186080933e-02,-1.685472577810287476e-01,1.000000000000000000e+00,-4.990013985661789775e-05,0.000000000000000000e+00
2.447860002517700195e+00,2.684208679199218750e+02,4.884595489501953125e+01,4.884595489501953125e+01,3.393784165382385254e-01,-2.682494930922985077e-02,-1.831054687500000000e-04,5.847898960113525391e+00,-2.447617007419466972e-03,3.814061244611366419e-07,5.317800045013427734e-01,1.556977164000272751e-03,1.292310116696171463e-06,-3.208653302863240242e-03,-1.630677282810211182e-01,-4.787082970142364502e-01,1.000000000000000000e+00,-6.094726995797827840e-05,0.000000000000000000e+00
2.447860002517700195e+00,2.684208679199218750e+02,4.884595489501953125e+01,4.884595489501953125e+01,3.393784165382385254e-01,-2.682494930922985077e-02,-1.831054687500000000e-04,5.847898960113525391e+00,-2.447617007419466972e-03,3.814061244611366419e-07,5.317800045013427734e-01,1.556977164000272751e-03,1.292310116696171463e-06,-3.208653302863240242e-03,-1.630677282810211182e-01,-4.787082970142364502e-01,1.000000000000000000e+00,-6.094726995797827840e-05,0.000000000000000000e+00
2.500878810882568359e+00,2.688456726074218750e+02,4.884574127197265625e+01,4.884574127197265625e+01,3.380943536758422852e-01,-2.142333798110485077e-02,-1.831054833019152284e-04,5.716692447662353516e+00,-2.606237540021538734e-03,-2.860600716303451918e-07,-2.474716424942016602e+00,-2.991778543218970299e-03,-1.258923475688789040e-05,1.656934036873281002e-03,1.013101339340209961e-01,3.080044686794281006e-01,1.000000000000000000e+00,-5.570277426159009337e-05,0.000000000000000000e+00
2.500878810882568359e+00,2.688456726074218750e+02,4.884574127197265625e+01,4.884574127197265625e+01,3.380943536758422852e-01,-2.142333798110485077e-02,-1.831054833019152284e-04,5.716692447662353516e+00,-2.606237540021538734e-03,-2.860600716303451918e-07,-2.474716424942016602e+00,-2.991778543218970299e-03,-1.258923475688789040e-05,1.656934036873281002e-03,1.013101339340209961e-01,3.080044686794281006e-01,1.000000000000000000e+00,-5.570277426159009337e-05,0.000000000000000000e+00
2.500878810882568359e+00,2.688456726074218750e+02,4.884574127197265625e+01,4.884574127197265625e+01,3.380943536758422852e-01,-2.142333798110485077e-02,-1.831054833019152284e-04,5.716692447662353516e+00,-2.606237540021538734e-03,-2.860600716303451918e-07,-2.474716424942016602e+00,-2.991778543218970299e-03,-1.258923475688789040e-05,1.656934036873281002e-03,1.013101339340209961e-01,3.080044686794281006e-01,1.000000000000000000e+00,-5.570277426159009337e-05,0.000000000000000000e+00
2.560195446014404297e+00,2.691519470214843750e+02,4.884560394287109375e+01,4.884560394287109375e+01,3.389344513416290283e-01,-2.236938476562500000e-02,-1.525878906250000000e-04,5.739984989166259766e+00,-2.791141159832477570e-03,-1.716386123007396236e-06,3.926814198493957520e-01,-3.117230487987399101e-03,-2.411340392427518964e-05,1.792707771528512239e-04,5.719899013638496399e-02,1.689739823341369629e-01,1.000000000000000000e+00,-1.359481102554127574e-04,0.000000000000000000e+00
2.560195446014404297e+00,2.691519470214843750e+02,4.884560394287109375e+01,4.884560394287109375e+01,3.389344513416290283e-01,-2.236938476562500000e-02,-1.525878906250000000e-04,5.739984989166259766e+00,-2.791141159832477570e-03,-1.716386123007396236e-06,3.926814198493957520e-01,-3.117230487987399101e-03,-2.411340392427518964e-05,1.792707771528512239e-04,5.719899013638496399e-02,1.689739823341369629e-01,1.000000000000000000e+00,-1.359481102554127574e-04,0.000000000000000000e+00
2.560195446014404297e+00,2.694944152832031250e+02,4.884543228149414062e+01,4.884543228149414062e+01,3.392418026924133301e-01,-2.252196520566940308e-02,-9.155272709904238582e-05,5.720147609710693359e+00,-2.924275118857622147e-03,-2.669891898676723940e-07,-3.388971686363220215e-01,-2.274429425597190857e-03,2.476115878380369395e-05,6.276859785430133343e-04,1.010056883096694946e-01,2.601793706417083740e-01,1.000000000000000000e+00,-1.340599992545321584e-04,0.000000000000000000e+00
2.618730545043945312e+00,2.694944152832031250e+02,4.884543228149414062e+01,4.884543228149414062e+01,3.392418026924133301e-01,-2.252196520566940308e-02,-9.155272709904238582e-05,5.720147609710693359e+00,-2.924275118857622147e-03,-2.669891898676723940e-07,-3.388971686363220215e-01,-2.274429425597190857e-03,2.476115878380369395e-05,6.276859785430133343e-04,1.010056883096694946e-01,2.601793706417083740e-01,1.000000000000000000e+00,-1.340599992545321584e-04,0.000000000000000000e+00
2.618730545043945312e+00,2.698324890136718750e+02,4.884525680541992188e+01,4.884525680541992188e+01,3.396311402320861816e-01,-2.346801757812500000e-02,-3.051757812500000000e-05,5.721924304962158203e+00,-2.993770176544785500e-03,-1.907069531625893433e-06,3.031720779836177826e-02,-1.185851171612739563e-03,-2.798603418341372162e-05,7.468370022252202034e-04,1.005358323454856873e-01,2.653439640998840332e-01,1.000000000000000000e+00,-1.276995608350262046e-04,0.000000000000000000e+00
2.677334070205688477e+00,2.698324890136718750e+02,4.884525680541992188e+01,4.884525680541992188e+01,3.396311402320861816e-01,-2.346801757812500000e-02,-3.051757812500000000e-05,5.721924304962158203e+00,-2.993770176544785500e-03,-1.907069531625893433e-06,3.031720779836177826e-02,-1.185851171612739563e-03,-2.798603418341372162e-05,7.468370022252202034e-04,1.005358323454856873e-01,2.653439640998840332e-01,1.000000000000000000e+00,-1.276995608350262046e-04,0.000000000000000000e+00
2.677334070205688477e+00,2.698324890136718750e+02,4.884525680541992188e+01,4.884525680541992188e+01,3.396311402320861816e-01,-2.346801757812500000e-02,-3.051757812500000000e-05,5.721924304962158203e+00,-2.993770176544785500e-03,-1.907069531625893433e-06,3.031720779836177826e-02,-1.185851171612739563e-03,-2.798603418341372162e-05,7.468370022252202034e-04,1.005358323454856873e-01,2.653439640998840332e-01,1.000000000000000000e+00,-1.276995608350262046e-04,0.000000000000000000e+00
2.677334070205688477e+00,2.698324890136718750e+02,4.884525680541992188e+01,4.884525680541992188e+01,3.396311402320861816e-01,-2.346801757812500000e-02,-3.051757812500000000e-05,5.721924304962158203e+00,-2.993770176544785500e-03,-1.907069531625893433e-06,3.031720779836177826e-02,-1.185851171612739563e-03,-2.798603418341372162e-05,7.468370022252202034e-04,1.005358323454856873e-01,2.653439640998840332e-01,1.000000000000000000e+00,-1.276995608350262046e-04,0.000000000000000000e+00
2.755024909973144531e+00,2.701709594726562500e+02,4.884508514404296875e+01,4.884508514404296875e+01,3.399248421192169189e-01,-2.453612908720970154e-02,2.981310535687953234e-05,5.722272872924804688e+00,-2.994799055159091949e-03,-1.115635427595407236e-06,4.486603196710348129e-03,-1.324324239249108359e-05,1.018696821120101959e-05,1.055258093401789665e-03,1.028604283928871155e-01,2.683644294738769531e-01,1.000000000000000000e+00,-9.188456169795244932e-05,0.000000000000000000e+00
2.755024909973144531e+00,2.701709594726562500e+02,4.884508514404296875e+01,4.884508514404296875e+01,3.399248421192169189e-01,-2.453612908720970154e-02,2.981310535687953234e-05,5.722272872924804688e+00,-2.994799055159091949e-03,-1.115635427595407236e-06,4.486603196710348129e-03,-1.324324239249108359e-05,1.018696821120101959e-05,1.055258093401789665e-03,1.028604283928871155e-01,2.683644294738769531e-01,1.000000000000000000e+00,-9.188456169795244932e-05,0.000000000000000000e+00
2.755024909973144531e+00,2.701709594726562500e+02,4.884508514404296875e+01,4.884508514404296875e+01,3.399248421192169189e-01,-2.453612908720970154e-02,2.981310535687953234e-05,5.722272872924804688e+00,-2.994799055159091949e-03,-1.115635427595407236e-06,4.486603196710348129e-03,-1.324324239249108359e-05,1.018696821120101959e-05,1.055258093401789665e-03,1.028604283928871155e-01,2.683644294738769531e-01,1.000000000000000000e+00,-9.188456169795244932e-05,0.000000000000000000e+00
2.830169916152954102e+00,2.706206054687500000e+02,4.884488296508789062e+01,4.884488296508789062e+01,3.417758047580718994e-01,-3.121947869658470154e-02,1.158265222329646349e-04,5.840612888336181641e+00,-2.980566583573818207e-03,5.721156526306003798e-07,1.574822068214416504e+00,1.894000888569280505e-04,2.245992436655797064e-05,-3.068171907216310501e-03,-1.292246133089065552e-01,-3.902587592601776123e-01,1.000000000000000000e+00,-7.006976375123485923e-05,0.000000000000000000e+00
2.830169916152954102e+00,2.706206054687500000e+02,4.884488296508789062e+01,4.884488296508789062e+01,3.417758047580718994e-01,-3.121947869658470154e-02,1.158265222329646349e-04,5.840612888336181641e+00,-2.980566583573818207e-03,5.721156526306003798e-07,1.574822068214416504e+00,1.894000888569280505e-04,2.245992436655797064e-05,-3.068171907216310501e-03,-1.292246133089065552e-01,-3.902587592601776123e-01,1.000000000000000000e+00,-7.006976375123485923e-05,0.000000000000000000e+00
2.830169916152954102e+00,2.706206054687500000e+02,4.884488296508789062e+01,4.884488296508789062e+01,3.417758047580718994e-01,-3.121947869658470154e-02,1.158265222329646349e-04,5.840612888336181641e+00,-2.980566583573818207e-03,5.721156526306003798e-07,1.574822068214416504e+00,1.894000888569280505e-04,2.245992436655797064e-05,-3.068171907216310501e-03,-1.292246133089065552e-01,-3.902587592601776123e-01,1.000000000000000000e+00,-7.006976375123485923e-05,0.000000000000000000e+00
2.830169916152954102e+00,2.706206054687500000e+02,4.884488296508789062e+01,4.884488296508789062e+01,3.417758047580718994e-01,-3.121947869658470154e-02,1.158265222329646349e-04,5.840612888336181641e+00,-2.980566583573818207e-03,5.721156526306003798e-07,1.574822068214416504e+00,1.894000888569280505e-04,2.245992436655797064e-05,-3.068171907216310501e-03,-1.292246133089065552e-01,-3.902587592601776123e-01,1.000000000000000000e+00,-7.006976375123485923e-05,0.000000000000000000e+00
2.830169916152954102e+00,2.706206054687500000e+02,4.884488296508789062e+01,4.884488296508789062e+01,3.417758047580718994e-01,-3.121947869658470154e-02,1.158265222329646349e-04,5.840612888336181641e+00,-2.980566583573818207e-03,5.721156526306003798e-07,1.574822068214416504e+00,1.894000888569280505e-04,2.245992436655797064e-05,-3.068171907216310501e-03,-1.292246133089065552e-01,-3.902587592601776123e-01,1.000000000000000000e+00,-7.006976375123485923e-05,0.000000000000000000e+00
2.917726278305053711e+00,2.710536193847656250e+02,4.884464645385742188e+01,4.884464645385742188e+01,3.397882282733917236e-01,-2.700805850327014923e-02,8.245011122198775411e-05,5.715997219085693359e+00,-2.879275241866707802e-03,-1.907062063821740594e-08,-1.423262238502502441e+00,1.156870042905211449e-03,-6.752065019099973142e-06,2.324460074305534363e-03,1.197180002927780151e-01,3.202103376388549805e-01,1.000000000000000000e+00,3.588075560401193798e-05,0.000000000000000000e+00
