# Time,X,Y,Z,Roll,Pitch,Yaw,Vx,Vy,Vz,Ax,Ay,Az,Wx,Wy,Wz,Throttle,Steer,Brake
0.000000000000000000e+00,8.271680450439453125e+01,1.502684478759765625e+02,1.502684478759765625e+02,-3.631269931793212891e-01,2.345118075609207153e-01,2.854918420780450106e-04,1.421322822570800781e+01,5.820377543568611145e-02,1.394646824337542057e-04,-7.111853361129760742e-02,-7.242780993692576885e-04,1.831174246035516262e-03,4.088266752660274506e-03,-3.357202112674713135e-01,-2.385212806984782219e-03,5.000000000000000000e-01,-7.546941560576669872e-06,0.000000000000000000e+00
1.045818328857421875e-01,8.271680450439453125e+01,1.502684478759765625e+02,1.502684478759765625e+02,-3.631269931793212891e-01,2.345118075609207153e-01,2.854918420780450106e-04,1.421322822570800781e+01,5.820377543568611145e-02,1.394646824337542057e-04,-7.111853361129760742e-02,-7.242780993692576885e-04,1.831174246035516262e-03,4.088266752660274506e-03,-3.357202112674713135e-01,-2.385212806984782219e-03,5.000000000000000000e-01,-7.546941560576669872e-06,0.000000000000000000e+00
1.045818328857421875e-01,8.271680450439453125e+01,1.502684478759765625e+02,1.502684478759765625e+02,-3.631269931793212891e-01,2.345118075609207153e-01,2.854918420780450106e-04,1.421322822570800781e+01,5.820377543568611145e-02,1.394646824337542057e-04,-7.111853361129760742e-02,-7.242780993692576885e-04,1.831174246035516262e-03,4.088266752660274506e-03,-3.357202112674713135e-01,-2.385212806984782219e-03,5.000000000000000000e-01,-7.546941560576669872e-06,0.000000000000000000e+00
1.045818328857421875e-01,8.271680450439453125e+01,1.502684478759765625e+02,1.502684478759765625e+02,-3.631269931793212891e-01,2.345118075609207153e-01,2.854918420780450106e-04,1.421322822570800781e+01,5.820377543568611145e-02,1.394646824337542057e-04,-7.111853361129760742e-02,-7.242780993692576885e-04,1.831174246035516262e-03,4.088266752660274506e-03,-3.357202112674713135e-01,-2.385212806984782219e-03,5.000000000000000000e-01,-7.546941560576669872e-06,0.000000000000000000e+00
1.045818328857421875e-01,8.271680450439453125e+01,1.502684478759765625e+02,1.502684478759765625e+02,-3.631269931793212891e-01,2.345118075609207153e-01,2.854918420780450106e-04,1.421322822570800781e+01,5.820377543568611145e-02,1.394646824337542057e-04,-7.111853361129760742e-02,-7.242780993692576885e-04,1.831174246035516262e-03,4.088266752660274506e-03,-3.357202112674713135e-01,-2.385212806984782219e-03,5.000000000000000000e-01,-7.546941560576669872e-06,0.000000000000000000e+00
1.045818328857421875e-01,8.271680450439453125e+01,1.502684478759765625e+02,1.502684478759765625e+02,-3.631269931793212891e-01,2.345118075609207153e-01,2.854918420780450106e-04,1.421322822570800781e+01,5.820377543568611145e-02,1.394646824337542057e-04,-7.111853361129760742e-02,-7.242780993692576885e-04,1.831174246035516262e-03,4.088266752660274506e-03,-3.357202112674713135e-01,-2.385212806984782219e-03,5.000000000000000000e-01,-7.546941560576669872e-06,0.000000000000000000e+00
1.045818328857421875e-01,8.413223266601562500e+01,1.502742614746093750e+02,1.502742614746093750e+02,-2.446505278348922729e-01,2.344420701265335083e-01,0.000000000000000000e+00,1.410332012176513672e+01,5.771529674530029297e-02,2.582882589194923639e-04,-1.049653768539428711e+00,-4.665110725909471512e-03,1.134799094870686531e-03,8.564973250031471252e-03,-1.382853269577026367e+00,-1.531293382868170738e-04,5.000000000000000000e-01,1.562138436383975204e-06,0.000000000000000000e+00
2.092907428741455078e-01,8.413223266601562500e+01,1.502742614746093750e+02,1.502742614746093750e+02,-2.446505278348922729e-01,2.344420701265335083e-01,0.000000000000000000e+00,1.410332012176513672e+01,5.771529674530029297e-02,2.582882589194923639e-04,-1.049653768539428711e+00,-4.665110725909471512e-03,1.134799094870686531e-03,8.564973250031471252e-03,-1.382853269577026367e+00,-1.531293382868170738e-04,5.000000000000000000e-01,1.562138436383975204e-06,0.000000000000000000e+00
2.092907428741455078e-01,8.413223266601562500e+01,1.502742614746093750e+02,1.502742614746093750e+02,-2.446505278348922729e-01,2.344420701265335083e-01,0.000000000000000000e+00,1.410332012176513672e+01,5.771529674530029297e-02,2.582882589194923639e-04,-1.049653768539428711e+00,-4.665110725909471512e-03,1.134799094870686531e-03,8.564973250031471252e-03,-1.382853269577026367e+00,-1.531293382868170738e-04,5.000000000000000000e-01,1.562138436383975204e-06,0.000000000000000000e+00
2.092907428741455078e-01,8.413223266601562500e+01,1.502742614746093750e+02,1.502742614746093750e+02,-2.446505278348922729e-01,2.344420701265335083e-01,0.000000000000000000e+00,1.410332012176513672e+01,5.771529674530029297e-02,2.582882589194923639e-04,-1.049653768539428711e+00,-4.665110725909471512e-03,1.134799094870686531e-03,8.564973250031471252e-03,-1.382853269577026367e+00,-1.531293382868170738e-04,5.000000000000000000e-01,1.562138436383975204e-06,0.000000000000000000e+00
2.092907428741455078e-01,8.413223266601562500e+01,1.502742614746093750e+02,1.502742614746093750e+02,-2.446505278348922729e-01,2.344420701265335083e-01,0.000000000000000000e+00,1.410332012176513672e+01,5.771529674530029297e-02,2.582882589194923639e-04,-1.049653768539428711e+00,-4.665110725909471512e-03,1.134799094870686531e-03,8.564973250031471252e-03,-1.382853269577026367e+00,-1.531293382868170738e-04,5.000000000000000000e-01,1.562138436383975204e-06,0.000000000000000000e+00
2.092907428741455078e-01,8.553687286376953125e+01,1.502799987792968750e+02,1.502799987792968750e+02,-1.204162314534187317e-01,2.344719171524047852e-01,-2.441405813442543149e-04,1.399578666687011719e+01,5.726636573672294617e-02,1.589128660270944238e-04,-1.441108345985412598e+00,-6.016343832015991211e-03,-1.331778126768767834e-03,6.013334263116121292e-03,-1.095504045486450195e+00,4.881009226664900780e-04,5.000000000000000000e-01,2.326567937416257337e-06,0.000000000000000000e+00
2.839093208312988281e-01,8.553687286376953125e+01,1.502799987792968750e+02,1.502799987792968750e+02,-1.204162314534187317e-01,2.344719171524047852e-01,-2.441405813442543149e-04,1.399578666687011719e+01,5.726636573672294617e-02,1.589128660270944238e-04,-1.441108345985412598e+00,-6.016343832015991211e-03,-1.331778126768767834e-03,6.013334263116121292e-03,-1.095504045486450195e+00,4.881009226664900780e-04,5.000000000000000000e-01,2.326567937416257337e-06,0.000000000000000000e+00
2.839093208312988281e-01,8.553687286376953125e+01,1.502799987792968750e+02,1.502799987792968750e+02,-1.204162314534187317e-01,2.344719171524047852e-01,-2.441405813442543149e-04,1.399578666687011719e+01,5.726636573672294617e-02,1.589128660270944238e-04,-1.441108345985412598e+00,-6.016343832015991211e-03,-1.331778126768767834e-03,6.013334263116121292e-03,-1.095504045486450195e+00,4.881009226664900780e-04,5.000000000000000000e-01,2.326567937416257337e-06,0.000000000000000000e+00
2.839093208312988281e-01,8.553687286376953125e+01,1.502799987792968750e+02,1.502799987792968750e+02,-1.204162314534187317e-01,2.344719171524047852e-01,-2.441405813442543149e-04,1.399578666687011719e+01,5.726636573672294617e-02,1.589128660270944238e-04,-1.441108345985412598e+00,-6.016343832015991211e-03,-1.331778126768767834e-03,6.013334263116121292e-03,-1.095504045486450195e+00,4.881009226664900780e-04,5.000000000000000000e-01,2.326567937416257337e-06,0.000000000000000000e+00
2.839093208312988281e-01,8.553687286376953125e+01,1.502799987792968750e+02,1.502799987792968750e+02,-1.204162314534187317e-01,2.344719171524047852e-01,-2.441405813442543149e-04,1.399578666687011719e+01,5.726636573672294617e-02,1.589128660270944238e-04,-1.441108345985412598e+00,-6.016343832015991211e-03,-1.331778126768767834e-03,6.013334263116121292e-03,-1.095504045486450195e+00,4.881009226664900780e-04,5.000000000000000000e-01,2.326567937416257337e-06,0.000000000000000000e+00
3.569011688232421875e-01,8.657796478271484375e+01,1.502842559814453125e+02,1.502842559814453125e+02,-5.285200104117393494e-02,2.346449941396713257e-01,-2.746582031250000000e-04,1.391636466979980469e+01,5.696609243750572205e-02,5.531439092010259628e-05,-1.088094115257263184e+00,-4.113792441785335541e-03,-1.419315696693956852e-03,3.052305197343230247e-03,-8.076940774917602539e-01,3.007905092090368271e-03,5.000000000000000000e-01,1.278668605664279312e-05,0.000000000000000000e+00
3.569011688232421875e-01,8.657796478271484375e+01,1.502842559814453125e+02,1.502842559814453125e+02,-5.285200104117393494e-02,2.346449941396713257e-01,-2.746582031250000000e-04,1.391636466979980469e+01,5.696609243750572205e-02,5.531439092010259628e-05,-1.088094115257263184e+00,-4.113792441785335541e-03,-1.419315696693956852e-03,3.052305197343230247e-03,-8.076940774917602539e-01,3.007905092090368271e-03,5.000000000000000000e-01,1.278668605664279312e-05,0.000000000000000000e+00
3.569011688232421875e-01,8.657796478271484375e+01,1.502842559814453125e+02,1.502842559814453125e+02,-5.285200104117393494e-02,2.346449941396713257e-01,-2.746582031250000000e-04,1.391636466979980469e+01,5.696609243750572205e-02,5.531439092010259628e-05,-1.088094115257263184e+00,-4.113792441785335541e-03,-1.419315696693956852e-03,3.052305197343230247e-03,-8.076940774917602539e-01,3.007905092090368271e-03,5.000000000000000000e-01,1.278668605664279312e-05,0.000000000000000000e+00
3.569011688232421875e-01,8.657796478271484375e+01,1.502842559814453125e+02,1.502842559814453125e+02,-5.285200104117393494e-02,2.346449941396713257e-01,-2.746582031250000000e-04,1.391636466979980469e+01,5.696609243750572205e-02,5.531439092010259628e-05,-1.088094115257263184e+00,-4.113792441785335541e-03,-1.419315696693956852e-03,3.052305197343230247e-03,-8.076940774917602539e-01,3.007905092090368271e-03,5.000000000000000000e-01,1.278668605664279312e-05,0.000000000000000000e+00
4.765405654907226562e-01,8.759058380126953125e+01,1.502884063720703125e+02,1.502884063720703125e+02,-3.756603924557566643e-03,2.348881065845489502e-01,-1.525878760730847716e-04,1.383922290802001953e+01,5.669618770480155945e-02,-1.271062228624941781e-05,-6.447856426239013672e-01,-2.255985513329505920e-03,-5.685837822966277599e-04,3.356771194376051426e-04,-5.917719602584838867e-01,3.494017058983445168e-03,5.000000000000000000e-01,1.211712788062868640e-05,0.000000000000000000e+00
4.765405654907226562e-01,8.759058380126953125e+01,1.502884063720703125e+02,1.502884063720703125e+02,-3.756603924557566643e-03,2.348881065845489502e-01,-1.525878760730847716e-04,1.383922290802001953e+01,5.669618770480155945e-02,-1.271062228624941781e-05,-6.447856426239013672e-01,-2.255985513329505920e-03,-5.685837822966277599e-04,3.356771194376051426e-04,-5.917719602584838867e-01,3.494017058983445168e-03,5.000000000000000000e-01,1.211712788062868640e-05,0.000000000000000000e+00
4.765405654907226562e-01,8.759058380126953125e+01,1.502884063720703125e+02,1.502884063720703125e+02,-3.756603924557566643e-03,2.348881065845489502e-01,-1.525878760730847716e-04,1.383922290802001953e+01,5.669618770480155945e-02,-1.271062228624941781e-05,-6.447856426239013672e-01,-2.255985513329505920e-03,-5.685837822966277599e-04,3.356771194376051426e-04,-5.917719602584838867e-01,3.494017058983445168e-03,5.000000000000000000e-01,1.211712788062868640e-05,0.000000000000000000e+00
4.765405654907226562e-01,8.759058380126953125e+01,1.502884063720703125e+02,1.502884063720703125e+02,-3.756603924557566643e-03,2.348881065845489502e-01,-1.525878760730847716e-04,1.383922290802001953e+01,5.669618770480155945e-02,-1.271062228624941781e-05,-6.447856426239013672e-01,-2.255985513329505920e-03,-5.685837822966277599e-04,3.356771194376051426e-04,-5.917719602584838867e-01,3.494017058983445168e-03,5.000000000000000000e-01,1.211712788062868640e-05,0.000000000000000000e+00
4.765405654907226562e-01,8.759058380126953125e+01,1.502884063720703125e+02,1.502884063720703125e+02,-3.756603924557566643e-03,2.348881065845489502e-01,-1.525878760730847716e-04,1.383922290802001953e+01,5.669618770480155945e-02,-1.271062228624941781e-05,-6.447856426239013672e-01,-2.255985513329505920e-03,-5.685837822966277599e-04,3.356771194376051426e-04,-5.917719602584838867e-01,3.494017058983445168e-03,5.000000000000000000e-01,1.211712788062868640e-05,0.000000000000000000e+00
4.765405654907226562e-01,8.759058380126953125e+01,1.502884063720703125e+02,1.502884063720703125e+02,-3.756603924557566643e-03,2.348881065845489502e-01,-1.525878760730847716e-04,1.383922290802001953e+01,5.669618770480155945e-02,-1.271062228624941781e-05,-6.447856426239013672e-01,-2.255985513329505920e-03,-5.685837822966277599e-04,3.356771194376051426e-04,-5.917719602584838867e-01,3.494017058983445168e-03,5.000000000000000000e-01,1.211712788062868640e-05,0.000000000000000000e+00
4.765405654907226562e-01,8.759058380126953125e+01,1.502884063720703125e+02,1.502884063720703125e+02,-3.756603924557566643e-03,2.348881065845489502e-01,-1.525878760730847716e-04,1.383922290802001953e+01,5.669618770480155945e-02,-1.271062228624941781e-05,-6.447856426239013672e-01,-2.255985513329505920e-03,-5.685837822966277599e-04,3.356771194376051426e-04,-5.917719602584838867e-01,3.494017058983445168e-03,5.000000000000000000e-01,1.211712788062868640e-05,0.000000000000000000e+00
6.200885772705078125e-01,8.896998596191406250e+01,1.502940521240234375e+02,1.502940521240234375e+02,1.872154697775840759e-02,2.350465655326843262e-01,1.084067116607911885e-04,1.382312393188476562e+01,5.668723955750465393e-02,-5.698207678506150842e-05,-1.121504679322242737e-01,-6.233557360246777534e-05,-3.084086929447948933e-04,-7.347477134317159653e-03,1.083578705787658691e+00,8.043739362619817257e-04,1.000000000000000000e+00,1.282989956052915659e-06,0.000000000000000000e+00
6.200885772705078125e-01,8.896998596191406250e+01,1.502940521240234375e+02,1.502940521240234375e+02,1.872154697775840759e-02,2.350465655326843262e-01,1.084067116607911885e-04,1.382312393188476562e+01,5.668723955750465393e-02,-5.698207678506150842e-05,-1.121504679322242737e-01,-6.233557360246777534e-05,-3.084086929447948933e-04,-7.347477134317159653e-03,1.083578705787658691e+00,8.043739362619817257e-04,1.000000000000000000e+00,1.282989956052915659e-06,0.000000000000000000e+00
6.200885772705078125e-01,8.896998596191406250e+01,1.502940521240234375e+02,1.502940521240234375e+02,1.872154697775840759e-02,2.350465655326843262e-01,1.084067116607911885e-04,1.382312393188476562e+01,5.668723955750465393e-02,-5.698207678506150842e-05,-1.121504679322242737e-01,-6.233557360246777534e-05,-3.084086929447948933e-04,-7.347477134317159653e-03,1.083578705787658691e+00,8.043739362619817257e-04,1.000000000000000000e+00,1.282989956052915659e-06,0.000000000000000000e+00
6.200885772705078125e-01,8.896998596191406250e+01,1.502940521240234375e+02,1.502940521240234375e+02,1.872154697775840759e-02,2.350465655326843262e-01,1.084067116607911885e-04,1.382312393188476562e+01,5.668723955750465393e-02,-5.698207678506150842e-05,-1.121504679322242737e-01,-6.233557360246777534e-05,-3.084086929447948933e-04,-7.347477134317159653e-03,1.083578705787658691e+00,8.043739362619817257e-04,1.000000000000000000e+00,1.282989956052915659e-06,0.000000000000000000e+00
6.200885772705078125e-01,8.896998596191406250e+01,1.502940521240234375e+02,1.502940521240234375e+02,1.872154697775840759e-02,2.350465655326843262e-01,1.084067116607911885e-04,1.382312393188476562e+01,5.668723955750465393e-02,-5.698207678506150842e-05,-1.121504679322242737e-01,-6.233557360246777534e-05,-3.084086929447948933e-04,-7.347477134317159653e-03,1.083578705787658691e+00,8.043739362619817257e-04,1.000000000000000000e+00,1.282989956052915659e-06,0.000000000000000000e+00
6.200885772705078125e-01,8.896998596191406250e+01,1.502940521240234375e+02,1.502940521240234375e+02,1.872154697775840759e-02,2.350465655326843262e-01,1.084067116607911885e-04,1.382312393188476562e+01,5.668723955750465393e-02,-5.698207678506150842e-05,-1.121504679322242737e-01,-6.233557360246777534e-05,-3.084086929447948933e-04,-7.347477134317159653e-03,1.083578705787658691e+00,8.043739362619817257e-04,1.000000000000000000e+00,1.282989956052915659e-06,0.000000000000000000e+00
7.946169376373291016e-01,9.037451934814453125e+01,1.502998199462890625e+02,1.502998199462890625e+02,-2.779750227928161621e-01,2.348869144916534424e-01,3.102434275206178427e-04,1.423100090026855469e+01,5.836218595504760742e-02,-8.118229743558913469e-05,2.337023973464965820e+00,9.596986696124076843e-03,-1.386606745654717088e-04,-1.489835791289806366e-02,3.364918947219848633e+00,-2.536833286285400391e-03,1.000000000000000000e+00,-1.171231269836425781e-05,0.000000000000000000e+00
7.946169376373291016e-01,9.037451934814453125e+01,1.502998199462890625e+02,1.502998199462890625e+02,-2.779750227928161621e-01,2.348869144916534424e-01,3.102434275206178427e-04,1.423100090026855469e+01,5.836218595504760742e-02,-8.118229743558913469e-05,2.337023973464965820e+00,9.596986696124076843e-03,-1.386606745654717088e-04,-1.489835791289806366e-02,3.364918947219848633e+00,-2.536833286285400391e-03,1.000000000000000000e+00,-1.171231269836425781e-05,0.000000000000000000e+00
7.946169376373291016e-01,9.037451934814453125e+01,1.502998199462890625e+02,1.502998199462890625e+02,-2.779750227928161621e-01,2.348869144916534424e-01,3.102434275206178427e-04,1.423100090026855469e+01,5.836218595504760742e-02,-8.118229743558913469e-05,2.337023973464965820e+00,9.596986696124076843e-03,-1.386606745654717088e-04,-1.489835791289806366e-02,3.364918947219848633e+00,-2.536833286285400391e-03,1.000000000000000000e+00,-1.171231269836425781e-05,0.000000000000000000e+00
7.946169376373291016e-01,9.037451934814453125e+01,1.502998199462890625e+02,1.502998199462890625e+02,-2.779750227928161621e-01,2.348869144916534424e-01,3.102434275206178427e-04,1.423100090026855469e+01,5.836218595504760742e-02,-8.118229743558913469e-05,2.337023973464965820e+00,9.596986696124076843e-03,-1.386606745654717088e-04,-1.489835791289806366e-02,3.364918947219848633e+00,-2.536833286285400391e-03,1.000000000000000000e+00,-1.171231269836425781e-05,0.000000000000000000e+00
8.783230781555175781e-01,9.182070922851562500e+01,1.503057556152343750e+02,1.503057556152343750e+02,-5.574048757553100586e-01,2.346766889095306396e-01,2.779431524686515331e-04,1.464724445343017578e+01,6.002703681588172913e-02,1.907030799941367150e-08,4.972676753997802734e+00,1.988923177123069763e-02,9.700765949673950672e-04,-7.985128089785575867e-03,2.266753435134887695e+00,-1.818379503674805164e-03,5.000000000000000000e-01,-6.710489742545178160e-06,0.000000000000000000e+00
8.783230781555175781e-01,9.182070922851562500e+01,1.503057556152343750e+02,1.503057556152343750e+02,-5.574048757553100586e-01,2.346766889095306396e-01,2.779431524686515331e-04,1.464724445343017578e+01,6.002703681588172913e-02,1.907030799941367150e-08,4.972676753997802734e+00,1.988923177123069763e-02,9.700765949673950672e-04,-7.985128089785575867e-03,2.266753435134887695e+00,-1.818379503674805164e-03,5.000000000000000000e-01,-6.710489742545178160e-06,0.000000000000000000e+00
9.483780860900878906e-01,9.306295013427734375e+01,1.503108367919921875e+02,1.503108367919921875e+02,-6.925674676895141602e-01,2.346154898405075073e-01,1.184639040729962289e-04,1.498974418640136719e+01,6.139753386378288269e-02,1.327424688497558236e-04,4.889011383056640625e+00,1.956315524876117706e-02,1.894559711217880249e-03,-3.011401742696762085e-03,1.264184236526489258e+00,-2.405052655376493931e-04,5.000000000000000000e-01,0.000000000000000000e+00,0.000000000000000000e+00
9.483780860900878906e-01,9.306295013427734375e+01,1.503108367919921875e+02,1.503108367919921875e+02,-6.925674676895141602e-01,2.346154898405075073e-01,1.184639040729962289e-04,1.498974418640136719e+01,6.139753386378288269e-02,1.327424688497558236e-04,4.889011383056640625e+00,1.956315524876117706e-02,1.894559711217880249e-03,-3.011401742696762085e-03,1.264184236526489258e+00,-2.405052655376493931e-04,5.000000000000000000e-01,0.000000000000000000e+00,0.000000000000000000e+00
9.483780860900878906e-01,9.306295013427734375e+01,1.503108367919921875e+02,1.503108367919921875e+02,-6.925674676895141602e-01,2.346154898405075073e-01,1.184639040729962289e-04,1.498974418640136719e+01,6.139753386378288269e-02,1.327424688497558236e-04,4.889011383056640625e+00,1.956315524876117706e-02,1.894559711217880249e-03,-3.011401742696762085e-03,1.264184236526489258e+00,-2.405052655376493931e-04,5.000000000000000000e-01,0.000000000000000000e+00,0.000000000000000000e+00
9.483780860900878906e-01,9.306295013427734375e+01,1.503108367919921875e+02,1.503108367919921875e+02,-6.925674676895141602e-01,2.346154898405075073e-01,1.184639040729962289e-04,1.498974418640136719e+01,6.139753386378288269e-02,1.327424688497558236e-04,4.889011383056640625e+00,1.956315524876117706e-02,1.894559711217880249e-03,-3.011401742696762085e-03,1.264184236526489258e+00,-2.405052655376493931e-04,5.000000000000000000e-01,0.000000000000000000e+00,0.000000000000000000e+00
9.483780860900878906e-01,9.412461090087890625e+01,1.503151855468750000e+02,1.503151855468750000e+02,-7.572630047798156738e-01,2.345817089080810547e-01,-3.051746170967817307e-05,1.527069950103759766e+01,6.252861768007278442e-02,2.180747396778315306e-04,3.565467596054077148e+00,1.435403525829315186e-02,1.082910457625985146e-03,-8.238097070716321468e-04,7.184758782386779785e-01,-6.638260092586278915e-04,5.000000000000000000e-01,-4.098812951269792393e-06,0.000000000000000000e+00
1.027177095413208008e+00,9.412461090087890625e+01,1.503151855468750000e+02,1.503151855468750000e+02,-7.572630047798156738e-01,2.345817089080810547e-01,-3.051746170967817307e-05,1.527069950103759766e+01,6.252861768007278442e-02,2.180747396778315306e-04,3.565467596054077148e+00,1.435403525829315186e-02,1.082910457625985146e-03,-8.238097070716321468e-04,7.184758782386779785e-01,-6.638260092586278915e-04,5.000000000000000000e-01,-4.098812951269792393e-06,0.000000000000000000e+00
1.027177095413208008e+00,9.412461090087890625e+01,1.503151855468750000e+02,1.503151855468750000e+02,-7.572630047798156738e-01,2.345817089080810547e-01,-3.051746170967817307e-05,1.527069950103759766e+01,6.252861768007278442e-02,2.180747396778315306e-04,3.565467596054077148e+00,1.435403525829315186e-02,1.082910457625985146e-03,-8.238097070716321468e-04,7.184758782386779785e-01,-6.638260092586278915e-04,5.000000000000000000e-01,-4.098812951269792393e-06,0.000000000000000000e+00
1.095043420791625977e+00,9.534169006347656250e+01,1.503201599121093750e+02,1.503201599121093750e+02,-7.879306077957153320e-01,2.346656173467636108e-01,-1.525879924884065986e-04,1.555702590942382812e+01,6.370306760072708130e-02,2.659950405359268188e-04,4.218976020812988281e+00,1.730534061789512634e-02,7.060983334667980671e-04,5.733829457312822342e-04,1.306825429201126099e-01,1.798524986952543259e-03,5.000000000000000000e-01,8.322298526763916016e-06,0.000000000000000000e+00
1.095043420791625977e+00,9.534169006347656250e+01,1.503201599121093750e+02,1.503201599121093750e+02,-7.879306077957153320e-01,2.346656173467636108e-01,-1.525879924884065986e-04,1.555702590942382812e+01,6.370306760072708130e-02,2.659950405359268188e-04,4.218976020812988281e+00,1.730534061789512634e-02,7.060983334667980671e-04,5.733829457312822342e-04,1.306825429201126099e-01,1.798524986952543259e-03,5.000000000000000000e-01,8.322298526763916016e-06,0.000000000000000000e+00
1.095043420791625977e+00,9.534169006347656250e+01,1.503201599121093750e+02,1.503201599121093750e+02,-7.879306077957153320e-01,2.346656173467636108e-01,-1.525879924884065986e-04,1.555702590942382812e+01,6.370306760072708130e-02,2.659950405359268188e-04,4.218976020812988281e+00,1.730534061789512634e-02,7.060983334667980671e-04,5.733829457312822342e-04,1.306825429201126099e-01,1.798524986952543259e-03,5.000000000000000000e-01,8.322298526763916016e-06,0.000000000000000000e+00
1.095043420791625977e+00,9.534169006347656250e+01,1.503201599121093750e+02,1.503201599121093750e+02,-7.879306077957153320e-01,2.346656173467636108e-01,-1.525879924884065986e-04,1.555702590942382812e+01,6.370306760072708130e-02,2.659950405359268188e-04,4.218976020812988281e+00,1.730534061789512634e-02,7.060983334667980671e-04,5.733829457312822342e-04,1.306825429201126099e-01,1.798524986952543259e-03,5.000000000000000000e-01,8.322298526763916016e-06,0.000000000000000000e+00
1.168572425842285156e+00,9.640496826171875000e+01,1.503245239257812500e+02,1.503245239257812500e+02,-7.677883505821228027e-01,2.348091155290603638e-01,-1.831054396461695433e-04,1.572578620910644531e+01,6.441556662321090698e-02,2.777008630800992250e-04,2.295152664184570312e+00,9.690039791166782379e-03,1.592000626260414720e-04,2.218302339315414429e-03,-6.041929125785827637e-01,2.264564391225576401e-03,5.000000000000000000e-01,7.428228855133056641e-06,0.000000000000000000e+00
1.168572425842285156e+00,9.640496826171875000e+01,1.503245239257812500e+02,1.503245239257812500e+02,-7.677883505821228027e-01,2.348091155290603638e-01,-1.831054396461695433e-04,1.572578620910644531e+01,6.441556662321090698e-02,2.777008630800992250e-04,2.295152664184570312e+00,9.690039791166782379e-03,1.592000626260414720e-04,2.218302339315414429e-03,-6.041929125785827637e-01,2.264564391225576401e-03,5.000000000000000000e-01,7.428228855133056641e-06,0.000000000000000000e+00
1.168572425842285156e+00,9.640496826171875000e+01,1.503245239257812500e+02,1.503245239257812500e+02,-7.677883505821228027e-01,2.348091155290603638e-01,-1.831054396461695433e-04,1.572578620910644531e+01,6.441556662321090698e-02,2.777008630800992250e-04,2.295152664184570312e+00,9.690039791166782379e-03,1.592000626260414720e-04,2.218302339315414429e-03,-6.041929125785827637e-01,2.264564391225576401e-03,5.000000000000000000e-01,7.428228855133056641e-06,0.000000000000000000e+00
1.168572425842285156e+00,9.640496826171875000e+01,1.503245239257812500e+02,1.503245239257812500e+02,-7.677883505821228027e-01,2.348091155290603638e-01,-1.831054396461695433e-04,1.572578620910644531e+01,6.441556662321090698e-02,2.777008630800992250e-04,2.295152664184570312e+00,9.690039791166782379e-03,1.592000626260414720e-04,2.218302339315414429e-03,-6.041929125785827637e-01,2.264564391225576401e-03,5.000000000000000000e-01,7.428228855133056641e-06,0.000000000000000000e+00
1.168572425842285156e+00,9.756534576416015625e+01,1.503292694091796875e+02,1.503292694091796875e+02,-6.838931441307067871e-01,2.349808216094970703e-01,-9.155279258266091347e-05,1.579336357116699219e+01,6.473139673471450806e-02,2.772018779069185257e-04,9.004498124122619629e-01,4.208349622786045074e-03,-6.648840553680201992e-06,4.410733468830585480e-03,-1.479338526725769043e+00,2.423568628728389740e-03,5.000000000000000000e-01,6.865461728011723608e-06,0.000000000000000000e+00
1.243620872497558594e+00,9.756534576416015625e+01,1.503292694091796875e+02,1.503292694091796875e+02,-6.838931441307067871e-01,2.349808216094970703e-01,-9.155279258266091347e-05,1.579336357116699219e+01,6.473139673471450806e-02,2.772018779069185257e-04,9.004498124122619629e-01,4.208349622786045074e-03,-6.648840553680201992e-06,4.410733468830585480e-03,-1.479338526725769043e+00,2.423568628728389740e-03,5.000000000000000000e-01,6.865461728011723608e-06,0.000000000000000000e+00
1.243620872497558594e+00,9.756534576416015625e+01,1.503292694091796875e+02,1.503292694091796875e+02,-6.838931441307067871e-01,2.349808216094970703e-01,-9.155279258266091347e-05,1.579336357116699219e+01,6.473139673471450806e-02,2.772018779069185257e-04,9.004498124122619629e-01,4.208349622786045074e-03,-6.648840553680201992e-06,4.410733468830585480e-03,-1.479338526725769043e+00,2.423568628728389740e-03,5.000000000000000000e-01,6.865461728011723608e-06,0.000000000000000000e+00
1.243620872497558594e+00,9.756534576416015625e+01,1.503292694091796875e+02,1.503292694091796875e+02,-6.838931441307067871e-01,2.349808216094970703e-01,-9.155279258266091347e-05,1.579336357116699219e+01,6.473139673471450806e-02,2.772018779069185257e-04,9.004498124122619629e-01,4.208349622786045074e-03,-6.648840553680201992e-06,4.410733468830585480e-03,-1.479338526725769043e+00,2.423568628728389740e-03,5.000000000000000000e-01,6.865461728011723608e-06,0.000000000000000000e+00
1.312042951583862305e+00,9.874991607666015625e+01,1.503340911865234375e+02,1.503340911865234375e+02,-5.415315032005310059e-01,2.350448518991470337e-01,6.221735384315252304e-05,1.575109004974365234e+01,6.459147483110427856e-02,2.205136115662753582e-04,-6.178345084190368652e-01,-2.044981811195611954e-03,-8.285084040835499763e-04,6.500050425529479980e-03,-2.120208501815795898e+00,2.760205243248492479e-04,5.000000000000000000e-01,-2.659360461620963179e-06,0.000000000000000000e+00
1.312042951583862305e+00,9.874991607666015625e+01,1.503340911865234375e+02,1.503340911865234375e+02,-5.415315032005310059e-01,2.350448518991470337e-01,6.221735384315252304e-05,1.575109004974365234e+01,6.459147483110427856e-02,2.205136115662753582e-04,-6.178345084190368652e-01,-2.044981811195611954e-03,-8.285084040835499763e-04,6.500050425529479980e-03,-2.120208501815795898e+00,2.760205243248492479e-04,5.000000000000000000e-01,-2.659360461620963179e-06,0.000000000000000000e+00
1.312042951583862305e+00,9.982435607910156250e+01,1.503384857177734375e+02,1.503384857177734375e+02,-3.879683911800384521e-01,2.351894676685333252e-01,2.250609541079029441e-04,1.564861583709716797e+01,6.420845538377761841e-02,1.099912769859656692e-04,-1.441544413566589355e+00,-5.388082470744848251e-03,-1.554760383442044258e-03,7.098704110831022263e-03,-2.314732074737548828e+00,2.829487901180982590e-03,5.000000000000000000e-01,1.157472524937475100e-05,0.000000000000000000e+00
1.383129358291625977e+00,9.982435607910156250e+01,1.503384857177734375e+02,1.503384857177734375e+02,-3.879683911800384521e-01,2.351894676685333252e-01,2.250609541079029441e-04,1.564861583709716797e+01,6.420845538377761841e-02,1.099912769859656692e-04,-1.441544413566589355e+00,-5.388082470744848251e-03,-1.554760383442044258e-03,7.098704110831022263e-03,-2.314732074737548828e+00,2.829487901180982590e-03,5.000000000000000000e-01,1.157472524937475100e-05,0.000000000000000000e+00
1.383129358291625977e+00,9.982435607910156250e+01,1.503384857177734375e+02,1.503384857177734375e+02,-3.879683911800384521e-01,2.351894676685333252e-01,2.250609541079029441e-04,1.564861583709716797e+01,6.420845538377761841e-02,1.099912769859656692e-04,-1.441544413566589355e+00,-5.388082470744848251e-03,-1.554760383442044258e-03,7.098704110831022263e-03,-2.314732074737548828e+00,2.829487901180982590e-03,5.000000000000000000e-01,1.157472524937475100e-05,0.000000000000000000e+00
1.450951814651489258e+00,1.009316711425781250e+02,1.503430480957031250e+02,1.503430480957031250e+02,-2.243990153074264526e-01,2.353452742099761963e-01,3.945547214243561029e-04,1.550933456420898438e+01,6.367360055446624756e-02,-2.583136483735870570e-05,-2.053615808486938477e+00,-7.886102423071861267e-03,-2.002620603889226913e-03,6.872018333524465561e-03,-2.240833520889282227e+00,1.966763520613312721e-03,5.000000000000000000e-01,4.710753728431882337e-06,0.000000000000000000e+00
1.450951814651489258e+00,1.009316711425781250e+02,1.503430480957031250e+02,1.503430480957031250e+02,-2.243990153074264526e-01,2.353452742099761963e-01,3.945547214243561029e-04,1.550933456420898438e+01,6.367360055446624756e-02,-2.583136483735870570e-05,-2.053615808486938477e+00,-7.886102423071861267e-03,-2.002620603889226913e-03,6.872018333524465561e-03,-2.240833520889282227e+00,1.966763520613312721e-03,5.000000000000000000e-01,4.710753728431882337e-06,0.000000000000000000e+00
1.450951814651489258e+00,1.009316711425781250e+02,1.503430480957031250e+02,1.503430480957031250e+02,-2.243990153074264526e-01,2.353452742099761963e-01,3.945547214243561029e-04,1.550933456420898438e+01,6.367360055446624756e-02,-2.583136483735870570e-05,-2.053615808486938477e+00,-7.886102423071861267e-03,-2.002620603889226913e-03,6.872018333524465561e-03,-2.240833520889282227e+00,1.966763520613312721e-03,5.000000000000000000e-01,4.710753728431882337e-06,0.000000000000000000e+00
1.527701377868652344e+00,1.019781875610351562e+02,1.503473358154296875e+02,1.503473358154296875e+02,-8.343758434057235718e-02,2.354680597782135010e-01,5.380521761253476143e-04,1.536085319519042969e+01,6.309917569160461426e-02,-1.536256168037652969e-04,-1.934621691703796387e+00,-7.484405767172574997e-03,-1.665081130340695381e-03,6.137348711490631104e-03,-1.975679039955139160e+00,1.740160980261862278e-03,5.000000000000000000e-01,4.783272743225097656e-06,0.000000000000000000e+00
1.527701377868652344e+00,1.019781875610351562e+02,1.503473358154296875e+02,1.503473358154296875e+02,-8.343758434057235718e-02,2.354680597782135010e-01,5.380521761253476143e-04,1.536085319519042969e+01,6.309917569160461426e-02,-1.536256168037652969e-04,-1.934621691703796387e+00,-7.484405767172574997e-03,-1.665081130340695381e-03,6.137348711490631104e-03,-1.975679039955139160e+00,1.740160980261862278e-03,5.000000000000000000e-01,4.783272743225097656e-06,0.000000000000000000e+00
1.527701377868652344e+00,1.019781875610351562e+02,1.503473358154296875e+02,1.503473358154296875e+02,-8.343758434057235718e-02,2.354680597782135010e-01,5.380521761253476143e-04,1.536085319519042969e+01,6.309917569160461426e-02,-1.536256168037652969e-04,-1.934621691703796387e+00,-7.484405767172574997e-03,-1.665081130340695381e-03,6.137348711490631104e-03,-1.975679039955139160e+00,1.740160980261862278e-03,5.000000000000000000e-01,4.783272743225097656e-06,0.000000000000000000e+00
1.600134611129760742e+00,1.031496887207031250e+02,1.503521575927734375e+02,1.503521575927734375e+02,5.486007779836654663e-02,2.353084832429885864e-01,6.140650366432964802e-04,1.518515586853027344e+01,6.237602978944778442e-02,-2.564704045653343201e-04,-2.425645351409912109e+00,-9.983620606362819672e-03,-1.419856329448521137e-03,6.537011824548244476e-03,-1.635764360427856445e+00,-3.588357474654912949e-03,5.000000000000000000e-01,-1.939535104611422867e-05,0.000000000000000000e+00
1.600134611129760742e+00,1.031496887207031250e+02,1.503521575927734375e+02,1.503521575927734375e+02,5.486007779836654663e-02,2.353084832429885864e-01,6.140650366432964802e-04,1.518515586853027344e+01,6.237602978944778442e-02,-2.564704045653343201e-04,-2.425645351409912109e+00,-9.983620606362819672e-03,-1.419856329448521137e-03,6.537011824548244476e-03,-1.635764360427856445e+00,-3.588357474654912949e-03,5.000000000000000000e-01,-1.939535104611422867e-05,0.000000000000000000e+00
1.600134611129760742e+00,1.031496887207031250e+02,1.503521575927734375e+02,1.503521575927734375e+02,5.486007779836654663e-02,2.353084832429885864e-01,6.140650366432964802e-04,1.518515586853027344e+01,6.237602978944778442e-02,-2.564704045653343201e-04,-2.425645351409912109e+00,-9.983620606362819672e-03,-1.419856329448521137e-03,6.537011824548244476e-03,-1.635764360427856445e+00,-3.588357474654912949e-03,5.000000000000000000e-01,-1.939535104611422867e-05,0.000000000000000000e+00
1.600134611129760742e+00,1.031496887207031250e+02,1.503521575927734375e+02,1.503521575927734375e+02,5.486007779836654663e-02,2.353084832429885864e-01,6.140650366432964802e-04,1.518515586853027344e+01,6.237602978944778442e-02,-2.564704045653343201e-04,-2.425645351409912109e+00,-9.983620606362819672e-03,-1.419856329448521137e-03,6.537011824548244476e-03,-1.635764360427856445e+00,-3.588357474654912949e-03,5.000000000000000000e-01,-1.939535104611422867e-05,0.000000000000000000e+00
1.600134611129760742e+00,1.031496887207031250e+02,1.503521575927734375e+02,1.503521575927734375e+02,5.486007779836654663e-02,2.353084832429885864e-01,6.140650366432964802e-04,1.518515586853027344e+01,6.237602978944778442e-02,-2.564704045653343201e-04,-2.425645351409912109e+00,-9.983620606362819672e-03,-1.419856329448521137e-03,6.537011824548244476e-03,-1.635764360427856445e+00,-3.588357474654912949e-03,5.000000000000000000e-01,-1.939535104611422867e-05,0.000000000000000000e+00
1.600134611129760742e+00,1.042427673339843750e+02,1.503566436767578125e+02,1.503566436767578125e+02,1.563156992197036743e-01,2.349502444267272949e-01,5.108757177367806435e-04,1.501805400848388672e+01,6.163985282182693481e-02,-3.105476498603820801e-04,-1.448288321495056152e+00,-6.380518432706594467e-03,-4.686928295996040106e-04,7.748533040285110474e-03,-1.266289710998535156e+00,-5.551551468670368195e-03,5.000000000000000000e-01,-2.220273017883300781e-05,0.000000000000000000e+00
1.715513467788696289e+00,1.042427673339843750e+02,1.503566436767578125e+02,1.503566436767578125e+02,1.563156992197036743e-01,2.349502444267272949e-01,5.108757177367806435e-04,1.501805400848388672e+01,6.163985282182693481e-02,-3.105476498603820801e-04,-1.448288321495056152e+00,-6.380518432706594467e-03,-4.686928295996040106e-04,7.748533040285110474e-03,-1.266289710998535156e+00,-5.551551468670368195e-03,5.000000000000000000e-01,-2.220273017883300781e-05,0.000000000000000000e+00
1.715513467788696289e+00,1.042427673339843750e+02,1.503566436767578125e+02,1.503566436767578125e+02,1.563156992197036743e-01,2.349502444267272949e-01,5.108757177367806435e-04,1.501805400848388672e+01,6.163985282182693481e-02,-3.105476498603820801e-04,-1.448288321495056152e+00,-6.380518432706594467e-03,-4.686928295996040106e-04,7.748533040285110474e-03,-1.266289710998535156e+00,-5.551551468670368195e-03,5.000000000000000000e-01,-2.220273017883300781e-05,0.000000000000000000e+00
1.715513467788696289e+00,1.042427673339843750e+02,1.503566436767578125e+02,1.503566436767578125e+02,1.563156992197036743e-01,2.349502444267272949e-01,5.108757177367806435e-04,1.501805400848388672e+01,6.163985282182693481e-02,-3.105476498603820801e-04,-1.448288321495056152e+00,-6.380518432706594467e-03,-4.686928295996040106e-04,7.748533040285110474e-03,-1.266289710998535156e+00,-5.551551468670368195e-03,5.000000000000000000e-01,-2.220273017883300781e-05,0.000000000000000000e+00
1.813115119934082031e+00,1.057317810058593750e+02,1.503627471923828125e+02,1.503627471923828125e+02,2.595676779747009277e-01,2.344305217266082764e-01,6.009692151565104723e-05,1.479160499572753906e+01,6.059292703866958618e-02,-3.140498301945626736e-04,-2.320135116577148438e+00,-1.072651706635951996e-02,-3.588238905649632215e-05,9.120982140302658081e-03,-8.411167263984680176e-01,-5.104967392981052399e-03,5.000000000000000000e-01,-1.664956471358891577e-05,0.000000000000000000e+00
1.813115119934082031e+00,1.057317810058593750e+02,1.503627471923828125e+02,1.503627471923828125e+02,2.595676779747009277e-01,2.344305217266082764e-01,6.009692151565104723e-05,1.479160499572753906e+01,6.059292703866958618e-02,-3.140498301945626736e-04,-2.320135116577148438e+00,-1.072651706635951996e-02,-3.588238905649632215e-05,9.120982140302658081e-03,-8.411167263984680176e-01,-5.104967392981052399e-03,5.000000000000000000e-01,-1.664956471358891577e-05,0.000000000000000000e+00
1.813115119934082031e+00,1.057317810058593750e+02,1.503627471923828125e+02,1.503627471923828125e+02,2.595676779747009277e-01,2.344305217266082764e-01,6.009692151565104723e-05,1.479160499572753906e+01,6.059292703866958618e-02,-3.140498301945626736e-04,-2.320135116577148438e+00,-1.072651706635951996e-02,-3.588238905649632215e-05,9.120982140302658081e-03,-8.411167263984680176e-01,-5.104967392981052399e-03,5.000000000000000000e-01,-1.664956471358891577e-05,0.000000000000000000e+00
1.813115119934082031e+00,1.057317810058593750e+02,1.503627471923828125e+02,1.503627471923828125e+02,2.595676779747009277e-01,2.344305217266082764e-01,6.009692151565104723e-05,1.479160499572753906e+01,6.059292703866958618e-02,-3.140498301945626736e-04,-2.320135116577148438e+00,-1.072651706635951996e-02,-3.588238905649632215e-05,9.120982140302658081e-03,-8.411167263984680176e-01,-5.104967392981052399e-03,5.000000000000000000e-01,-1.664956471358891577e-05,0.000000000000000000e+00
1.896134853363037109e+00,1.071635894775390625e+02,1.503686065673828125e+02,1.503686065673828125e+02,3.205202817916870117e-01,2.342662215232849121e-01,-4.882812500000000000e-04,1.457979202270507812e+01,5.963904410600662231e-02,-2.780080540105700493e-04,-2.551357030868530273e+00,-1.148983370512723923e-02,4.341350577306002378e-04,7.277166005223989487e-03,-4.877027571201324463e-01,-3.877810959238559008e-04,5.000000000000000000e-01,3.392497774257208221e-06,0.000000000000000000e+00
1.896134853363037109e+00,1.071635894775390625e+02,1.503686065673828125e+02,1.503686065673828125e+02,3.205202817916870117e-01,2.342662215232849121e-01,-4.882812500000000000e-04,1.457979202270507812e+01,5.963904410600662231e-02,-2.780080540105700493e-04,-2.551357030868530273e+00,-1.148983370512723923e-02,4.341350577306002378e-04,7.277166005223989487e-03,-4.877027571201324463e-01,-3.877810959238559008e-04,5.000000000000000000e-01,3.392497774257208221e-06,0.000000000000000000e+00
1.896134853363037109e+00,1.071635894775390625e+02,1.503686065673828125e+02,1.503686065673828125e+02,3.205202817916870117e-01,2.342662215232849121e-01,-4.882812500000000000e-04,1.457979202270507812e+01,5.963904410600662231e-02,-2.780080540105700493e-04,-2.551357030868530273e+00,-1.148983370512723923e-02,4.341350577306002378e-04,7.277166005223989487e-03,-4.877027571201324463e-01,-3.877810959238559008e-04,5.000000000000000000e-01,3.392497774257208221e-06,0.000000000000000000e+00
1.896134853363037109e+00,1.071635894775390625e+02,1.503686065673828125e+02,1.503686065673828125e+02,3.205202817916870117e-01,2.342662215232849121e-01,-4.882812500000000000e-04,1.457979202270507812e+01,5.963904410600662231e-02,-2.780080540105700493e-04,-2.551357030868530273e+00,-1.148983370512723923e-02,4.341350577306002378e-04,7.277166005223989487e-03,-4.877027571201324463e-01,-3.877810959238559008e-04,5.000000000000000000e-01,3.392497774257208221e-06,0.000000000000000000e+00
1.896134853363037109e+00,1.071635894775390625e+02,1.503686065673828125e+02,1.503686065673828125e+02,3.205202817916870117e-01,2.342662215232849121e-01,-4.882812500000000000e-04,1.457979202270507812e+01,5.963904410600662231e-02,-2.780080540105700493e-04,-2.551357030868530273e+00,-1.148983370512723923e-02,4.341350577306002378e-04,7.277166005223989487e-03,-4.877027571201324463e-01,-3.877810959238559008e-04,5.000000000000000000e-01,3.392497774257208221e-06,0.000000000000000000e+00
1.896134853363037109e+00,1.071635894775390625e+02,1.503686065673828125e+02,1.503686065673828125e+02,3.205202817916870117e-01,2.342662215232849121e-01,-4.882812500000000000e-04,1.457979202270507812e+01,5.963904410600662231e-02,-2.780080540105700493e-04,-2.551357030868530273e+00,-1.148983370512723923e-02,4.341350577306002378e-04,7.277166005223989487e-03,-4.877027571201324463e-01,-3.877810959238559008e-04,5.000000000000000000e-01,3.392497774257208221e-06,0.000000000000000000e+00
1.896134853363037109e+00,1.071635894775390625e+02,1.503686065673828125e+02,1.503686065673828125e+02,3.205202817916870117e-01,2.342662215232849121e-01,-4.882812500000000000e-04,1.457979202270507812e+01,5.963904410600662231e-02,-2.780080540105700493e-04,-2.551357030868530273e+00,-1.148983370512723923e-02,4.341350577306002378e-04,7.277166005223989487e-03,-4.877027571201324463e-01,-3.877810959238559008e-04,5.000000000000000000e-01,3.392497774257208221e-06,0.000000000000000000e+00
2.195794820785522461e+00,1.110324859619140625e+02,1.503844451904296875e+02,1.503844451904296875e+02,3.609481453895568848e-01,2.350414991378784180e-01,-2.746583195403218269e-04,1.405335140228271484e+01,5.763160064816474915e-02,-1.136041610152460635e-04,-3.019591808319091797e+00,-1.128334552049636841e-02,1.016530091874301434e-03,-4.776281304657459259e-03,6.948673725128173828e-02,6.024380563758313656e-04,5.000000000000000000e-01,-8.930762760428478941e-07,0.000000000000000000e+00
2.195794820785522461e+00,1.110324859619140625e+02,1.503844451904296875e+02,1.503844451904296875e+02,3.609481453895568848e-01,2.350414991378784180e-01,-2.746583195403218269e-04,1.405335140228271484e+01,5.763160064816474915e-02,-1.136041610152460635e-04,-3.019591808319091797e+00,-1.128334552049636841e-02,1.016530091874301434e-03,-4.776281304657459259e-03,6.948673725128173828e-02,6.024380563758313656e-04,5.000000000000000000e-01,-8.930762760428478941e-07,0.000000000000000000e+00
2.195794820785522461e+00,1.110324859619140625e+02,1.503844451904296875e+02,1.503844451904296875e+02,3.609481453895568848e-01,2.350414991378784180e-01,-2.746583195403218269e-04,1.405335140228271484e+01,5.763160064816474915e-02,-1.136041610152460635e-04,-3.019591808319091797e+00,-1.128334552049636841e-02,1.016530091874301434e-03,-4.776281304657459259e-03,6.948673725128173828e-02,6.024380563758313656e-04,5.000000000000000000e-01,-8.930762760428478941e-07,0.000000000000000000e+00
2.195794820785522461e+00,1.110324859619140625e+02,1.503844451904296875e+02,1.503844451904296875e+02,3.609481453895568848e-01,2.350414991378784180e-01,-2.746583195403218269e-04,1.405335140228271484e+01,5.763160064816474915e-02,-1.136041610152460635e-04,-3.019591808319091797e+00,-1.128334552049636841e-02,1.016530091874301434e-03,-4.776281304657459259e-03,6.948673725128173828e-02,6.024380563758313656e-04,5.000000000000000000e-01,-8.930762760428478941e-07,0.000000000000000000e+00
2.195794820785522461e+00,1.110324859619140625e+02,1.503844451904296875e+02,1.503844451904296875e+02,3.609481453895568848e-01,2.350414991378784180e-01,-2.746583195403218269e-04,1.405335140228271484e+01,5.763160064816474915e-02,-1.136041610152460635e-04,-3.019591808319091797e+00,-1.128334552049636841e-02,1.016530091874301434e-03,-4.776281304657459259e-03,6.948673725128173828e-02,6.024380563758313656e-04,5.000000000000000000e-01,-8.930762760428478941e-07,0.000000000000000000e+00
2.195794820785522461e+00,1.110324859619140625e+02,1.503844451904296875e+02,1.503844451904296875e+02,3.609481453895568848e-01,2.350414991378784180e-01,-2.746583195403218269e-04,1.405335140228271484e+01,5.763160064816474915e-02,-1.136041610152460635e-04,-3.019591808319091797e+00,-1.128334552049636841e-02,1.016530091874301434e-03,-4.776281304657459259e-03,6.948673725128173828e-02,6.024380563758313656e-04,5.000000000000000000e-01,-8.930762760428478941e-07,0.000000000000000000e+00
2.195794820785522461e+00,1.110324859619140625e+02,1.503844451904296875e+02,1.503844451904296875e+02,3.609481453895568848e-01,2.350414991378784180e-01,-2.746583195403218269e-04,1.405335140228271484e+01,5.763160064816474915e-02,-1.136041610152460635e-04,-3.019591808319091797e+00,-1.128334552049636841e-02,1.016530091874301434e-03,-4.776281304657459259e-03,6.948673725128173828e-02,6.024380563758313656e-04,5.000000000000000000e-01,-8.930762760428478941e-07,0.000000000000000000e+00
2.195794820785522461e+00,1.110324859619140625e+02,1.503844451904296875e+02,1.503844451904296875e+02,3.609481453895568848e-01,2.350414991378784180e-01,-2.746583195403218269e-04,1.405335140228271484e+01,5.763160064816474915e-02,-1.136041610152460635e-04,-3.019591808319091797e+00,-1.128334552049636841e-02,1.016530091874301434e-03,-4.776281304657459259e-03,6.948673725128173828e-02,6.024380563758313656e-04,5.000000000000000000e-01,-8.930762760428478941e-07,0.000000000000000000e+00
2.195794820785522461e+00,1.110324859619140625e+02,1.503844451904296875e+02,1.503844451904296875e+02,3.609481453895568848e-01,2.350414991378784180e-01,-2.746583195403218269e-04,1.405335140228271484e+01,5.763160064816474915e-02,-1.136041610152460635e-04,-3.019591808319091797e+00,-1.128334552049636841e-02,1.016530091874301434e-03,-4.776281304657459259e-03,6.948673725128173828e-02,6.024380563758313656e-04,5.000000000000000000e-01,-8.930762760428478941e-07,0.000000000000000000e+00
2.195794820785522461e+00,1.110324859619140625e+02,1.503844451904296875e+02,1.503844451904296875e+02,3.609481453895568848e-01,2.350414991378784180e-01,-2.746583195403218269e-04,1.405335140228271484e+01,5.763160064816474915e-02,-1.136041610152460635e-04,-3.019591808319091797e+00,-1.128334552049636841e-02,1.016530091874301434e-03,-4.776281304657459259e-03,6.948673725128173828e-02,6.024380563758313656e-04,5.000000000000000000e-01,-8.930762760428478941e-07,0.000000000000000000e+00
2.374083757400512695e+00,1.117758560180664062e+02,1.503874969482421875e+02,1.503874969482421875e+02,3.445420563220977783e-01,2.349642515182495117e-01,-6.103522900957614183e-05,1.398748111724853516e+01,5.736865848302841187e-02,-8.143298327922821045e-05,-3.694580495357513428e-01,-1.474809134379029274e-03,1.804440398700535297e-04,-5.683124065399169922e-03,4.978774487972259521e-01,-2.338802674785256386e-03,5.000000000000000000e-01,-1.468658410885836929e-05,0.000000000000000000e+00
2.374083757400512695e+00,1.117758560180664062e+02,1.503874969482421875e+02,1.503874969482421875e+02,3.445420563220977783e-01,2.349642515182495117e-01,-6.103522900957614183e-05,1.398748111724853516e+01,5.736865848302841187e-02,-8.143298327922821045e-05,-3.694580495357513428e-01,-1.474809134379029274e-03,1.804440398700535297e-04,-5.683124065399169922e-03,4.978774487972259521e-01,-2.338802674785256386e-03,5.000000000000000000e-01,-1.468658410885836929e-05,0.000000000000000000e+00
2.374083757400512695e+00,1.117758560180664062e+02,1.503874969482421875e+02,1.503874969482421875e+02,3.445420563220977783e-01,2.349642515182495117e-01,-6.103522900957614183e-05,1.398748111724853516e+01,5.736865848302841187e-02,-8.143298327922821045e-05,-3.694580495357513428e-01,-1.474809134379029274e-03,1.804440398700535297e-04,-5.683124065399169922e-03,4.978774487972259521e-01,-2.338802674785256386e-03,5.000000000000000000e-01,-1.468658410885836929e-05,0.000000000000000000e+00
2.447860002517700195e+00,1.131681442260742188e+02,1.503932037353515625e+02,1.503932037353515625e+02,2.783165276050567627e-01,2.347100973129272461e-01,1.672814978519454598e-04,1.388119697570800781e+01,5.690359324216842651e-02,-2.862453220586758107e-05,-1.440628290176391602e+00,-6.303726229816675186e-03,7.157920626923441887e-04,-3.581225173547863960e-03,6.542119979858398438e-01,-2.757024252787232399e-03,5.000000000000000000e-01,-9.834766387939453125e-06,0.000000000000000000e+00
2.447860002517700195e+00,1.131681442260742188e+02,1.503932037353515625e+02,1.503932037353515625e+02,2.783165276050567627e-01,2.347100973129272461e-01,1.672814978519454598e-04,1.388119697570800781e+01,5.690359324216842651e-02,-2.862453220586758107e-05,-1.440628290176391602e+00,-6.303726229816675186e-03,7.157920626923441887e-04,-3.581225173547863960e-03,6.542119979858398438e-01,-2.757024252787232399e-03,5.000000000000000000e-01,-9.834766387939453125e-06,0.000000000000000000e+00
2.500878810882568359e+00,1.141885986328125000e+02,1.503973846435546875e+02,1.503973846435546875e+02,2.364952862262725830e-01,2.346913367509841919e-01,1.707489427644759417e-04,1.380325031280517578e+01,5.656126886606216431e-02,1.520886053185677156e-05,-1.470170021057128906e+00,-6.456659175455570221e-03,8.267516968771815300e-04,-1.705243834294378757e-03,5.193687081336975098e-01,6.254633772186934948e-04,1.000000000000000000e+00,6.412466518668225035e-06,0.000000000000000000e+00
2.500878810882568359e+00,1.141885986328125000e+02,1.503973846435546875e+02,1.503973846435546875e+02,2.364952862262725830e-01,2.346913367509841919e-01,1.707489427644759417e-04,1.380325031280517578e+01,5.656126886606216431e-02,1.520886053185677156e-05,-1.470170021057128906e+00,-6.456659175455570221e-03,8.267516968771815300e-04,-1.705243834294378757e-03,5.193687081336975098e-01,6.254633772186934948e-04,1.000000000000000000e+00,6.412466518668225035e-06,0.000000000000000000e+00
2.500878810882568359e+00,1.141885986328125000e+02,1.503973846435546875e+02,1.503973846435546875e+02,2.364952862262725830e-01,2.346913367509841919e-01,1.707489427644759417e-04,1.380325031280517578e+01,5.656126886606216431e-02,1.520886053185677156e-05,-1.470170021057128906e+00,-6.456659175455570221e-03,8.267516968771815300e-04,-1.705243834294378757e-03,5.193687081336975098e-01,6.254633772186934948e-04,1.000000000000000000e+00,6.412466518668225035e-06,0.000000000000000000e+00
2.560195446014404297e+00,1.149184722900390625e+02,1.504003906250000000e+02,1.504003906250000000e+02,2.125144898891448975e-01,2.346400171518325806e-01,1.211230846820399165e-04,1.374759483337402344e+01,5.631297081708908081e-02,3.556733645382337272e-05,-9.382777214050292969e-01,-4.185976460576057434e-03,3.432169614825397730e-04,-5.525270826183259487e-04,4.219135344028472900e-01,-1.534069655463099480e-03,1.000000000000000000e+00,-8.256733053713105619e-06,0.000000000000000000e+00
2.560195446014404297e+00,1.149184722900390625e+02,1.504003906250000000e+02,1.504003906250000000e+02,2.125144898891448975e-01,2.346400171518325806e-01,1.211230846820399165e-04,1.374759483337402344e+01,5.631297081708908081e-02,3.556733645382337272e-05,-9.382777214050292969e-01,-4.185976460576057434e-03,3.432169614825397730e-04,-5.525270826183259487e-04,4.219135344028472900e-01,-1.534069655463099480e-03,1.000000000000000000e+00,-8.256733053713105619e-06,0.000000000000000000e+00
2.560195446014404297e+00,1.157315368652343750e+02,1.504037017822265625e+02,1.504037017822265625e+02,1.903300434350967407e-01,2.344553023576736450e-01,1.749688090058043599e-05,1.368570804595947266e+01,5.602791160345077515e-02,5.017490184400230646e-05,-1.057259440422058105e+00,-4.869885277003049850e-03,2.495522494427859783e-04,6.723068072460591793e-04,3.386190533638000488e-01,-3.684069029986858368e-03,1.000000000000000000e+00,-1.572221481183078140e-05,0.000000000000000000e+00
2.618730545043945312e+00,1.157315368652343750e+02,1.504037017822265625e+02,1.504037017822265625e+02,1.903300434350967407e-01,2.344553023576736450e-01,1.749688090058043599e-05,1.368570804595947266e+01,5.602791160345077515e-02,5.017490184400230646e-05,-1.057259440422058105e+00,-4.869885277003049850e-03,2.495522494427859783e-04,6.723068072460591793e-04,3.386190533638000488e-01,-3.684069029986858368e-03,1.000000000000000000e+00,-1.572221481183078140e-05,0.000000000000000000e+00
2.618730545043945312e+00,1.165303268432617188e+02,1.504069824218750000e+02,1.504069824218750000e+02,1.734594702720642090e-01,2.344326972961425781e-01,-9.155271254712715745e-05,1.362500572204589844e+01,5.576462671160697937e-02,5.621087257168255746e-05,-1.035813570022583008e+00,-4.492646083235740662e-03,1.029967170325107872e-04,8.109514019452035427e-04,2.608555853366851807e-01,7.722680456936359406e-04,1.000000000000000000e+00,9.741882422531489283e-06,0.000000000000000000e+00
2.677334070205688477e+00,1.165303268432617188e+02,1.504069824218750000e+02,1.504069824218750000e+02,1.734594702720642090e-01,2.344326972961425781e-01,-9.155271254712715745e-05,1.362500572204589844e+01,5.576462671160697937e-02,5.621087257168255746e-05,-1.035813570022583008e+00,-4.492646083235740662e-03,1.029967170325107872e-04,8.109514019452035427e-04,2.608555853366851807e-01,7.722680456936359406e-04,1.000000000000000000e+00,9.741882422531489283e-06,0.000000000000000000e+00
2.677334070205688477e+00,1.165303268432617188e+02,1.504069824218750000e+02,1.504069824218750000e+02,1.734594702720642090e-01,2.344326972961425781e-01,-9.155271254712715745e-05,1.362500572204589844e+01,5.576462671160697937e-02,5.621087257168255746e-05,-1.035813570022583008e+00,-4.492646083235740662e-03,1.029967170325107872e-04,8.109514019452035427e-04,2.608555853366851807e-01,7.722680456936359406e-04,1.000000000000000000e+00,9.741882422531489283e-06,0.000000000000000000e+00
2.677334070205688477e+00,1.165303268432617188e+02,1.504069824218750000e+02,1.504069824218750000e+02,1.734594702720642090e-01,2.344326972961425781e-01,-9.155271254712715745e-05,1.362500572204589844e+01,5.576462671160697937e-02,5.621087257168255746e-05,-1.035813570022583008e+00,-4.492646083235740662e-03,1.029967170325107872e-04,8.109514019452035427e-04,2.608555853366851807e-01,7.722680456936359406e-04,1.000000000000000000e+00,9.741882422531489283e-06,0.000000000000000000e+00
2.755024909973144531e+00,1.173265304565429688e+02,1.504102478027343750e+02,1.504102478027343750e+02,1.604343056678771973e-01,2.345146387815475464e-01,-1.831054250942543149e-04,1.356461143493652344e+01,5.551401898264884949e-02,5.940520713920705020e-05,-7.773669362068176270e-01,-3.225705120712518692e-03,4.111597445444203913e-05,3.970614925492554903e-04,2.011711299419403076e-01,1.683600479736924171e-03,1.000000000000000000e+00,8.224447810789570212e-06,0.000000000000000000e+00
2.755024909973144531e+00,1.173265304565429688e+02,1.504102478027343750e+02,1.504102478027343750e+02,1.604343056678771973e-01,2.345146387815475464e-01,-1.831054250942543149e-04,1.356461143493652344e+01,5.551401898264884949e-02,5.940520713920705020e-05,-7.773669362068176270e-01,-3.225705120712518692e-03,4.111597445444203913e-05,3.970614925492554903e-04,2.011711299419403076e-01,1.683600479736924171e-03,1.000000000000000000e+00,8.224447810789570212e-06,0.000000000000000000e+00
2.755024909973144531e+00,1.173265304565429688e+02,1.504102478027343750e+02,1.504102478027343750e+02,1.604343056678771973e-01,2.345146387815475464e-01,-1.831054250942543149e-04,1.356461143493652344e+01,5.551401898264884949e-02,5.940520713920705020e-05,-7.773669362068176270e-01,-3.225705120712518692e-03,4.111597445444203913e-05,3.970614925492554903e-04,2.011711299419403076e-01,1.683600479736924171e-03,1.000000000000000000e+00,8.224447810789570212e-06,0.000000000000000000e+00
2.830169916152954102e+00,1.183755264282226562e+02,1.504145202636718750e+02,1.504145202636718750e+02,1.676128357648849487e-01,2.347147911787033081e-01,-2.136230032192543149e-04,1.340926361083984375e+01,5.490384623408317566e-02,5.569545828620903194e-05,-2.067307233810424805e+00,-8.119937032461166382e-03,-4.936786717735230923e-05,4.261134192347526550e-03,-1.149224162101745605e+00,2.569267293438315392e-03,1.000000000000000000e+00,1.218418310600100085e-05,0.000000000000000000e+00
2.830169916152954102e+00,1.183755264282226562e+02,1.504145202636718750e+02,1.504145202636718750e+02,1.676128357648849487e-01,2.347147911787033081e-01,-2.136230032192543149e-04,1.340926361083984375e+01,5.490384623408317566e-02,5.569545828620903194e-05,-2.067307233810424805e+00,-8.119937032461166382e-03,-4.936786717735230923e-05,4.261134192347526550e-03,-1.149224162101745605e+00,2.569267293438315392e-03,1.000000000000000000e+00,1.218418310600100085e-05,0.000000000000000000e+00
2.830169916152954102e+00,1.183755264282226562e+02,1.504145202636718750e+02,1.504145202636718750e+02,1.676128357648849487e-01,2.347147911787033081e-01,-2.136230032192543149e-04,1.340926361083984375e+01,5.490384623408317566e-02,5.569545828620903194e-05,-2.067307233810424805e+00,-8.119937032461166382e-03,-4.936786717735230923e-05,4.261134192347526550e-03,-1.149224162101745605e+00,2.569267293438315392e-03,1.000000000000000000e+00,1.218418310600100085e-05,0.000000000000000000e+00
2.830169916152954102e+00,1.183755264282226562e+02,1.504145202636718750e+02,1.504145202636718750e+02,1.676128357648849487e-01,2.347147911787033081e-01,-2.136230032192543149e-04,1.340926361083984375e+01,5.490384623408317566e-02,5.569545828620903194e-05,-2.067307233810424805e+00,-8.119937032461166382e-03,-4.936786717735230923e-05,4.261134192347526550e-03,-1.149224162101745605e+00,2.569267293438315392e-03,1.000000000000000000e+00,1.218418310600100085e-05,0.000000000000000000e+00
2.830169916152954102e+00,1.183755264282226562e+02,1.504145202636718750e+02,1.504145202636718750e+02,1.676128357648849487e-01,2.347147911787033081e-01,-2.136230032192543149e-04,1.340926361083984375e+01,5.490384623408317566e-02,5.569545828620903194e-05,-2.067307233810424805e+00,-8.119937032461166382e-03,-4.936786717735230923e-05,4.261134192347526550e-03,-1.149224162101745605e+00,2.569267293438315392e-03,1.000000000000000000e+00,1.218418310600100085e-05,0.000000000000000000e+00
2.917726278305053711e+00,1.193663558959960938e+02,1.504185943603515625e+02,1.504185943603515625e+02,3.681744933128356934e-01,2.348903864622116089e-01,-9.155274165095761418e-05,1.301911067962646484e+01,5.334601178765296936e-02,4.882078883383655921e-06,-4.456020355224609375e+00,-1.779236085712909698e-02,-5.803504609502851963e-04,1.114183105528354645e-02,-3.170502662658691406e+00,2.309589413926005363e-03,1.000000000000000000e+00,2.045482324319891632e-05,0.000000000000000000e+00
