# Time,X,Y,Z,Roll,Pitch,Yaw,Vx,Vy,Vz,Ax,Ay,Az,Wx,Wy,Wz,Throttle,Steer,Brake
0.000000000000000000e+00,6.550969848632812500e+02,3.242347002029418945e+00,3.242347002029418945e+00,3.383129239082336426e-01,-1.210284042358398438e+02,-4.769592881202697754e-01,-7.724487781524658203e+00,-1.255436229705810547e+01,-2.886364018195308745e-05,-3.258444309234619141e+00,1.877131581306457520e+00,-3.015733682332211174e-06,-3.860777914524078369e-01,-1.759046465158462524e-01,-1.792987251281738281e+01,5.000000000000000000e-01,-7.279652357101440430e-02,0.000000000000000000e+00
1.045818328857421875e-01,6.550969848632812500e+02,3.242347002029418945e+00,3.242347002029418945e+00,3.383129239082336426e-01,-1.210284042358398438e+02,-4.769592881202697754e-01,-7.724487781524658203e+00,-1.255436229705810547e+01,-2.886364018195308745e-05,-3.258444309234619141e+00,1.877131581306457520e+00,-3.015733682332211174e-06,-3.860777914524078369e-01,-1.759046465158462524e-01,-1.792987251281738281e+01,5.000000000000000000e-01,-7.279652357101440430e-02,0.000000000000000000e+00
1.045818328857421875e-01,6.550969848632812500e+02,3.242347002029418945e+00,3.242347002029418945e+00,3.383129239082336426e-01,-1.210284042358398438e+02,-4.769592881202697754e-01,-7.724487781524658203e+00,-1.255436229705810547e+01,-2.886364018195308745e-05,-3.258444309234619141e+00,1.877131581306457520e+00,-3.015733682332211174e-06,-3.860777914524078369e-01,-1.759046465158462524e-01,-1.792987251281738281e+01,5.000000000000000000e-01,-7.279652357101440430e-02,0.000000000000000000e+00
1.045818328857421875e-01,6.550969848632812500e+02,3.242347002029418945e+00,3.242347002029418945e+00,3.383129239082336426e-01,-1.210284042358398438e+02,-4.769592881202697754e-01,-7.724487781524658203e+00,-1.255436229705810547e+01,-2.886364018195308745e-05,-3.258444309234619141e+00,1.877131581306457520e+00,-3.015733682332211174e-06,-3.860777914524078369e-01,-1.759046465158462524e-01,-1.792987251281738281e+01,5.000000000000000000e-01,-7.279652357101440430e-02,0.000000000000000000e+00
1.045818328857421875e-01,6.550969848632812500e+02,3.242347002029418945e+00,3.242347002029418945e+00,3.383129239082336426e-01,-1.210284042358398438e+02,-4.769592881202697754e-01,-7.724487781524658203e+00,-1.255436229705810547e+01,-2.886364018195308745e-05,-3.258444309234619141e+00,1.877131581306457520e+00,-3.015733682332211174e-06,-3.860777914524078369e-01,-1.759046465158462524e-01,-1.792987251281738281e+01,5.000000000000000000e-01,-7.279652357101440430e-02,0.000000000000000000e+00
1.045818328857421875e-01,6.550969848632812500e+02,3.242347002029418945e+00,3.242347002029418945e+00,3.383129239082336426e-01,-1.210284042358398438e+02,-4.769592881202697754e-01,-7.724487781524658203e+00,-1.255436229705810547e+01,-2.886364018195308745e-05,-3.258444309234619141e+00,1.877131581306457520e+00,-3.015733682332211174e-06,-3.860777914524078369e-01,-1.759046465158462524e-01,-1.792987251281738281e+01,5.000000000000000000e-01,-7.279652357101440430e-02,0.000000000000000000e+00
1.045818328857421875e-01,6.543141479492187500e+02,1.997473359107971191e+00,1.997473359107971191e+00,3.615082204341888428e-01,-1.229310760498046875e+02,-5.202330350875854492e-01,-8.135600090026855469e+00,-1.225159072875976562e+01,-3.165670932503417134e-05,-3.926239967346191406e+00,2.891554832458496094e+00,-2.667460648808628321e-05,-3.867606818675994873e-01,-2.098691910505294800e-01,-1.952374839782714844e+01,5.000000000000000000e-01,-8.075005561113357544e-02,0.000000000000000000e+00
2.092907428741455078e-01,6.543141479492187500e+02,1.997473359107971191e+00,1.997473359107971191e+00,3.615082204341888428e-01,-1.229310760498046875e+02,-5.202330350875854492e-01,-8.135600090026855469e+00,-1.225159072875976562e+01,-3.165670932503417134e-05,-3.926239967346191406e+00,2.891554832458496094e+00,-2.667460648808628321e-05,-3.867606818675994873e-01,-2.098691910505294800e-01,-1.952374839782714844e+01,5.000000000000000000e-01,-8.075005561113357544e-02,0.000000000000000000e+00
2.092907428741455078e-01,6.543141479492187500e+02,1.997473359107971191e+00,1.997473359107971191e+00,3.615082204341888428e-01,-1.229310760498046875e+02,-5.202330350875854492e-01,-8.135600090026855469e+00,-1.225159072875976562e+01,-3.165670932503417134e-05,-3.926239967346191406e+00,2.891554832458496094e+00,-2.667460648808628321e-05,-3.867606818675994873e-01,-2.098691910505294800e-01,-1.952374839782714844e+01,5.000000000000000000e-01,-8.075005561113357544e-02,0.000000000000000000e+00
2.092907428741455078e-01,6.543141479492187500e+02,1.997473359107971191e+00,1.997473359107971191e+00,3.615082204341888428e-01,-1.229310760498046875e+02,-5.202330350875854492e-01,-8.135600090026855469e+00,-1.225159072875976562e+01,-3.165670932503417134e-05,-3.926239967346191406e+00,2.891554832458496094e+00,-2.667460648808628321e-05,-3.867606818675994873e-01,-2.098691910505294800e-01,-1.952374839782714844e+01,5.000000000000000000e-01,-8.075005561113357544e-02,0.000000000000000000e+00
2.092907428741455078e-01,6.543141479492187500e+02,1.997473359107971191e+00,1.997473359107971191e+00,3.615082204341888428e-01,-1.229310760498046875e+02,-5.202330350875854492e-01,-8.135600090026855469e+00,-1.225159072875976562e+01,-3.165670932503417134e-05,-3.926239967346191406e+00,2.891554832458496094e+00,-2.667460648808628321e-05,-3.867606818675994873e-01,-2.098691910505294800e-01,-1.952374839782714844e+01,5.000000000000000000e-01,-8.075005561113357544e-02,0.000000000000000000e+00
2.092907428741455078e-01,6.534943847656250000e+02,7.818351387977600098e-01,7.818351387977600098e-01,3.794648051261901855e-01,-1.247837524414062500e+02,-5.334167480468750000e-01,-8.469126701354980469e+00,-1.196068096160888672e+01,-2.177829082938842475e-05,-4.469752788543701172e+00,3.898623943328857422e+00,1.323855103692039847e-04,-1.813877969980239868e-01,1.987516134977340698e-02,-1.806177711486816406e+01,5.000000000000000000e-01,-7.018051296472549438e-02,0.000000000000000000e+00
2.839093208312988281e-01,6.534943847656250000e+02,7.818351387977600098e-01,7.818351387977600098e-01,3.794648051261901855e-01,-1.247837524414062500e+02,-5.334167480468750000e-01,-8.469126701354980469e+00,-1.196068096160888672e+01,-2.177829082938842475e-05,-4.469752788543701172e+00,3.898623943328857422e+00,1.323855103692039847e-04,-1.813877969980239868e-01,1.987516134977340698e-02,-1.806177711486816406e+01,5.000000000000000000e-01,-7.018051296472549438e-02,0.000000000000000000e+00
2.839093208312988281e-01,6.534943847656250000e+02,7.818351387977600098e-01,7.818351387977600098e-01,3.794648051261901855e-01,-1.247837524414062500e+02,-5.334167480468750000e-01,-8.469126701354980469e+00,-1.196068096160888672e+01,-2.177829082938842475e-05,-4.469752788543701172e+00,3.898623943328857422e+00,1.323855103692039847e-04,-1.813877969980239868e-01,1.987516134977340698e-02,-1.806177711486816406e+01,5.000000000000000000e-01,-7.018051296472549438e-02,0.000000000000000000e+00
2.839093208312988281e-01,6.534943847656250000e+02,7.818351387977600098e-01,7.818351387977600098e-01,3.794648051261901855e-01,-1.247837524414062500e+02,-5.334167480468750000e-01,-8.469126701354980469e+00,-1.196068096160888672e+01,-2.177829082938842475e-05,-4.469752788543701172e+00,3.898623943328857422e+00,1.323855103692039847e-04,-1.813877969980239868e-01,1.987516134977340698e-02,-1.806177711486816406e+01,5.000000000000000000e-01,-7.018051296472549438e-02,0.000000000000000000e+00
2.839093208312988281e-01,6.534943847656250000e+02,7.818351387977600098e-01,7.818351387977600098e-01,3.794648051261901855e-01,-1.247837524414062500e+02,-5.334167480468750000e-01,-8.469126701354980469e+00,-1.196068096160888672e+01,-2.177829082938842475e-05,-4.469752788543701172e+00,3.898623943328857422e+00,1.323855103692039847e-04,-1.813877969980239868e-01,1.987516134977340698e-02,-1.806177711486816406e+01,5.000000000000000000e-01,-7.018051296472549438e-02,0.000000000000000000e+00
3.569011688232421875e-01,6.528605346679687500e+02,-1.051470190286636353e-01,-1.051470190286636353e-01,3.899149894714355469e-01,-1.261276168823242188e+02,-5.415343046188354492e-01,-8.721121788024902344e+00,-1.171655368804931641e+01,-1.562838951940648258e-05,-3.452373027801513672e+00,3.344582796096801758e+00,8.425462874583899975e-05,-1.685062646865844727e-01,-9.991063736379146576e-03,-1.797852516174316406e+01,5.000000000000000000e-01,-7.209014892578125000e-02,0.000000000000000000e+00
3.569011688232421875e-01,6.528605346679687500e+02,-1.051470190286636353e-01,-1.051470190286636353e-01,3.899149894714355469e-01,-1.261276168823242188e+02,-5.415343046188354492e-01,-8.721121788024902344e+00,-1.171655368804931641e+01,-1.562838951940648258e-05,-3.452373027801513672e+00,3.344582796096801758e+00,8.425462874583899975e-05,-1.685062646865844727e-01,-9.991063736379146576e-03,-1.797852516174316406e+01,5.000000000000000000e-01,-7.209014892578125000e-02,0.000000000000000000e+00
3.569011688232421875e-01,6.528605346679687500e+02,-1.051470190286636353e-01,-1.051470190286636353e-01,3.899149894714355469e-01,-1.261276168823242188e+02,-5.415343046188354492e-01,-8.721121788024902344e+00,-1.171655368804931641e+01,-1.562838951940648258e-05,-3.452373027801513672e+00,3.344582796096801758e+00,8.425462874583899975e-05,-1.685062646865844727e-01,-9.991063736379146576e-03,-1.797852516174316406e+01,5.000000000000000000e-01,-7.209014892578125000e-02,0.000000000000000000e+00
3.569011688232421875e-01,6.528605346679687500e+02,-1.051470190286636353e-01,-1.051470190286636353e-01,3.899149894714355469e-01,-1.261276168823242188e+02,-5.415343046188354492e-01,-8.721121788024902344e+00,-1.171655368804931641e+01,-1.562838951940648258e-05,-3.452373027801513672e+00,3.344582796096801758e+00,8.425462874583899975e-05,-1.685062646865844727e-01,-9.991063736379146576e-03,-1.797852516174316406e+01,5.000000000000000000e-01,-7.209014892578125000e-02,0.000000000000000000e+00
4.765405654907226562e-01,6.522234497070312500e+02,-9.557681679725646973e-01,-9.557681679725646973e-01,3.981043696403503418e-01,-1.273893356323242188e+02,-5.400389432907104492e-01,-8.934677124023437500e+00,-1.149057865142822266e+01,-7.609210115333553404e-06,-1.784991741180419922e+00,1.888801217079162598e+00,6.702791870338842273e-05,-5.114772170782089233e-02,1.016459688544273376e-01,-1.694871139526367188e+01,5.000000000000000000e-01,-6.558554619550704956e-02,0.000000000000000000e+00
4.765405654907226562e-01,6.522234497070312500e+02,-9.557681679725646973e-01,-9.557681679725646973e-01,3.981043696403503418e-01,-1.273893356323242188e+02,-5.400389432907104492e-01,-8.934677124023437500e+00,-1.149057865142822266e+01,-7.609210115333553404e-06,-1.784991741180419922e+00,1.888801217079162598e+00,6.702791870338842273e-05,-5.114772170782089233e-02,1.016459688544273376e-01,-1.694871139526367188e+01,5.000000000000000000e-01,-6.558554619550704956e-02,0.000000000000000000e+00
4.765405654907226562e-01,6.522234497070312500e+02,-9.557681679725646973e-01,-9.557681679725646973e-01,3.981043696403503418e-01,-1.273893356323242188e+02,-5.400389432907104492e-01,-8.934677124023437500e+00,-1.149057865142822266e+01,-7.609210115333553404e-06,-1.784991741180419922e+00,1.888801217079162598e+00,6.702791870338842273e-05,-5.114772170782089233e-02,1.016459688544273376e-01,-1.694871139526367188e+01,5.000000000000000000e-01,-6.558554619550704956e-02,0.000000000000000000e+00
4.765405654907226562e-01,6.522234497070312500e+02,-9.557681679725646973e-01,-9.557681679725646973e-01,3.981043696403503418e-01,-1.273893356323242188e+02,-5.400389432907104492e-01,-8.934677124023437500e+00,-1.149057865142822266e+01,-7.609210115333553404e-06,-1.784991741180419922e+00,1.888801217079162598e+00,6.702791870338842273e-05,-5.114772170782089233e-02,1.016459688544273376e-01,-1.694871139526367188e+01,5.000000000000000000e-01,-6.558554619550704956e-02,0.000000000000000000e+00
4.765405654907226562e-01,6.522234497070312500e+02,-9.557681679725646973e-01,-9.557681679725646973e-01,3.981043696403503418e-01,-1.273893356323242188e+02,-5.400389432907104492e-01,-8.934677124023437500e+00,-1.149057865142822266e+01,-7.609210115333553404e-06,-1.784991741180419922e+00,1.888801217079162598e+00,6.702791870338842273e-05,-5.114772170782089233e-02,1.016459688544273376e-01,-1.694871139526367188e+01,5.000000000000000000e-01,-6.558554619550704956e-02,0.000000000000000000e+00
4.765405654907226562e-01,6.522234497070312500e+02,-9.557681679725646973e-01,-9.557681679725646973e-01,3.981043696403503418e-01,-1.273893356323242188e+02,-5.400389432907104492e-01,-8.934677124023437500e+00,-1.149057865142822266e+01,-7.609210115333553404e-06,-1.784991741180419922e+00,1.888801217079162598e+00,6.702791870338842273e-05,-5.114772170782089233e-02,1.016459688544273376e-01,-1.694871139526367188e+01,5.000000000000000000e-01,-6.558554619550704956e-02,0.000000000000000000e+00
4.765405654907226562e-01,6.522234497070312500e+02,-9.557681679725646973e-01,-9.557681679725646973e-01,3.981043696403503418e-01,-1.273893356323242188e+02,-5.400389432907104492e-01,-8.934677124023437500e+00,-1.149057865142822266e+01,-7.609210115333553404e-06,-1.784991741180419922e+00,1.888801217079162598e+00,6.702791870338842273e-05,-5.114772170782089233e-02,1.016459688544273376e-01,-1.694871139526367188e+01,5.000000000000000000e-01,-6.558554619550704956e-02,0.000000000000000000e+00
6.200885772705078125e-01,6.513234252929687500e+02,-2.091923475265502930e+00,-2.091923475265502930e+00,4.070519208908081055e-01,-1.291245269775390625e+02,-5.451658964157104492e-01,-9.247045516967773438e+00,-1.114075279235839844e+01,-6.293201295193284750e-06,-2.176055192947387695e+00,2.436995506286621094e+00,9.167725693259853870e-06,-9.125167876482009888e-02,8.625285699963569641e-03,-1.752345657348632812e+01,5.000000000000000000e-01,-7.179707288742065430e-02,0.000000000000000000e+00
6.200885772705078125e-01,6.513234252929687500e+02,-2.091923475265502930e+00,-2.091923475265502930e+00,4.070519208908081055e-01,-1.291245269775390625e+02,-5.451658964157104492e-01,-9.247045516967773438e+00,-1.114075279235839844e+01,-6.293201295193284750e-06,-2.176055192947387695e+00,2.436995506286621094e+00,9.167725693259853870e-06,-9.125167876482009888e-02,8.625285699963569641e-03,-1.752345657348632812e+01,5.000000000000000000e-01,-7.179707288742065430e-02,0.000000000000000000e+00
6.200885772705078125e-01,6.513234252929687500e+02,-2.091923475265502930e+00,-2.091923475265502930e+00,4.070519208908081055e-01,-1.291245269775390625e+02,-5.451658964157104492e-01,-9.247045516967773438e+00,-1.114075279235839844e+01,-6.293201295193284750e-06,-2.176055192947387695e+00,2.436995506286621094e+00,9.167725693259853870e-06,-9.125167876482009888e-02,8.625285699963569641e-03,-1.752345657348632812e+01,5.000000000000000000e-01,-7.179707288742065430e-02,0.000000000000000000e+00
6.200885772705078125e-01,6.513234252929687500e+02,-2.091923475265502930e+00,-2.091923475265502930e+00,4.070519208908081055e-01,-1.291245269775390625e+02,-5.451658964157104492e-01,-9.247045516967773438e+00,-1.114075279235839844e+01,-6.293201295193284750e-06,-2.176055192947387695e+00,2.436995506286621094e+00,9.167725693259853870e-06,-9.125167876482009888e-02,8.625285699963569641e-03,-1.752345657348632812e+01,5.000000000000000000e-01,-7.179707288742065430e-02,0.000000000000000000e+00
6.200885772705078125e-01,6.513234252929687500e+02,-2.091923475265502930e+00,-2.091923475265502930e+00,4.070519208908081055e-01,-1.291245269775390625e+02,-5.451658964157104492e-01,-9.247045516967773438e+00,-1.114075279235839844e+01,-6.293201295193284750e-06,-2.176055192947387695e+00,2.436995506286621094e+00,9.167725693259853870e-06,-9.125167876482009888e-02,8.625285699963569641e-03,-1.752345657348632812e+01,5.000000000000000000e-01,-7.179707288742065430e-02,0.000000000000000000e+00
6.200885772705078125e-01,6.513234252929687500e+02,-2.091923475265502930e+00,-2.091923475265502930e+00,4.070519208908081055e-01,-1.291245269775390625e+02,-5.451658964157104492e-01,-9.247045516967773438e+00,-1.114075279235839844e+01,-6.293201295193284750e-06,-2.176055192947387695e+00,2.436995506286621094e+00,9.167725693259853870e-06,-9.125167876482009888e-02,8.625285699963569641e-03,-1.752345657348632812e+01,5.000000000000000000e-01,-7.179707288742065430e-02,0.000000000000000000e+00
7.946169376373291016e-01,6.503951416015625000e+02,-3.195450067520141602e+00,-3.195450067520141602e+00,4.128302633762359619e-01,-1.307682495117187500e+02,-5.311279296875000000e-01,-9.497092247009277344e+00,-1.082955074310302734e+01,3.089389792876318097e-06,-1.432699680328369141e+00,1.783102989196777344e+00,5.375969340093433857e-05,6.481561064720153809e-02,1.497471481561660767e-01,-1.593659114837646484e+01,5.000000000000000000e-01,-6.230948492884635925e-02,0.000000000000000000e+00
7.946169376373291016e-01,6.503951416015625000e+02,-3.195450067520141602e+00,-3.195450067520141602e+00,4.128302633762359619e-01,-1.307682495117187500e+02,-5.311279296875000000e-01,-9.497092247009277344e+00,-1.082955074310302734e+01,3.089389792876318097e-06,-1.432699680328369141e+00,1.783102989196777344e+00,5.375969340093433857e-05,6.481561064720153809e-02,1.497471481561660767e-01,-1.593659114837646484e+01,5.000000000000000000e-01,-6.230948492884635925e-02,0.000000000000000000e+00
7.946169376373291016e-01,6.503951416015625000e+02,-3.195450067520141602e+00,-3.195450067520141602e+00,4.128302633762359619e-01,-1.307682495117187500e+02,-5.311279296875000000e-01,-9.497092247009277344e+00,-1.082955074310302734e+01,3.089389792876318097e-06,-1.432699680328369141e+00,1.783102989196777344e+00,5.375969340093433857e-05,6.481561064720153809e-02,1.497471481561660767e-01,-1.593659114837646484e+01,5.000000000000000000e-01,-6.230948492884635925e-02,0.000000000000000000e+00
7.946169376373291016e-01,6.503951416015625000e+02,-3.195450067520141602e+00,-3.195450067520141602e+00,4.128302633762359619e-01,-1.307682495117187500e+02,-5.311279296875000000e-01,-9.497092247009277344e+00,-1.082955074310302734e+01,3.089389792876318097e-06,-1.432699680328369141e+00,1.783102989196777344e+00,5.375969340093433857e-05,6.481561064720153809e-02,1.497471481561660767e-01,-1.593659114837646484e+01,5.000000000000000000e-01,-6.230948492884635925e-02,0.000000000000000000e+00
8.783230781555175781e-01,6.494403686523437500e+02,-4.266014575958251953e+00,-4.266014575958251953e+00,4.166005253791809082e-01,-1.323865661621093750e+02,-5.255736112594604492e-01,-9.766115188598632812e+00,-1.049155235290527344e+01,2.688913355086697266e-06,-3.213897466659545898e+00,4.037916183471679688e+00,-4.784313659911276773e-06,1.606356911361217499e-02,4.296274483203887939e-02,-1.627767562866210938e+01,5.000000000000000000e-01,-6.690281629562377930e-02,0.000000000000000000e+00
8.783230781555175781e-01,6.494403686523437500e+02,-4.266014575958251953e+00,-4.266014575958251953e+00,4.166005253791809082e-01,-1.323865661621093750e+02,-5.255736112594604492e-01,-9.766115188598632812e+00,-1.049155235290527344e+01,2.688913355086697266e-06,-3.213897466659545898e+00,4.037916183471679688e+00,-4.784313659911276773e-06,1.606356911361217499e-02,4.296274483203887939e-02,-1.627767562866210938e+01,5.000000000000000000e-01,-6.690281629562377930e-02,0.000000000000000000e+00
9.483780860900878906e-01,6.486195678710937500e+02,-5.137070178985595703e+00,-5.137070178985595703e+00,4.163273274898529053e-01,-1.338126831054687500e+02,-5.307005047798156738e-01,-1.002059650421142578e+01,-1.020413780212402344e+01,2.097790741117933067e-07,-3.632592678070068359e+00,4.102698326110839844e+00,-3.538839519023895264e-05,-3.820252791047096252e-02,-5.548254027962684631e-02,-1.740961074829101562e+01,5.000000000000000000e-01,-7.367379218339920044e-02,0.000000000000000000e+00
9.483780860900878906e-01,6.486195678710937500e+02,-5.137070178985595703e+00,-5.137070178985595703e+00,4.163273274898529053e-01,-1.338126831054687500e+02,-5.307005047798156738e-01,-1.002059650421142578e+01,-1.020413780212402344e+01,2.097790741117933067e-07,-3.632592678070068359e+00,4.102698326110839844e+00,-3.538839519023895264e-05,-3.820252791047096252e-02,-5.548254027962684631e-02,-1.740961074829101562e+01,5.000000000000000000e-01,-7.367379218339920044e-02,0.000000000000000000e+00
9.483780860900878906e-01,6.486195678710937500e+02,-5.137070178985595703e+00,-5.137070178985595703e+00,4.163273274898529053e-01,-1.338126831054687500e+02,-5.307005047798156738e-01,-1.002059650421142578e+01,-1.020413780212402344e+01,2.097790741117933067e-07,-3.632592678070068359e+00,4.102698326110839844e+00,-3.538839519023895264e-05,-3.820252791047096252e-02,-5.548254027962684631e-02,-1.740961074829101562e+01,5.000000000000000000e-01,-7.367379218339920044e-02,0.000000000000000000e+00
9.483780860900878906e-01,6.486195678710937500e+02,-5.137070178985595703e+00,-5.137070178985595703e+00,4.163273274898529053e-01,-1.338126831054687500e+02,-5.307005047798156738e-01,-1.002059650421142578e+01,-1.020413780212402344e+01,2.097790741117933067e-07,-3.632592678070068359e+00,4.102698326110839844e+00,-3.538839519023895264e-05,-3.820252791047096252e-02,-5.548254027962684631e-02,-1.740961074829101562e+01,5.000000000000000000e-01,-7.367379218339920044e-02,0.000000000000000000e+00
9.483780860900878906e-01,6.479176025390625000e+02,-5.849103450775146484e+00,-5.849103450775146484e+00,4.151866734027862549e-01,-1.349885406494140625e+02,-5.241393446922302246e-01,-1.019718265533447266e+01,-9.995474815368652344e+00,3.852304416795959696e-06,-2.240969181060791016e+00,2.648040771484375000e+00,4.622552296495996416e-05,1.013695374131202698e-01,7.741931080818176270e-02,-1.648140335083007812e+01,5.000000000000000000e-01,-6.499350070953369141e-02,0.000000000000000000e+00
1.027177095413208008e+00,6.479176025390625000e+02,-5.849103450775146484e+00,-5.849103450775146484e+00,4.151866734027862549e-01,-1.349885406494140625e+02,-5.241393446922302246e-01,-1.019718265533447266e+01,-9.995474815368652344e+00,3.852304416795959696e-06,-2.240969181060791016e+00,2.648040771484375000e+00,4.622552296495996416e-05,1.013695374131202698e-01,7.741931080818176270e-02,-1.648140335083007812e+01,5.000000000000000000e-01,-6.499350070953369141e-02,0.000000000000000000e+00
1.027177095413208008e+00,6.479176025390625000e+02,-5.849103450775146484e+00,-5.849103450775146484e+00,4.151866734027862549e-01,-1.349885406494140625e+02,-5.241393446922302246e-01,-1.019718265533447266e+01,-9.995474815368652344e+00,3.852304416795959696e-06,-2.240969181060791016e+00,2.648040771484375000e+00,4.622552296495996416e-05,1.013695374131202698e-01,7.741931080818176270e-02,-1.648140335083007812e+01,5.000000000000000000e-01,-6.499350070953369141e-02,0.000000000000000000e+00
1.095043420791625977e+00,6.471132812500000000e+02,-6.632706642150878906e+00,-6.632706642150878906e+00,4.137455224990844727e-01,-1.362080688476562500e+02,-5.061340928077697754e-01,-1.037486839294433594e+01,-9.776177406311035156e+00,9.354070243716705590e-06,-2.618172407150268555e+00,3.231313943862915039e+00,8.106768655125051737e-05,1.724211871623992920e-01,1.424100697040557861e-01,-1.501280593872070312e+01,5.000000000000000000e-01,-5.830579623579978943e-02,0.000000000000000000e+00
1.095043420791625977e+00,6.471132812500000000e+02,-6.632706642150878906e+00,-6.632706642150878906e+00,4.137455224990844727e-01,-1.362080688476562500e+02,-5.061340928077697754e-01,-1.037486839294433594e+01,-9.776177406311035156e+00,9.354070243716705590e-06,-2.618172407150268555e+00,3.231313943862915039e+00,8.106768655125051737e-05,1.724211871623992920e-01,1.424100697040557861e-01,-1.501280593872070312e+01,5.000000000000000000e-01,-5.830579623579978943e-02,0.000000000000000000e+00
1.095043420791625977e+00,6.471132812500000000e+02,-6.632706642150878906e+00,-6.632706642150878906e+00,4.137455224990844727e-01,-1.362080688476562500e+02,-5.061340928077697754e-01,-1.037486839294433594e+01,-9.776177406311035156e+00,9.354070243716705590e-06,-2.618172407150268555e+00,3.231313943862915039e+00,8.106768655125051737e-05,1.724211871623992920e-01,1.424100697040557861e-01,-1.501280593872070312e+01,5.000000000000000000e-01,-5.830579623579978943e-02,0.000000000000000000e+00
1.095043420791625977e+00,6.471132812500000000e+02,-6.632706642150878906e+00,-6.632706642150878906e+00,4.137455224990844727e-01,-1.362080688476562500e+02,-5.061340928077697754e-01,-1.037486839294433594e+01,-9.776177406311035156e+00,9.354070243716705590e-06,-2.618172407150268555e+00,3.231313943862915039e+00,8.106768655125051737e-05,1.724211871623992920e-01,1.424100697040557861e-01,-1.501280593872070312e+01,5.000000000000000000e-01,-5.830579623579978943e-02,0.000000000000000000e+00
1.168572425842285156e+00,6.464084472656250000e+02,-7.292470455169677734e+00,-7.292470455169677734e+00,4.129942059516906738e-01,-1.372583312988281250e+02,-5.025024414062500000e-01,-1.055042457580566406e+01,-9.550757408142089844e+00,7.266012289619538933e-06,-2.387577295303344727e+00,3.065728902816772461e+00,-2.839774424501229078e-05,1.846251636743545532e-02,4.736232571303844452e-03,-1.570196247100830078e+01,5.000000000000000000e-01,-6.643022596836090088e-02,0.000000000000000000e+00
1.168572425842285156e+00,6.464084472656250000e+02,-7.292470455169677734e+00,-7.292470455169677734e+00,4.129942059516906738e-01,-1.372583312988281250e+02,-5.025024414062500000e-01,-1.055042457580566406e+01,-9.550757408142089844e+00,7.266012289619538933e-06,-2.387577295303344727e+00,3.065728902816772461e+00,-2.839774424501229078e-05,1.846251636743545532e-02,4.736232571303844452e-03,-1.570196247100830078e+01,5.000000000000000000e-01,-6.643022596836090088e-02,0.000000000000000000e+00
1.168572425842285156e+00,6.464084472656250000e+02,-7.292470455169677734e+00,-7.292470455169677734e+00,4.129942059516906738e-01,-1.372583312988281250e+02,-5.025024414062500000e-01,-1.055042457580566406e+01,-9.550757408142089844e+00,7.266012289619538933e-06,-2.387577295303344727e+00,3.065728902816772461e+00,-2.839774424501229078e-05,1.846251636743545532e-02,4.736232571303844452e-03,-1.570196247100830078e+01,5.000000000000000000e-01,-6.643022596836090088e-02,0.000000000000000000e+00
1.168572425842285156e+00,6.464084472656250000e+02,-7.292470455169677734e+00,-7.292470455169677734e+00,4.129942059516906738e-01,-1.372583312988281250e+02,-5.025024414062500000e-01,-1.055042457580566406e+01,-9.550757408142089844e+00,7.266012289619538933e-06,-2.387577295303344727e+00,3.065728902816772461e+00,-2.839774424501229078e-05,1.846251636743545532e-02,4.736232571303844452e-03,-1.570196247100830078e+01,5.000000000000000000e-01,-6.643022596836090088e-02,0.000000000000000000e+00
1.168572425842285156e+00,6.456320800781250000e+02,-7.990987777709960938e+00,-7.990987777709960938e+00,4.123043417930603027e-01,-1.383962249755859375e+02,-4.959410727024078369e-01,-1.071759128570556641e+01,-9.326890945434570312e+00,6.989404482737882063e-06,-2.227450609207153320e+00,2.982959270477294922e+00,-3.685723186208633706e-06,8.364620059728622437e-02,6.268887221813201904e-02,-1.536648178100585938e+01,5.000000000000000000e-01,-6.230686604976654053e-02,0.000000000000000000e+00
1.243620872497558594e+00,6.456320800781250000e+02,-7.990987777709960938e+00,-7.990987777709960938e+00,4.123043417930603027e-01,-1.383962249755859375e+02,-4.959410727024078369e-01,-1.071759128570556641e+01,-9.326890945434570312e+00,6.989404482737882063e-06,-2.227450609207153320e+00,2.982959270477294922e+00,-3.685723186208633706e-06,8.364620059728622437e-02,6.268887221813201904e-02,-1.536648178100585938e+01,5.000000000000000000e-01,-6.230686604976654053e-02,0.000000000000000000e+00
1.243620872497558594e+00,6.456320800781250000e+02,-7.990987777709960938e+00,-7.990987777709960938e+00,4.123043417930603027e-01,-1.383962249755859375e+02,-4.959410727024078369e-01,-1.071759128570556641e+01,-9.326890945434570312e+00,6.989404482737882063e-06,-2.227450609207153320e+00,2.982959270477294922e+00,-3.685723186208633706e-06,8.364620059728622437e-02,6.268887221813201904e-02,-1.536648178100585938e+01,5.000000000000000000e-01,-6.230686604976654053e-02,0.000000000000000000e+00
1.243620872497558594e+00,6.456320800781250000e+02,-7.990987777709960938e+00,-7.990987777709960938e+00,4.123043417930603027e-01,-1.383962249755859375e+02,-4.959410727024078369e-01,-1.071759128570556641e+01,-9.326890945434570312e+00,6.989404482737882063e-06,-2.227450609207153320e+00,2.982959270477294922e+00,-3.685723186208633706e-06,8.364620059728622437e-02,6.268887221813201904e-02,-1.536648178100585938e+01,5.000000000000000000e-01,-6.230686604976654053e-02,0.000000000000000000e+00
1.312042951583862305e+00,6.448261718750000000e+02,-8.685441970825195312e+00,-8.685441970825195312e+00,4.120243191719055176e-01,-1.396161499023437500e+02,-5.005798339843750000e-01,-1.091070556640625000e+01,-9.056864738464355469e+00,7.628249250046792440e-07,-2.822397232055664062e+00,3.946477651596069336e+00,-9.100249008042737842e-05,-6.589268893003463745e-02,-5.918746069073677063e-02,-1.667115974426269531e+01,5.000000000000000000e-01,-7.188306748867034912e-02,0.000000000000000000e+00
1.312042951583862305e+00,6.448261718750000000e+02,-8.685441970825195312e+00,-8.685441970825195312e+00,4.120243191719055176e-01,-1.396161499023437500e+02,-5.005798339843750000e-01,-1.091070556640625000e+01,-9.056864738464355469e+00,7.628249250046792440e-07,-2.822397232055664062e+00,3.946477651596069336e+00,-9.100249008042737842e-05,-6.589268893003463745e-02,-5.918746069073677063e-02,-1.667115974426269531e+01,5.000000000000000000e-01,-7.188306748867034912e-02,0.000000000000000000e+00
1.312042951583862305e+00,6.440838012695312500e+02,-9.299821853637695312e+00,-9.299821853637695312e+00,4.210948050022125244e-01,-1.407407684326171875e+02,-4.954528808593750000e-01,-1.087536430358886719e+01,-8.705225944519042969e+00,-2.479213890183018520e-06,4.971592128276824951e-01,4.946639060974121094e+00,-4.560701563605107367e-05,-1.264343112707138062e-01,4.492558240890502930e-01,-1.645386695861816406e+01,5.000000000000000000e-01,-6.547851860523223877e-02,0.000000000000000000e+00
1.383129358291625977e+00,6.440838012695312500e+02,-9.299821853637695312e+00,-9.299821853637695312e+00,4.210948050022125244e-01,-1.407407684326171875e+02,-4.954528808593750000e-01,-1.087536430358886719e+01,-8.705225944519042969e+00,-2.479213890183018520e-06,4.971592128276824951e-01,4.946639060974121094e+00,-4.560701563605107367e-05,-1.264343112707138062e-01,4.492558240890502930e-01,-1.645386695861816406e+01,5.000000000000000000e-01,-6.547851860523223877e-02,0.000000000000000000e+00
1.383129358291625977e+00,6.440838012695312500e+02,-9.299821853637695312e+00,-9.299821853637695312e+00,4.210948050022125244e-01,-1.407407684326171875e+02,-4.954528808593750000e-01,-1.087536430358886719e+01,-8.705225944519042969e+00,-2.479213890183018520e-06,4.971592128276824951e-01,4.946639060974121094e+00,-4.560701563605107367e-05,-1.264343112707138062e-01,4.492558240890502930e-01,-1.645386695861816406e+01,5.000000000000000000e-01,-6.547851860523223877e-02,0.000000000000000000e+00
1.450951814651489258e+00,6.433292236328125000e+02,-9.900188446044921875e+00,-9.900188446044921875e+00,4.667409658432006836e-01,-1.419633636474609375e+02,-4.934691786766052246e-01,-1.060654544830322266e+01,-8.111754417419433594e+00,-1.676321153354365379e-05,3.963567018508911133e+00,8.750369071960449219e+00,-2.106086758431047201e-04,-4.445807635784149170e-01,5.065122842788696289e-01,-1.746615982055664062e+01,5.000000000000000000e-01,-7.481188327074050903e-02,0.000000000000000000e+00
1.450951814651489258e+00,6.433292236328125000e+02,-9.900188446044921875e+00,-9.900188446044921875e+00,4.667409658432006836e-01,-1.419633636474609375e+02,-4.934691786766052246e-01,-1.060654544830322266e+01,-8.111754417419433594e+00,-1.676321153354365379e-05,3.963567018508911133e+00,8.750369071960449219e+00,-2.106086758431047201e-04,-4.445807635784149170e-01,5.065122842788696289e-01,-1.746615982055664062e+01,5.000000000000000000e-01,-7.481188327074050903e-02,0.000000000000000000e+00
1.450951814651489258e+00,6.433292236328125000e+02,-9.900188446044921875e+00,-9.900188446044921875e+00,4.667409658432006836e-01,-1.419633636474609375e+02,-4.934691786766052246e-01,-1.060654544830322266e+01,-8.111754417419433594e+00,-1.676321153354365379e-05,3.963567018508911133e+00,8.750369071960449219e+00,-2.106086758431047201e-04,-4.445807635784149170e-01,5.065122842788696289e-01,-1.746615982055664062e+01,5.000000000000000000e-01,-7.481188327074050903e-02,0.000000000000000000e+00
1.527701377868652344e+00,6.426259765625000000e+02,-1.043677997589111328e+01,-1.043677997589111328e+01,5.058437585830688477e-01,-1.430978088378906250e+02,-4.891662299633026123e-01,-1.037079715728759766e+01,-7.618785381317138672e+00,-2.346674227737821639e-05,3.071656465530395508e+00,6.423086166381835938e+00,-8.734291623113676906e-05,-2.371411621570587158e-01,4.461872875690460205e-01,-1.629537010192871094e+01,1.000000000000000000e+00,-6.644286960363388062e-02,0.000000000000000000e+00
1.527701377868652344e+00,6.426259765625000000e+02,-1.043677997589111328e+01,-1.043677997589111328e+01,5.058437585830688477e-01,-1.430978088378906250e+02,-4.891662299633026123e-01,-1.037079715728759766e+01,-7.618785381317138672e+00,-2.346674227737821639e-05,3.071656465530395508e+00,6.423086166381835938e+00,-8.734291623113676906e-05,-2.371411621570587158e-01,4.461872875690460205e-01,-1.629537010192871094e+01,1.000000000000000000e+00,-6.644286960363388062e-02,0.000000000000000000e+00
1.527701377868652344e+00,6.426259765625000000e+02,-1.043677997589111328e+01,-1.043677997589111328e+01,5.058437585830688477e-01,-1.430978088378906250e+02,-4.891662299633026123e-01,-1.037079715728759766e+01,-7.618785381317138672e+00,-2.346674227737821639e-05,3.071656465530395508e+00,6.423086166381835938e+00,-8.734291623113676906e-05,-2.371411621570587158e-01,4.461872875690460205e-01,-1.629537010192871094e+01,1.000000000000000000e+00,-6.644286960363388062e-02,0.000000000000000000e+00
1.600134611129760742e+00,6.418462524414062500e+02,-1.100678825378417969e+01,-1.100678825378417969e+01,5.318531394004821777e-01,-1.442425994873046875e+02,-4.734496772289276123e-01,-1.016739749908447266e+01,-7.160338401794433594e+00,-1.586670441611204296e-05,2.808098554611206055e+00,6.329235553741455078e+00,1.049247366609051824e-04,4.983483254909515381e-02,3.055100739002227783e-01,-1.420994377136230469e+01,1.000000000000000000e+00,-5.861445888876914978e-02,0.000000000000000000e+00
1.600134611129760742e+00,6.418462524414062500e+02,-1.100678825378417969e+01,-1.100678825378417969e+01,5.318531394004821777e-01,-1.442425994873046875e+02,-4.734496772289276123e-01,-1.016739749908447266e+01,-7.160338401794433594e+00,-1.586670441611204296e-05,2.808098554611206055e+00,6.329235553741455078e+00,1.049247366609051824e-04,4.983483254909515381e-02,3.055100739002227783e-01,-1.420994377136230469e+01,1.000000000000000000e+00,-5.861445888876914978e-02,0.000000000000000000e+00
1.600134611129760742e+00,6.418462524414062500e+02,-1.100678825378417969e+01,-1.100678825378417969e+01,5.318531394004821777e-01,-1.442425994873046875e+02,-4.734496772289276123e-01,-1.016739749908447266e+01,-7.160338401794433594e+00,-1.586670441611204296e-05,2.808098554611206055e+00,6.329235553741455078e+00,1.049247366609051824e-04,4.983483254909515381e-02,3.055100739002227783e-01,-1.420994377136230469e+01,1.000000000000000000e+00,-5.861445888876914978e-02,0.000000000000000000e+00
1.600134611129760742e+00,6.418462524414062500e+02,-1.100678825378417969e+01,-1.100678825378417969e+01,5.318531394004821777e-01,-1.442425994873046875e+02,-4.734496772289276123e-01,-1.016739749908447266e+01,-7.160338401794433594e+00,-1.586670441611204296e-05,2.808098554611206055e+00,6.329235553741455078e+00,1.049247366609051824e-04,4.983483254909515381e-02,3.055100739002227783e-01,-1.420994377136230469e+01,1.000000000000000000e+00,-5.861445888876914978e-02,0.000000000000000000e+00
1.600134611129760742e+00,6.418462524414062500e+02,-1.100678825378417969e+01,-1.100678825378417969e+01,5.318531394004821777e-01,-1.442425994873046875e+02,-4.734496772289276123e-01,-1.016739749908447266e+01,-7.160338401794433594e+00,-1.586670441611204296e-05,2.808098554611206055e+00,6.329235553741455078e+00,1.049247366609051824e-04,4.983483254909515381e-02,3.055100739002227783e-01,-1.420994377136230469e+01,1.000000000000000000e+00,-5.861445888876914978e-02,0.000000000000000000e+00
1.600134611129760742e+00,6.411193847656250000e+02,-1.151431655883789062e+01,-1.151431655883789062e+01,5.372080206871032715e-01,-1.452817840576171875e+02,-4.667663574218750000e-01,-1.008230590820312500e+01,-6.771831512451171875e+00,-4.147882009419845417e-06,7.374972701072692871e-01,3.367227554321289062e+00,1.015681991702876985e-04,7.785364240407943726e-02,4.090740159153938293e-02,-1.435888195037841797e+01,1.000000000000000000e+00,-6.659480184316635132e-02,0.000000000000000000e+00
1.715513467788696289e+00,6.411193847656250000e+02,-1.151431655883789062e+01,-1.151431655883789062e+01,5.372080206871032715e-01,-1.452817840576171875e+02,-4.667663574218750000e-01,-1.008230590820312500e+01,-6.771831512451171875e+00,-4.147882009419845417e-06,7.374972701072692871e-01,3.367227554321289062e+00,1.015681991702876985e-04,7.785364240407943726e-02,4.090740159153938293e-02,-1.435888195037841797e+01,1.000000000000000000e+00,-6.659480184316635132e-02,0.000000000000000000e+00
1.715513467788696289e+00,6.411193847656250000e+02,-1.151431655883789062e+01,-1.151431655883789062e+01,5.372080206871032715e-01,-1.452817840576171875e+02,-4.667663574218750000e-01,-1.008230590820312500e+01,-6.771831512451171875e+00,-4.147882009419845417e-06,7.374972701072692871e-01,3.367227554321289062e+00,1.015681991702876985e-04,7.785364240407943726e-02,4.090740159153938293e-02,-1.435888195037841797e+01,1.000000000000000000e+00,-6.659480184316635132e-02,0.000000000000000000e+00
1.715513467788696289e+00,6.411193847656250000e+02,-1.151431655883789062e+01,-1.151431655883789062e+01,5.372080206871032715e-01,-1.452817840576171875e+02,-4.667663574218750000e-01,-1.008230590820312500e+01,-6.771831512451171875e+00,-4.147882009419845417e-06,7.374972701072692871e-01,3.367227554321289062e+00,1.015681991702876985e-04,7.785364240407943726e-02,4.090740159153938293e-02,-1.435888195037841797e+01,1.000000000000000000e+00,-6.659480184316635132e-02,0.000000000000000000e+00
1.813115119934082031e+00,6.401212158203125000e+02,-1.217709064483642578e+01,-1.217709064483642578e+01,5.229875445365905762e-01,-1.466171112060546875e+02,-4.390258193016052246e-01,-1.004820632934570312e+01,-6.399562835693359375e+00,1.901309587992727757e-05,3.493750393390655518e-01,3.814163684844970703e+00,2.373010793235152960e-04,3.768631517887115479e-01,-1.027367450296878815e-02,-1.288920402526855469e+01,1.000000000000000000e+00,-5.922132357954978943e-02,0.000000000000000000e+00
1.813115119934082031e+00,6.401212158203125000e+02,-1.217709064483642578e+01,-1.217709064483642578e+01,5.229875445365905762e-01,-1.466171112060546875e+02,-4.390258193016052246e-01,-1.004820632934570312e+01,-6.399562835693359375e+00,1.901309587992727757e-05,3.493750393390655518e-01,3.814163684844970703e+00,2.373010793235152960e-04,3.768631517887115479e-01,-1.027367450296878815e-02,-1.288920402526855469e+01,1.000000000000000000e+00,-5.922132357954978943e-02,0.000000000000000000e+00
1.813115119934082031e+00,6.401212158203125000e+02,-1.217709064483642578e+01,-1.217709064483642578e+01,5.229875445365905762e-01,-1.466171112060546875e+02,-4.390258193016052246e-01,-1.004820632934570312e+01,-6.399562835693359375e+00,1.901309587992727757e-05,3.493750393390655518e-01,3.814163684844970703e+00,2.373010793235152960e-04,3.768631517887115479e-01,-1.027367450296878815e-02,-1.288920402526855469e+01,1.000000000000000000e+00,-5.922132357954978943e-02,0.000000000000000000e+00
1.813115119934082031e+00,6.401212158203125000e+02,-1.217709064483642578e+01,-1.217709064483642578e+01,5.229875445365905762e-01,-1.466171112060546875e+02,-4.390258193016052246e-01,-1.004820632934570312e+01,-6.399562835693359375e+00,1.901309587992727757e-05,3.493750393390655518e-01,3.814163684844970703e+00,2.373010793235152960e-04,3.768631517887115479e-01,-1.027367450296878815e-02,-1.288920402526855469e+01,1.000000000000000000e+00,-5.922132357954978943e-02,0.000000000000000000e+00
1.896134853363037109e+00,6.391442260742187500e+02,-1.279571151733398438e+01,-1.279571151733398438e+01,4.957624375820159912e-01,-1.477287902832031250e+02,-3.930358886718750000e-01,-1.009878730773925781e+01,-6.181137561798095703e+00,3.779750113608315587e-05,-6.092645525932312012e-01,2.631004333496093750e+00,2.262643392896279693e-04,5.464801788330078125e-01,-2.122391201555728912e-02,-1.077247238159179688e+01,1.000000000000000000e+00,-4.913918673992156982e-02,0.000000000000000000e+00
1.896134853363037109e+00,6.391442260742187500e+02,-1.279571151733398438e+01,-1.279571151733398438e+01,4.957624375820159912e-01,-1.477287902832031250e+02,-3.930358886718750000e-01,-1.009878730773925781e+01,-6.181137561798095703e+00,3.779750113608315587e-05,-6.092645525932312012e-01,2.631004333496093750e+00,2.262643392896279693e-04,5.464801788330078125e-01,-2.122391201555728912e-02,-1.077247238159179688e+01,1.000000000000000000e+00,-4.913918673992156982e-02,0.000000000000000000e+00
1.896134853363037109e+00,6.391442260742187500e+02,-1.279571151733398438e+01,-1.279571151733398438e+01,4.957624375820159912e-01,-1.477287902832031250e+02,-3.930358886718750000e-01,-1.009878730773925781e+01,-6.181137561798095703e+00,3.779750113608315587e-05,-6.092645525932312012e-01,2.631004333496093750e+00,2.262643392896279693e-04,5.464801788330078125e-01,-2.122391201555728912e-02,-1.077247238159179688e+01,1.000000000000000000e+00,-4.913918673992156982e-02,0.000000000000000000e+00
1.896134853363037109e+00,6.391442260742187500e+02,-1.279571151733398438e+01,-1.279571151733398438e+01,4.957624375820159912e-01,-1.477287902832031250e+02,-3.930358886718750000e-01,-1.009878730773925781e+01,-6.181137561798095703e+00,3.779750113608315587e-05,-6.092645525932312012e-01,2.631004333496093750e+00,2.262643392896279693e-04,5.464801788330078125e-01,-2.122391201555728912e-02,-1.077247238159179688e+01,1.000000000000000000e+00,-4.913918673992156982e-02,0.000000000000000000e+00
1.896134853363037109e+00,6.391442260742187500e+02,-1.279571151733398438e+01,-1.279571151733398438e+01,4.957624375820159912e-01,-1.477287902832031250e+02,-3.930358886718750000e-01,-1.009878730773925781e+01,-6.181137561798095703e+00,3.779750113608315587e-05,-6.092645525932312012e-01,2.631004333496093750e+00,2.262643392896279693e-04,5.464801788330078125e-01,-2.122391201555728912e-02,-1.077247238159179688e+01,1.000000000000000000e+00,-4.913918673992156982e-02,0.000000000000000000e+00
1.896134853363037109e+00,6.391442260742187500e+02,-1.279571151733398438e+01,-1.279571151733398438e+01,4.957624375820159912e-01,-1.477287902832031250e+02,-3.930358886718750000e-01,-1.009878730773925781e+01,-6.181137561798095703e+00,3.779750113608315587e-05,-6.092645525932312012e-01,2.631004333496093750e+00,2.262643392896279693e-04,5.464801788330078125e-01,-2.122391201555728912e-02,-1.077247238159179688e+01,1.000000000000000000e+00,-4.913918673992156982e-02,0.000000000000000000e+00
1.896134853363037109e+00,6.391442260742187500e+02,-1.279571151733398438e+01,-1.279571151733398438e+01,4.957624375820159912e-01,-1.477287902832031250e+02,-3.930358886718750000e-01,-1.009878730773925781e+01,-6.181137561798095703e+00,3.779750113608315587e-05,-6.092645525932312012e-01,2.631004333496093750e+00,2.262643392896279693e-04,5.464801788330078125e-01,-2.122391201555728912e-02,-1.077247238159179688e+01,1.000000000000000000e+00,-4.913918673992156982e-02,0.000000000000000000e+00
2.195794820785522461e+00,6.363502197265625000e+02,-1.440944671630859375e+01,-1.440944671630859375e+01,4.137865006923675537e-01,-1.510565643310546875e+02,-3.584899902343750000e-01,-1.070204162597656250e+01,-5.642214775085449219e+00,1.798366974981036037e-05,-4.698278903961181641e+00,3.448194503784179688e+00,-2.069730835501104593e-04,6.733375787734985352e-02,-2.582210600376129150e-01,-1.379375839233398438e+01,1.000000000000000000e+00,-6.825082004070281982e-02,0.000000000000000000e+00
2.195794820785522461e+00,6.363502197265625000e+02,-1.440944671630859375e+01,-1.440944671630859375e+01,4.137865006923675537e-01,-1.510565643310546875e+02,-3.584899902343750000e-01,-1.070204162597656250e+01,-5.642214775085449219e+00,1.798366974981036037e-05,-4.698278903961181641e+00,3.448194503784179688e+00,-2.069730835501104593e-04,6.733375787734985352e-02,-2.582210600376129150e-01,-1.379375839233398438e+01,1.000000000000000000e+00,-6.825082004070281982e-02,0.000000000000000000e+00
2.195794820785522461e+00,6.363502197265625000e+02,-1.440944671630859375e+01,-1.440944671630859375e+01,4.137865006923675537e-01,-1.510565643310546875e+02,-3.584899902343750000e-01,-1.070204162597656250e+01,-5.642214775085449219e+00,1.798366974981036037e-05,-4.698278903961181641e+00,3.448194503784179688e+00,-2.069730835501104593e-04,6.733375787734985352e-02,-2.582210600376129150e-01,-1.379375839233398438e+01,1.000000000000000000e+00,-6.825082004070281982e-02,0.000000000000000000e+00
2.195794820785522461e+00,6.363502197265625000e+02,-1.440944671630859375e+01,-1.440944671630859375e+01,4.137865006923675537e-01,-1.510565643310546875e+02,-3.584899902343750000e-01,-1.070204162597656250e+01,-5.642214775085449219e+00,1.798366974981036037e-05,-4.698278903961181641e+00,3.448194503784179688e+00,-2.069730835501104593e-04,6.733375787734985352e-02,-2.582210600376129150e-01,-1.379375839233398438e+01,1.000000000000000000e+00,-6.825082004070281982e-02,0.000000000000000000e+00
2.195794820785522461e+00,6.363502197265625000e+02,-1.440944671630859375e+01,-1.440944671630859375e+01,4.137865006923675537e-01,-1.510565643310546875e+02,-3.584899902343750000e-01,-1.070204162597656250e+01,-5.642214775085449219e+00,1.798366974981036037e-05,-4.698278903961181641e+00,3.448194503784179688e+00,-2.069730835501104593e-04,6.733375787734985352e-02,-2.582210600376129150e-01,-1.379375839233398438e+01,1.000000000000000000e+00,-6.825082004070281982e-02,0.000000000000000000e+00
2.195794820785522461e+00,6.363502197265625000e+02,-1.440944671630859375e+01,-1.440944671630859375e+01,4.137865006923675537e-01,-1.510565643310546875e+02,-3.584899902343750000e-01,-1.070204162597656250e+01,-5.642214775085449219e+00,1.798366974981036037e-05,-4.698278903961181641e+00,3.448194503784179688e+00,-2.069730835501104593e-04,6.733375787734985352e-02,-2.582210600376129150e-01,-1.379375839233398438e+01,1.000000000000000000e+00,-6.825082004070281982e-02,0.000000000000000000e+00
2.195794820785522461e+00,6.363502197265625000e+02,-1.440944671630859375e+01,-1.440944671630859375e+01,4.137865006923675537e-01,-1.510565643310546875e+02,-3.584899902343750000e-01,-1.070204162597656250e+01,-5.642214775085449219e+00,1.798366974981036037e-05,-4.698278903961181641e+00,3.448194503784179688e+00,-2.069730835501104593e-04,6.733375787734985352e-02,-2.582210600376129150e-01,-1.379375839233398438e+01,1.000000000000000000e+00,-6.825082004070281982e-02,0.000000000000000000e+00
2.195794820785522461e+00,6.363502197265625000e+02,-1.440944671630859375e+01,-1.440944671630859375e+01,4.137865006923675537e-01,-1.510565643310546875e+02,-3.584899902343750000e-01,-1.070204162597656250e+01,-5.642214775085449219e+00,1.798366974981036037e-05,-4.698278903961181641e+00,3.448194503784179688e+00,-2.069730835501104593e-04,6.733375787734985352e-02,-2.582210600376129150e-01,-1.379375839233398438e+01,1.000000000000000000e+00,-6.825082004070281982e-02,0.000000000000000000e+00
2.195794820785522461e+00,6.363502197265625000e+02,-1.440944671630859375e+01,-1.440944671630859375e+01,4.137865006923675537e-01,-1.510565643310546875e+02,-3.584899902343750000e-01,-1.070204162597656250e+01,-5.642214775085449219e+00,1.798366974981036037e-05,-4.698278903961181641e+00,3.448194503784179688e+00,-2.069730835501104593e-04,6.733375787734985352e-02,-2.582210600376129150e-01,-1.379375839233398438e+01,1.000000000000000000e+00,-6.825082004070281982e-02,0.000000000000000000e+00
2.195794820785522461e+00,6.363502197265625000e+02,-1.440944671630859375e+01,-1.440944671630859375e+01,4.137865006923675537e-01,-1.510565643310546875e+02,-3.584899902343750000e-01,-1.070204162597656250e+01,-5.642214775085449219e+00,1.798366974981036037e-05,-4.698278903961181641e+00,3.448194503784179688e+00,-2.069730835501104593e-04,6.733375787734985352e-02,-2.582210600376129150e-01,-1.379375839233398438e+01,1.000000000000000000e+00,-6.825082004070281982e-02,0.000000000000000000e+00
2.374083757400512695e+00,6.357807006835937500e+02,-1.471112918853759766e+01,-1.471112918853759766e+01,4.009252488613128662e-01,-1.517758178710937500e+02,-3.559874892234802246e-01,-1.085171699523925781e+01,-5.566049575805664062e+00,1.503744806541362777e-05,-8.395101428031921387e-01,4.272009134292602539e-01,-1.652498212934006006e-05,1.765119880437850952e-01,-1.735918223857879639e-01,-1.345545482635498047e+01,1.000000000000000000e+00,-6.200779601931571960e-02,0.000000000000000000e+00
2.374083757400512695e+00,6.357807006835937500e+02,-1.471112918853759766e+01,-1.471112918853759766e+01,4.009252488613128662e-01,-1.517758178710937500e+02,-3.559874892234802246e-01,-1.085171699523925781e+01,-5.566049575805664062e+00,1.503744806541362777e-05,-8.395101428031921387e-01,4.272009134292602539e-01,-1.652498212934006006e-05,1.765119880437850952e-01,-1.735918223857879639e-01,-1.345545482635498047e+01,1.000000000000000000e+00,-6.200779601931571960e-02,0.000000000000000000e+00
2.374083757400512695e+00,6.357807006835937500e+02,-1.471112918853759766e+01,-1.471112918853759766e+01,4.009252488613128662e-01,-1.517758178710937500e+02,-3.559874892234802246e-01,-1.085171699523925781e+01,-5.566049575805664062e+00,1.503744806541362777e-05,-8.395101428031921387e-01,4.272009134292602539e-01,-1.652498212934006006e-05,1.765119880437850952e-01,-1.735918223857879639e-01,-1.345545482635498047e+01,1.000000000000000000e+00,-6.200779601931571960e-02,0.000000000000000000e+00
2.447860002517700195e+00,6.346827392578125000e+02,-1.526411342620849609e+01,-1.526411342620849609e+01,3.797175288200378418e-01,-1.532806091308593750e+02,-3.743285238742828369e-01,-1.118786144256591797e+01,-5.335308074951171875e+00,3.814061528828460723e-06,-4.556269645690917969e+00,3.127585411071777344e+00,-1.521273807156831026e-04,-9.274334460496902466e-02,-2.573753893375396729e-01,-1.574121665954589844e+01,1.000000000000000000e+00,-7.575814425945281982e-02,0.000000000000000000e+00
2.447860002517700195e+00,6.346827392578125000e+02,-1.526411342620849609e+01,-1.526411342620849609e+01,3.797175288200378418e-01,-1.532806091308593750e+02,-3.743285238742828369e-01,-1.118786144256591797e+01,-5.335308074951171875e+00,3.814061528828460723e-06,-4.556269645690917969e+00,3.127585411071777344e+00,-1.521273807156831026e-04,-9.274334460496902466e-02,-2.573753893375396729e-01,-1.574121665954589844e+01,1.000000000000000000e+00,-7.575814425945281982e-02,0.000000000000000000e+00
2.500878810882568359e+00,6.338518676757812500e+02,-1.566061115264892578e+01,-1.566061115264892578e+01,3.672046065330505371e-01,-1.543781280517578125e+02,-3.721008002758026123e-01,-1.142263507843017578e+01,-5.227029800415039062e+00,4.719991011370439082e-06,-4.428119659423828125e+00,2.042261600494384766e+00,1.708694435365032405e-05,1.215593889355659485e-01,-1.195017844438552856e-01,-1.451713466644287109e+01,1.000000000000000000e+00,-6.398206204175949097e-02,0.000000000000000000e+00
2.500878810882568359e+00,6.338518676757812500e+02,-1.566061115264892578e+01,-1.566061115264892578e+01,3.672046065330505371e-01,-1.543781280517578125e+02,-3.721008002758026123e-01,-1.142263507843017578e+01,-5.227029800415039062e+00,4.719991011370439082e-06,-4.428119659423828125e+00,2.042261600494384766e+00,1.708694435365032405e-05,1.215593889355659485e-01,-1.195017844438552856e-01,-1.451713466644287109e+01,1.000000000000000000e+00,-6.398206204175949097e-02,0.000000000000000000e+00
2.500878810882568359e+00,6.338518676757812500e+02,-1.566061115264892578e+01,-1.566061115264892578e+01,3.672046065330505371e-01,-1.543781280517578125e+02,-3.721008002758026123e-01,-1.142263507843017578e+01,-5.227029800415039062e+00,4.719991011370439082e-06,-4.428119659423828125e+00,2.042261600494384766e+00,1.708694435365032405e-05,1.215593889355659485e-01,-1.195017844438552856e-01,-1.451713466644287109e+01,1.000000000000000000e+00,-6.398206204175949097e-02,0.000000000000000000e+00
2.560195446014404297e+00,6.332439575195312500e+02,-1.594064998626708984e+01,-1.594064998626708984e+01,3.595957756042480469e-01,-1.551010894775390625e+02,-3.635559082031250000e-01,-1.158476543426513672e+01,-5.162207126617431641e+00,9.668975508247967809e-06,-2.733303308486938477e+00,1.092824459075927734e+00,8.343333320226520300e-05,2.113706767559051514e-01,-4.870654270052909851e-02,-1.325263881683349609e+01,1.000000000000000000e+00,-5.566362664103507996e-02,0.000000000000000000e+00
2.560195446014404297e+00,6.332439575195312500e+02,-1.594064998626708984e+01,-1.594064998626708984e+01,3.595957756042480469e-01,-1.551010894775390625e+02,-3.635559082031250000e-01,-1.158476543426513672e+01,-5.162207126617431641e+00,9.668975508247967809e-06,-2.733303308486938477e+00,1.092824459075927734e+00,8.343333320226520300e-05,2.113706767559051514e-01,-4.870654270052909851e-02,-1.325263881683349609e+01,1.000000000000000000e+00,-5.566362664103507996e-02,0.000000000000000000e+00
2.560195446014404297e+00,6.325528564453125000e+02,-1.624715232849121094e+01,-1.624715232849121094e+01,3.532915115356445312e-01,-1.559458007812500000e+02,-3.703001737594604492e-01,-1.178295230865478516e+01,-5.012782096862792969e+00,3.823666702373884618e-06,-3.385778427124023438e+00,2.552742481231689453e+00,-9.985989163396880031e-05,-1.329050809144973755e-01,-1.578076481819152832e-01,-1.468366813659667969e+01,1.000000000000000000e+00,-7.049887627363204956e-02,0.000000000000000000e+00
2.618730545043945312e+00,6.325528564453125000e+02,-1.624715232849121094e+01,-1.624715232849121094e+01,3.532915115356445312e-01,-1.559458007812500000e+02,-3.703001737594604492e-01,-1.178295230865478516e+01,-5.012782096862792969e+00,3.823666702373884618e-06,-3.385778427124023438e+00,2.552742481231689453e+00,-9.985989163396880031e-05,-1.329050809144973755e-01,-1.578076481819152832e-01,-1.468366813659667969e+01,1.000000000000000000e+00,-7.049887627363204956e-02,0.000000000000000000e+00
2.618730545043945312e+00,6.318601074218750000e+02,-1.654213142395019531e+01,-1.654213142395019531e+01,3.492207229137420654e-01,-1.568033599853515625e+02,-3.762817382812500000e-01,-1.196015357971191406e+01,-4.888941764831542969e+00,2.097776359732961282e-06,-3.023730516433715820e+00,2.113189220428466797e+00,-2.945028245449066162e-05,-4.906246438622474670e-02,-8.424570411443710327e-02,-1.464717960357666016e+01,1.000000000000000000e+00,-6.529890000820159912e-02,0.000000000000000000e+00
2.677334070205688477e+00,6.318601074218750000e+02,-1.654213142395019531e+01,-1.654213142395019531e+01,3.492207229137420654e-01,-1.568033599853515625e+02,-3.762817382812500000e-01,-1.196015357971191406e+01,-4.888941764831542969e+00,2.097776359732961282e-06,-3.023730516433715820e+00,2.113189220428466797e+00,-2.945028245449066162e-05,-4.906246438622474670e-02,-8.424570411443710327e-02,-1.464717960357666016e+01,1.000000000000000000e+00,-6.529890000820159912e-02,0.000000000000000000e+00
2.677334070205688477e+00,6.318601074218750000e+02,-1.654213142395019531e+01,-1.654213142395019531e+01,3.492207229137420654e-01,-1.568033599853515625e+02,-3.762817382812500000e-01,-1.196015357971191406e+01,-4.888941764831542969e+00,2.097776359732961282e-06,-3.023730516433715820e+00,2.113189220428466797e+00,-2.945028245449066162e-05,-4.906246438622474670e-02,-8.424570411443710327e-02,-1.464717960357666016e+01,1.000000000000000000e+00,-6.529890000820159912e-02,0.000000000000000000e+00
2.677334070205688477e+00,6.318601074218750000e+02,-1.654213142395019531e+01,-1.654213142395019531e+01,3.492207229137420654e-01,-1.568033599853515625e+02,-3.762817382812500000e-01,-1.196015357971191406e+01,-4.888941764831542969e+00,2.097776359732961282e-06,-3.023730516433715820e+00,2.113189220428466797e+00,-2.945028245449066162e-05,-4.906246438622474670e-02,-8.424570411443710327e-02,-1.464717960357666016e+01,1.000000000000000000e+00,-6.529890000820159912e-02,0.000000000000000000e+00
2.755024909973144531e+00,6.311564941406250000e+02,-1.683042526245117188e+01,-1.683042526245117188e+01,3.467208743095397949e-01,-1.576355743408203125e+02,-3.755492568016052246e-01,-1.212447357177734375e+01,-4.774678707122802734e+00,-1.468443201702029910e-06,-2.115049839019775391e+00,1.470740437507629395e+00,-4.590270691551268101e-05,3.714187815785408020e-02,-2.086665108799934387e-02,-1.401560592651367188e+01,1.000000000000000000e+00,-6.016540527343750000e-02,0.000000000000000000e+00
2.755024909973144531e+00,6.311564941406250000e+02,-1.683042526245117188e+01,-1.683042526245117188e+01,3.467208743095397949e-01,-1.576355743408203125e+02,-3.755492568016052246e-01,-1.212447357177734375e+01,-4.774678707122802734e+00,-1.468443201702029910e-06,-2.115049839019775391e+00,1.470740437507629395e+00,-4.590270691551268101e-05,3.714187815785408020e-02,-2.086665108799934387e-02,-1.401560592651367188e+01,1.000000000000000000e+00,-6.016540527343750000e-02,0.000000000000000000e+00
2.755024909973144531e+00,6.311564941406250000e+02,-1.683042526245117188e+01,-1.683042526245117188e+01,3.467208743095397949e-01,-1.576355743408203125e+02,-3.755492568016052246e-01,-1.212447357177734375e+01,-4.774678707122802734e+00,-1.468443201702029910e-06,-2.115049839019775391e+00,1.470740437507629395e+00,-4.590270691551268101e-05,3.714187815785408020e-02,-2.086665108799934387e-02,-1.401560592651367188e+01,1.000000000000000000e+00,-6.016540527343750000e-02,0.000000000000000000e+00
2.830169916152954102e+00,6.302082519531250000e+02,-1.719874191284179688e+01,-1.719874191284179688e+01,3.458739221096038818e-01,-1.588258361816406250e+02,-3.935241103172302246e-01,-1.235329818725585938e+01,-4.536836147308349609e+00,-7.570997695438563824e-06,-3.045107364654541016e+00,3.165114641189575195e+00,-8.121037535602226853e-05,-2.494106888771057129e-01,-9.739415347576141357e-02,-1.592049598693847656e+01,1.000000000000000000e+00,-7.399182766675949097e-02,0.000000000000000000e+00
2.830169916152954102e+00,6.302082519531250000e+02,-1.719874191284179688e+01,-1.719874191284179688e+01,3.458739221096038818e-01,-1.588258361816406250e+02,-3.935241103172302246e-01,-1.235329818725585938e+01,-4.536836147308349609e+00,-7.570997695438563824e-06,-3.045107364654541016e+00,3.165114641189575195e+00,-8.121037535602226853e-05,-2.494106888771057129e-01,-9.739415347576141357e-02,-1.592049598693847656e+01,1.000000000000000000e+00,-7.399182766675949097e-02,0.000000000000000000e+00
2.830169916152954102e+00,6.302082519531250000e+02,-1.719874191284179688e+01,-1.719874191284179688e+01,3.458739221096038818e-01,-1.588258361816406250e+02,-3.935241103172302246e-01,-1.235329818725585938e+01,-4.536836147308349609e+00,-7.570997695438563824e-06,-3.045107364654541016e+00,3.165114641189575195e+00,-8.121037535602226853e-05,-2.494106888771057129e-01,-9.739415347576141357e-02,-1.592049598693847656e+01,1.000000000000000000e+00,-7.399182766675949097e-02,0.000000000000000000e+00
2.830169916152954102e+00,6.302082519531250000e+02,-1.719874191284179688e+01,-1.719874191284179688e+01,3.458739221096038818e-01,-1.588258361816406250e+02,-3.935241103172302246e-01,-1.235329818725585938e+01,-4.536836147308349609e+00,-7.570997695438563824e-06,-3.045107364654541016e+00,3.165114641189575195e+00,-8.121037535602226853e-05,-2.494106888771057129e-01,-9.739415347576141357e-02,-1.592049598693847656e+01,1.000000000000000000e+00,-7.399182766675949097e-02,0.000000000000000000e+00
2.830169916152954102e+00,6.302082519531250000e+02,-1.719874191284179688e+01,-1.719874191284179688e+01,3.458739221096038818e-01,-1.588258361816406250e+02,-3.935241103172302246e-01,-1.235329818725585938e+01,-4.536836147308349609e+00,-7.570997695438563824e-06,-3.045107364654541016e+00,3.165114641189575195e+00,-8.121037535602226853e-05,-2.494106888771057129e-01,-9.739415347576141357e-02,-1.592049598693847656e+01,1.000000000000000000e+00,-7.399182766675949097e-02,0.000000000000000000e+00
