# Time,X,Y,Z,Roll,Pitch,Yaw,Vx,Vy,Vz,Ax,Ay,Az,Wx,Wy,Wz,Throttle,Steer,Brake
0.000000000000000000e+00,-8.110904693603515625e+01,2.209974365234375000e+02,2.209974365234375000e+02,-1.957053989171981812e-01,-5.272288894653320312e+01,-1.261932492256164551e+00,3.402076005935668945e+00,-4.483133316040039062e+00,-1.671554673521313816e-05,-1.801715850830078125e+00,1.086114645004272461e+00,-4.835002764593809843e-04,3.691177070140838623e-01,-5.796748995780944824e-01,-8.280838966369628906e+00,5.000000000000000000e-01,-9.635849297046661377e-02,0.000000000000000000e+00
1.045818328857421875e-01,-8.110904693603515625e+01,2.209974365234375000e+02,2.209974365234375000e+02,-1.957053989171981812e-01,-5.272288894653320312e+01,-1.261932492256164551e+00,3.402076005935668945e+00,-4.483133316040039062e+00,-1.671554673521313816e-05,-1.801715850830078125e+00,1.086114645004272461e+00,-4.835002764593809843e-04,3.691177070140838623e-01,-5.796748995780944824e-01,-8.280838966369628906e+00,5.000000000000000000e-01,-9.635849297046661377e-02,0.000000000000000000e+00
1.045818328857421875e-01,-8.110904693603515625e+01,2.209974365234375000e+02,2.209974365234375000e+02,-1.957053989171981812e-01,-5.272288894653320312e+01,-1.261932492256164551e+00,3.402076005935668945e+00,-4.483133316040039062e+00,-1.671554673521313816e-05,-1.801715850830078125e+00,1.086114645004272461e+00,-4.835002764593809843e-04,3.691177070140838623e-01,-5.796748995780944824e-01,-8.280838966369628906e+00,5.000000000000000000e-01,-9.635849297046661377e-02,0.000000000000000000e+00
1.045818328857421875e-01,-8.110904693603515625e+01,2.209974365234375000e+02,2.209974365234375000e+02,-1.957053989171981812e-01,-5.272288894653320312e+01,-1.261932492256164551e+00,3.402076005935668945e+00,-4.483133316040039062e+00,-1.671554673521313816e-05,-1.801715850830078125e+00,1.086114645004272461e+00,-4.835002764593809843e-04,3.691177070140838623e-01,-5.796748995780944824e-01,-8.280838966369628906e+00,5.000000000000000000e-01,-9.635849297046661377e-02,0.000000000000000000e+00
1.045818328857421875e-01,-8.110904693603515625e+01,2.209974365234375000e+02,2.209974365234375000e+02,-1.957053989171981812e-01,-5.272288894653320312e+01,-1.261932492256164551e+00,3.402076005935668945e+00,-4.483133316040039062e+00,-1.671554673521313816e-05,-1.801715850830078125e+00,1.086114645004272461e+00,-4.835002764593809843e-04,3.691177070140838623e-01,-5.796748995780944824e-01,-8.280838966369628906e+00,5.000000000000000000e-01,-9.635849297046661377e-02,0.000000000000000000e+00
1.045818328857421875e-01,-8.110904693603515625e+01,2.209974365234375000e+02,2.209974365234375000e+02,-1.957053989171981812e-01,-5.272288894653320312e+01,-1.261932492256164551e+00,3.402076005935668945e+00,-4.483133316040039062e+00,-1.671554673521313816e-05,-1.801715850830078125e+00,1.086114645004272461e+00,-4.835002764593809843e-04,3.691177070140838623e-01,-5.796748995780944824e-01,-8.280838966369628906e+00,5.000000000000000000e-01,-9.635849297046661377e-02,0.000000000000000000e+00
1.045818328857421875e-01,-8.078747558593750000e+01,2.205591583251953125e+02,2.205591583251953125e+02,-8.038449287414550781e-02,-5.336057281494140625e+01,-1.267089724540710449e+00,3.270364999771118164e+00,-4.403506755828857422e+00,-3.280092641944065690e-06,-1.257877707481384277e+00,7.604563832283020020e-01,1.283124147448688745e-04,7.421623468399047852e-01,9.757509231567382812e-01,-6.005538463592529297e+00,5.000000000000000000e-01,-7.271779328584671021e-02,0.000000000000000000e+00
2.092907428741455078e-01,-8.078747558593750000e+01,2.205591583251953125e+02,2.205591583251953125e+02,-8.038449287414550781e-02,-5.336057281494140625e+01,-1.267089724540710449e+00,3.270364999771118164e+00,-4.403506755828857422e+00,-3.280092641944065690e-06,-1.257877707481384277e+00,7.604563832283020020e-01,1.283124147448688745e-04,7.421623468399047852e-01,9.757509231567382812e-01,-6.005538463592529297e+00,5.000000000000000000e-01,-7.271779328584671021e-02,0.000000000000000000e+00
2.092907428741455078e-01,-8.078747558593750000e+01,2.205591583251953125e+02,2.205591583251953125e+02,-8.038449287414550781e-02,-5.336057281494140625e+01,-1.267089724540710449e+00,3.270364999771118164e+00,-4.403506755828857422e+00,-3.280092641944065690e-06,-1.257877707481384277e+00,7.604563832283020020e-01,1.283124147448688745e-04,7.421623468399047852e-01,9.757509231567382812e-01,-6.005538463592529297e+00,5.000000000000000000e-01,-7.271779328584671021e-02,0.000000000000000000e+00
2.092907428741455078e-01,-8.078747558593750000e+01,2.205591583251953125e+02,2.205591583251953125e+02,-8.038449287414550781e-02,-5.336057281494140625e+01,-1.267089724540710449e+00,3.270364999771118164e+00,-4.403506755828857422e+00,-3.280092641944065690e-06,-1.257877707481384277e+00,7.604563832283020020e-01,1.283124147448688745e-04,7.421623468399047852e-01,9.757509231567382812e-01,-6.005538463592529297e+00,5.000000000000000000e-01,-7.271779328584671021e-02,0.000000000000000000e+00
2.092907428741455078e-01,-8.078747558593750000e+01,2.205591583251953125e+02,2.205591583251953125e+02,-8.038449287414550781e-02,-5.336057281494140625e+01,-1.267089724540710449e+00,3.270364999771118164e+00,-4.403506755828857422e+00,-3.280092641944065690e-06,-1.257877707481384277e+00,7.604563832283020020e-01,1.283124147448688745e-04,7.421623468399047852e-01,9.757509231567382812e-01,-6.005538463592529297e+00,5.000000000000000000e-01,-7.271779328584671021e-02,0.000000000000000000e+00
2.092907428741455078e-01,-8.047780609130859375e+01,2.201307373046875000e+02,2.201307373046875000e+02,-4.629502072930335999e-02,-5.383805847167968750e+01,-1.162536621093750000e+00,3.210437297821044922e+00,-4.389158725738525391e+00,8.846716082189232111e-05,-8.031203746795654297e-01,1.922849565744400024e-01,1.229549641720950603e-03,1.472898244857788086e+00,2.769494533538818359e+00,-4.626387596130371094e+00,1.000000000000000000e+00,-5.307846143841743469e-02,0.000000000000000000e+00
2.839093208312988281e-01,-8.047780609130859375e+01,2.201307373046875000e+02,2.201307373046875000e+02,-4.629502072930335999e-02,-5.383805847167968750e+01,-1.162536621093750000e+00,3.210437297821044922e+00,-4.389158725738525391e+00,8.846716082189232111e-05,-8.031203746795654297e-01,1.922849565744400024e-01,1.229549641720950603e-03,1.472898244857788086e+00,2.769494533538818359e+00,-4.626387596130371094e+00,1.000000000000000000e+00,-5.307846143841743469e-02,0.000000000000000000e+00
2.839093208312988281e-01,-8.047780609130859375e+01,2.201307373046875000e+02,2.201307373046875000e+02,-4.629502072930335999e-02,-5.383805847167968750e+01,-1.162536621093750000e+00,3.210437297821044922e+00,-4.389158725738525391e+00,8.846716082189232111e-05,-8.031203746795654297e-01,1.922849565744400024e-01,1.229549641720950603e-03,1.472898244857788086e+00,2.769494533538818359e+00,-4.626387596130371094e+00,1.000000000000000000e+00,-5.307846143841743469e-02,0.000000000000000000e+00
2.839093208312988281e-01,-8.047780609130859375e+01,2.201307373046875000e+02,2.201307373046875000e+02,-4.629502072930335999e-02,-5.383805847167968750e+01,-1.162536621093750000e+00,3.210437297821044922e+00,-4.389158725738525391e+00,8.846716082189232111e-05,-8.031203746795654297e-01,1.922849565744400024e-01,1.229549641720950603e-03,1.472898244857788086e+00,2.769494533538818359e+00,-4.626387596130371094e+00,1.000000000000000000e+00,-5.307846143841743469e-02,0.000000000000000000e+00
2.839093208312988281e-01,-8.047780609130859375e+01,2.201307373046875000e+02,2.201307373046875000e+02,-4.629502072930335999e-02,-5.383805847167968750e+01,-1.162536621093750000e+00,3.210437297821044922e+00,-4.389158725738525391e+00,8.846716082189232111e-05,-8.031203746795654297e-01,1.922849565744400024e-01,1.229549641720950603e-03,1.472898244857788086e+00,2.769494533538818359e+00,-4.626387596130371094e+00,1.000000000000000000e+00,-5.307846143841743469e-02,0.000000000000000000e+00
3.569011688232421875e-01,-8.024997711181640625e+01,2.197991333007812500e+02,2.197991333007812500e+02,-1.387006491422653198e-01,-5.469509506225585938e+01,-1.128204345703125000e+00,3.121074438095092773e+00,-4.425171852111816406e+00,6.540275353472679853e-05,-1.224285483360290527e+00,-4.933855831623077393e-01,-3.159860789310187101e-04,4.826648831367492676e-01,2.690789103507995605e-01,-1.329117774963378906e+01,1.000000000000000000e+00,-1.320472657680511475e-01,0.000000000000000000e+00
3.569011688232421875e-01,-8.024997711181640625e+01,2.197991333007812500e+02,2.197991333007812500e+02,-1.387006491422653198e-01,-5.469509506225585938e+01,-1.128204345703125000e+00,3.121074438095092773e+00,-4.425171852111816406e+00,6.540275353472679853e-05,-1.224285483360290527e+00,-4.933855831623077393e-01,-3.159860789310187101e-04,4.826648831367492676e-01,2.690789103507995605e-01,-1.329117774963378906e+01,1.000000000000000000e+00,-1.320472657680511475e-01,0.000000000000000000e+00
3.569011688232421875e-01,-8.024997711181640625e+01,2.197991333007812500e+02,2.197991333007812500e+02,-1.387006491422653198e-01,-5.469509506225585938e+01,-1.128204345703125000e+00,3.121074438095092773e+00,-4.425171852111816406e+00,6.540275353472679853e-05,-1.224285483360290527e+00,-4.933855831623077393e-01,-3.159860789310187101e-04,4.826648831367492676e-01,2.690789103507995605e-01,-1.329117774963378906e+01,1.000000000000000000e+00,-1.320472657680511475e-01,0.000000000000000000e+00
3.569011688232421875e-01,-8.024997711181640625e+01,2.197991333007812500e+02,2.197991333007812500e+02,-1.387006491422653198e-01,-5.469509506225585938e+01,-1.128204345703125000e+00,3.121074438095092773e+00,-4.425171852111816406e+00,6.540275353472679853e-05,-1.224285483360290527e+00,-4.933855831623077393e-01,-3.159860789310187101e-04,4.826648831367492676e-01,2.690789103507995605e-01,-1.329117774963378906e+01,1.000000000000000000e+00,-1.320472657680511475e-01,0.000000000000000000e+00
4.765405654907226562e-01,-8.001948547363281250e+01,2.194538574218750000e+02,2.194538574218750000e+02,-3.258956372737884521e-01,-5.553838729858398438e+01,-1.162444949150085449e+00,3.320588827133178711e+00,-4.853915214538574219e+00,-3.392677899682894349e-05,1.667631268501281738e+00,-3.583630323410034180e+00,-8.302410133183002472e-04,3.405226230621337891e+00,1.382568597793579102e+00,-1.135209369659423828e+01,1.000000000000000000e+00,-1.083618178963661194e-01,0.000000000000000000e+00
4.765405654907226562e-01,-8.001948547363281250e+01,2.194538574218750000e+02,2.194538574218750000e+02,-3.258956372737884521e-01,-5.553838729858398438e+01,-1.162444949150085449e+00,3.320588827133178711e+00,-4.853915214538574219e+00,-3.392677899682894349e-05,1.667631268501281738e+00,-3.583630323410034180e+00,-8.302410133183002472e-04,3.405226230621337891e+00,1.382568597793579102e+00,-1.135209369659423828e+01,1.000000000000000000e+00,-1.083618178963661194e-01,0.000000000000000000e+00
4.765405654907226562e-01,-8.001948547363281250e+01,2.194538574218750000e+02,2.194538574218750000e+02,-3.258956372737884521e-01,-5.553838729858398438e+01,-1.162444949150085449e+00,3.320588827133178711e+00,-4.853915214538574219e+00,-3.392677899682894349e-05,1.667631268501281738e+00,-3.583630323410034180e+00,-8.302410133183002472e-04,3.405226230621337891e+00,1.382568597793579102e+00,-1.135209369659423828e+01,1.000000000000000000e+00,-1.083618178963661194e-01,0.000000000000000000e+00
4.765405654907226562e-01,-8.001948547363281250e+01,2.194538574218750000e+02,2.194538574218750000e+02,-3.258956372737884521e-01,-5.553838729858398438e+01,-1.162444949150085449e+00,3.320588827133178711e+00,-4.853915214538574219e+00,-3.392677899682894349e-05,1.667631268501281738e+00,-3.583630323410034180e+00,-8.302410133183002472e-04,3.405226230621337891e+00,1.382568597793579102e+00,-1.135209369659423828e+01,1.000000000000000000e+00,-1.083618178963661194e-01,0.000000000000000000e+00
4.765405654907226562e-01,-8.001948547363281250e+01,2.194538574218750000e+02,2.194538574218750000e+02,-3.258956372737884521e-01,-5.553838729858398438e+01,-1.162444949150085449e+00,3.320588827133178711e+00,-4.853915214538574219e+00,-3.392677899682894349e-05,1.667631268501281738e+00,-3.583630323410034180e+00,-8.302410133183002472e-04,3.405226230621337891e+00,1.382568597793579102e+00,-1.135209369659423828e+01,1.000000000000000000e+00,-1.083618178963661194e-01,0.000000000000000000e+00
4.765405654907226562e-01,-8.001948547363281250e+01,2.194538574218750000e+02,2.194538574218750000e+02,-3.258956372737884521e-01,-5.553838729858398438e+01,-1.162444949150085449e+00,3.320588827133178711e+00,-4.853915214538574219e+00,-3.392677899682894349e-05,1.667631268501281738e+00,-3.583630323410034180e+00,-8.302410133183002472e-04,3.405226230621337891e+00,1.382568597793579102e+00,-1.135209369659423828e+01,1.000000000000000000e+00,-1.083618178963661194e-01,0.000000000000000000e+00
4.765405654907226562e-01,-8.001948547363281250e+01,2.194538574218750000e+02,2.194538574218750000e+02,-3.258956372737884521e-01,-5.553838729858398438e+01,-1.162444949150085449e+00,3.320588827133178711e+00,-4.853915214538574219e+00,-3.392677899682894349e-05,1.667631268501281738e+00,-3.583630323410034180e+00,-8.302410133183002472e-04,3.405226230621337891e+00,1.382568597793579102e+00,-1.135209369659423828e+01,1.000000000000000000e+00,-1.083618178963661194e-01,0.000000000000000000e+00
6.200885772705078125e-01,-7.969144439697265625e+01,2.189520721435546875e+02,2.189520721435546875e+02,-4.945603013038635254e-01,-5.644233322143554688e+01,-1.235412836074829102e+00,3.432472229003906250e+00,-5.178564548492431641e+00,-1.113515245378948748e-04,7.794145345687866211e-01,-2.261608123779296875e+00,-5.393648170866072178e-04,2.537286281585693359e+00,8.335400223731994629e-01,-8.404006958007812500e+00,5.000000000000000000e-01,-8.032289892435073853e-02,0.000000000000000000e+00
6.200885772705078125e-01,-7.969144439697265625e+01,2.189520721435546875e+02,2.189520721435546875e+02,-4.945603013038635254e-01,-5.644233322143554688e+01,-1.235412836074829102e+00,3.432472229003906250e+00,-5.178564548492431641e+00,-1.113515245378948748e-04,7.794145345687866211e-01,-2.261608123779296875e+00,-5.393648170866072178e-04,2.537286281585693359e+00,8.335400223731994629e-01,-8.404006958007812500e+00,5.000000000000000000e-01,-8.032289892435073853e-02,0.000000000000000000e+00
6.200885772705078125e-01,-7.969144439697265625e+01,2.189520721435546875e+02,2.189520721435546875e+02,-4.945603013038635254e-01,-5.644233322143554688e+01,-1.235412836074829102e+00,3.432472229003906250e+00,-5.178564548492431641e+00,-1.113515245378948748e-04,7.794145345687866211e-01,-2.261608123779296875e+00,-5.393648170866072178e-04,2.537286281585693359e+00,8.335400223731994629e-01,-8.404006958007812500e+00,5.000000000000000000e-01,-8.032289892435073853e-02,0.000000000000000000e+00
6.200885772705078125e-01,-7.969144439697265625e+01,2.189520721435546875e+02,2.189520721435546875e+02,-4.945603013038635254e-01,-5.644233322143554688e+01,-1.235412836074829102e+00,3.432472229003906250e+00,-5.178564548492431641e+00,-1.113515245378948748e-04,7.794145345687866211e-01,-2.261608123779296875e+00,-5.393648170866072178e-04,2.537286281585693359e+00,8.335400223731994629e-01,-8.404006958007812500e+00,5.000000000000000000e-01,-8.032289892435073853e-02,0.000000000000000000e+00
6.200885772705078125e-01,-7.969144439697265625e+01,2.189520721435546875e+02,2.189520721435546875e+02,-4.945603013038635254e-01,-5.644233322143554688e+01,-1.235412836074829102e+00,3.432472229003906250e+00,-5.178564548492431641e+00,-1.113515245378948748e-04,7.794145345687866211e-01,-2.261608123779296875e+00,-5.393648170866072178e-04,2.537286281585693359e+00,8.335400223731994629e-01,-8.404006958007812500e+00,5.000000000000000000e-01,-8.032289892435073853e-02,0.000000000000000000e+00
6.200885772705078125e-01,-7.969144439697265625e+01,2.189520721435546875e+02,2.189520721435546875e+02,-4.945603013038635254e-01,-5.644233322143554688e+01,-1.235412836074829102e+00,3.432472229003906250e+00,-5.178564548492431641e+00,-1.113515245378948748e-04,7.794145345687866211e-01,-2.261608123779296875e+00,-5.393648170866072178e-04,2.537286281585693359e+00,8.335400223731994629e-01,-8.404006958007812500e+00,5.000000000000000000e-01,-8.032289892435073853e-02,0.000000000000000000e+00
7.946169376373291016e-01,-7.936180114746093750e+01,2.184413299560546875e+02,2.184413299560546875e+02,-4.275834858417510986e-01,-5.696139526367187500e+01,-1.237060427665710449e+00,3.351803302764892578e+00,-5.151857852935791016e+00,1.640046502870973200e-05,-4.622109830379486084e-01,1.530220955610275269e-01,7.319841533899307251e-04,2.582300007343292236e-01,6.064159870147705078e-01,-4.598182201385498047e+00,5.000000000000000000e-01,-4.912745207548141479e-02,0.000000000000000000e+00
7.946169376373291016e-01,-7.936180114746093750e+01,2.184413299560546875e+02,2.184413299560546875e+02,-4.275834858417510986e-01,-5.696139526367187500e+01,-1.237060427665710449e+00,3.351803302764892578e+00,-5.151857852935791016e+00,1.640046502870973200e-05,-4.622109830379486084e-01,1.530220955610275269e-01,7.319841533899307251e-04,2.582300007343292236e-01,6.064159870147705078e-01,-4.598182201385498047e+00,5.000000000000000000e-01,-4.912745207548141479e-02,0.000000000000000000e+00
7.946169376373291016e-01,-7.936180114746093750e+01,2.184413299560546875e+02,2.184413299560546875e+02,-4.275834858417510986e-01,-5.696139526367187500e+01,-1.237060427665710449e+00,3.351803302764892578e+00,-5.151857852935791016e+00,1.640046502870973200e-05,-4.622109830379486084e-01,1.530220955610275269e-01,7.319841533899307251e-04,2.582300007343292236e-01,6.064159870147705078e-01,-4.598182201385498047e+00,5.000000000000000000e-01,-4.912745207548141479e-02,0.000000000000000000e+00
8.783230781555175781e-01,-7.905233001708984375e+01,2.179359588623046875e+02,2.179359588623046875e+02,-2.633037865161895752e-01,-5.804927062988281250e+01,-1.266754150390625000e+00,3.143821001052856445e+00,-5.050137996673583984e+00,4.613107375917024910e-05,-2.484672069549560547e+00,1.215201854705810547e+00,3.551783447619527578e-04,5.845881700515747070e-01,-4.665381908416748047e-01,-1.152905178070068359e+01,5.000000000000000000e-01,-1.278798431158065796e-01,0.000000000000000000e+00
8.783230781555175781e-01,-7.905233001708984375e+01,2.179359588623046875e+02,2.179359588623046875e+02,-2.633037865161895752e-01,-5.804927062988281250e+01,-1.266754150390625000e+00,3.143821001052856445e+00,-5.050137996673583984e+00,4.613107375917024910e-05,-2.484672069549560547e+00,1.215201854705810547e+00,3.551783447619527578e-04,5.845881700515747070e-01,-4.665381908416748047e-01,-1.152905178070068359e+01,5.000000000000000000e-01,-1.278798431158065796e-01,0.000000000000000000e+00
8.783230781555175781e-01,-7.905233001708984375e+01,2.179359588623046875e+02,2.179359588623046875e+02,-2.633037865161895752e-01,-5.804927062988281250e+01,-1.266754150390625000e+00,3.143821001052856445e+00,-5.050137996673583984e+00,4.613107375917024910e-05,-2.484672069549560547e+00,1.215201854705810547e+00,3.551783447619527578e-04,5.845881700515747070e-01,-4.665381908416748047e-01,-1.152905178070068359e+01,5.000000000000000000e-01,-1.278798431158065796e-01,0.000000000000000000e+00
9.483780860900878906e-01,-7.880760192871093750e+01,2.175236816406250000e+02,2.175236816406250000e+02,-1.293023079633712769e-01,-5.881175231933593750e+01,-1.323730349540710449e+00,2.951225757598876953e+00,-4.891668319702148438e+00,-3.176245809299871325e-05,-2.749200344085693359e+00,2.262074947357177734e+00,-1.111891004256904125e-03,9.207244217395782471e-02,-7.745751142501831055e-01,-8.524626731872558594e+00,5.000000000000000000e-01,-9.911918640136718750e-02,0.000000000000000000e+00
9.483780860900878906e-01,-7.880760192871093750e+01,2.175236816406250000e+02,2.175236816406250000e+02,-1.293023079633712769e-01,-5.881175231933593750e+01,-1.323730349540710449e+00,2.951225757598876953e+00,-4.891668319702148438e+00,-3.176245809299871325e-05,-2.749200344085693359e+00,2.262074947357177734e+00,-1.111891004256904125e-03,9.207244217395782471e-02,-7.745751142501831055e-01,-8.524626731872558594e+00,5.000000000000000000e-01,-9.911918640136718750e-02,0.000000000000000000e+00
9.483780860900878906e-01,-7.880760192871093750e+01,2.175236816406250000e+02,2.175236816406250000e+02,-1.293023079633712769e-01,-5.881175231933593750e+01,-1.323730349540710449e+00,2.951225757598876953e+00,-4.891668319702148438e+00,-3.176245809299871325e-05,-2.749200344085693359e+00,2.262074947357177734e+00,-1.111891004256904125e-03,9.207244217395782471e-02,-7.745751142501831055e-01,-8.524626731872558594e+00,5.000000000000000000e-01,-9.911918640136718750e-02,0.000000000000000000e+00
9.483780860900878906e-01,-7.880760192871093750e+01,2.175236816406250000e+02,2.175236816406250000e+02,-1.293023079633712769e-01,-5.881175231933593750e+01,-1.323730349540710449e+00,2.951225757598876953e+00,-4.891668319702148438e+00,-3.176245809299871325e-05,-2.749200344085693359e+00,2.262074947357177734e+00,-1.111891004256904125e-03,9.207244217395782471e-02,-7.745751142501831055e-01,-8.524626731872558594e+00,5.000000000000000000e-01,-9.911918640136718750e-02,0.000000000000000000e+00
9.483780860900878906e-01,-7.861231994628906250e+01,2.171885681152343750e+02,2.171885681152343750e+02,-2.193856611847877502e-02,-5.928727340698242188e+01,-1.342010498046875000e+00,2.751184225082397461e+00,-4.643912315368652344e+00,-4.972714305040426552e-05,-2.538630008697509766e+00,3.144151210784912109e+00,-2.279811014886945486e-04,-2.083762168884277344e+00,-1.224311113357543945e+00,-6.542245388031005859e+00,5.000000000000000000e-01,-7.622464746236801147e-02,0.000000000000000000e+00
1.027177095413208008e+00,-7.861231994628906250e+01,2.171885681152343750e+02,2.171885681152343750e+02,-2.193856611847877502e-02,-5.928727340698242188e+01,-1.342010498046875000e+00,2.751184225082397461e+00,-4.643912315368652344e+00,-4.972714305040426552e-05,-2.538630008697509766e+00,3.144151210784912109e+00,-2.279811014886945486e-04,-2.083762168884277344e+00,-1.224311113357543945e+00,-6.542245388031005859e+00,5.000000000000000000e-01,-7.622464746236801147e-02,0.000000000000000000e+00
1.027177095413208008e+00,-7.861231994628906250e+01,2.171885681152343750e+02,2.171885681152343750e+02,-2.193856611847877502e-02,-5.928727340698242188e+01,-1.342010498046875000e+00,2.751184225082397461e+00,-4.643912315368652344e+00,-4.972714305040426552e-05,-2.538630008697509766e+00,3.144151210784912109e+00,-2.279811014886945486e-04,-2.083762168884277344e+00,-1.224311113357543945e+00,-6.542245388031005859e+00,5.000000000000000000e-01,-7.622464746236801147e-02,0.000000000000000000e+00
1.095043420791625977e+00,-7.839905548095703125e+01,2.168174591064453125e+02,2.168174591064453125e+02,5.184113513678312302e-03,-5.971659851074218750e+01,-1.292419314384460449e+00,2.780796766281127930e+00,-4.765831947326660156e+00,1.589524435985367745e-05,4.363363087177276611e-01,-1.796467304229736328e+00,9.669358842074871063e-04,1.207568407058715820e+00,1.805955648422241211e+00,-5.421980857849121094e+00,1.000000000000000000e+00,-6.223119050264358521e-02,0.000000000000000000e+00
1.095043420791625977e+00,-7.839905548095703125e+01,2.168174591064453125e+02,2.168174591064453125e+02,5.184113513678312302e-03,-5.971659851074218750e+01,-1.292419314384460449e+00,2.780796766281127930e+00,-4.765831947326660156e+00,1.589524435985367745e-05,4.363363087177276611e-01,-1.796467304229736328e+00,9.669358842074871063e-04,1.207568407058715820e+00,1.805955648422241211e+00,-5.421980857849121094e+00,1.000000000000000000e+00,-6.223119050264358521e-02,0.000000000000000000e+00
1.095043420791625977e+00,-7.839905548095703125e+01,2.168174591064453125e+02,2.168174591064453125e+02,5.184113513678312302e-03,-5.971659851074218750e+01,-1.292419314384460449e+00,2.780796766281127930e+00,-4.765831947326660156e+00,1.589524435985367745e-05,4.363363087177276611e-01,-1.796467304229736328e+00,9.669358842074871063e-04,1.207568407058715820e+00,1.805955648422241211e+00,-5.421980857849121094e+00,1.000000000000000000e+00,-6.223119050264358521e-02,0.000000000000000000e+00
1.095043420791625977e+00,-7.839905548095703125e+01,2.168174591064453125e+02,2.168174591064453125e+02,5.184113513678312302e-03,-5.971659851074218750e+01,-1.292419314384460449e+00,2.780796766281127930e+00,-4.765831947326660156e+00,1.589524435985367745e-05,4.363363087177276611e-01,-1.796467304229736328e+00,9.669358842074871063e-04,1.207568407058715820e+00,1.805955648422241211e+00,-5.421980857849121094e+00,1.000000000000000000e+00,-6.223119050264358521e-02,0.000000000000000000e+00
1.168572425842285156e+00,-7.822186279296875000e+01,2.164925994873046875e+02,2.164925994873046875e+02,-5.330962315201759338e-02,-6.051427841186523438e+01,-1.277038574218750000e+00,2.679032564163208008e+00,-4.769027233123779297e+00,2.674693496373947710e-05,-1.384000778198242188e+00,-4.345612600445747375e-02,1.475838071200996637e-04,6.940278410911560059e-01,1.501242369413375854e-01,-1.364744758605957031e+01,1.000000000000000000e+00,-1.395479887723922729e-01,0.000000000000000000e+00
1.168572425842285156e+00,-7.822186279296875000e+01,2.164925994873046875e+02,2.164925994873046875e+02,-5.330962315201759338e-02,-6.051427841186523438e+01,-1.277038574218750000e+00,2.679032564163208008e+00,-4.769027233123779297e+00,2.674693496373947710e-05,-1.384000778198242188e+00,-4.345612600445747375e-02,1.475838071200996637e-04,6.940278410911560059e-01,1.501242369413375854e-01,-1.364744758605957031e+01,1.000000000000000000e+00,-1.395479887723922729e-01,0.000000000000000000e+00
1.168572425842285156e+00,-7.822186279296875000e+01,2.164925994873046875e+02,2.164925994873046875e+02,-5.330962315201759338e-02,-6.051427841186523438e+01,-1.277038574218750000e+00,2.679032564163208008e+00,-4.769027233123779297e+00,2.674693496373947710e-05,-1.384000778198242188e+00,-4.345612600445747375e-02,1.475838071200996637e-04,6.940278410911560059e-01,1.501242369413375854e-01,-1.364744758605957031e+01,1.000000000000000000e+00,-1.395479887723922729e-01,0.000000000000000000e+00
1.168572425842285156e+00,-7.822186279296875000e+01,2.164925994873046875e+02,2.164925994873046875e+02,-5.330962315201759338e-02,-6.051427841186523438e+01,-1.277038574218750000e+00,2.679032564163208008e+00,-4.769027233123779297e+00,2.674693496373947710e-05,-1.384000778198242188e+00,-4.345612600445747375e-02,1.475838071200996637e-04,6.940278410911560059e-01,1.501242369413375854e-01,-1.364744758605957031e+01,1.000000000000000000e+00,-1.395479887723922729e-01,0.000000000000000000e+00
1.168572425842285156e+00,-7.802650451660156250e+01,2.161216430664062500e+02,2.161216430664062500e+02,-2.398625761270523071e-01,-6.142068481445312500e+01,-1.315185546875000000e+00,2.808546066284179688e+00,-5.178219318389892578e+00,-5.115710155223496258e-05,1.725731968879699707e+00,-5.452372550964355469e+00,-1.038049929775297642e-03,3.654209852218627930e+00,1.119325757026672363e+00,-1.225962066650390625e+01,1.000000000000000000e+00,-1.181720718741416931e-01,0.000000000000000000e+00
1.243620872497558594e+00,-7.802650451660156250e+01,2.161216430664062500e+02,2.161216430664062500e+02,-2.398625761270523071e-01,-6.142068481445312500e+01,-1.315185546875000000e+00,2.808546066284179688e+00,-5.178219318389892578e+00,-5.115710155223496258e-05,1.725731968879699707e+00,-5.452372550964355469e+00,-1.038049929775297642e-03,3.654209852218627930e+00,1.119325757026672363e+00,-1.225962066650390625e+01,1.000000000000000000e+00,-1.181720718741416931e-01,0.000000000000000000e+00
1.243620872497558594e+00,-7.802650451660156250e+01,2.161216430664062500e+02,2.161216430664062500e+02,-2.398625761270523071e-01,-6.142068481445312500e+01,-1.315185546875000000e+00,2.808546066284179688e+00,-5.178219318389892578e+00,-5.115710155223496258e-05,1.725731968879699707e+00,-5.452372550964355469e+00,-1.038049929775297642e-03,3.654209852218627930e+00,1.119325757026672363e+00,-1.225962066650390625e+01,1.000000000000000000e+00,-1.181720718741416931e-01,0.000000000000000000e+00
1.243620872497558594e+00,-7.802650451660156250e+01,2.161216430664062500e+02,2.161216430664062500e+02,-2.398625761270523071e-01,-6.142068481445312500e+01,-1.315185546875000000e+00,2.808546066284179688e+00,-5.178219318389892578e+00,-5.115710155223496258e-05,1.725731968879699707e+00,-5.452372550964355469e+00,-1.038049929775297642e-03,3.654209852218627930e+00,1.119325757026672363e+00,-1.225962066650390625e+01,1.000000000000000000e+00,-1.181720718741416931e-01,0.000000000000000000e+00
1.312042951583862305e+00,-7.782212829589843750e+01,2.157250366210937500e+02,2.157250366210937500e+02,-3.779006898403167725e-01,-6.217239379882812500e+01,-1.366332769393920898e+00,2.783835649490356445e+00,-5.283759593963623047e+00,-1.237492688233032823e-04,-3.611468374729156494e-01,-1.542488574981689453e+00,-1.060946611687541008e-03,5.429220795631408691e-01,-4.707923233509063721e-01,-9.729683876037597656e+00,5.000000000000000000e-01,-8.842925727367401123e-02,0.000000000000000000e+00
1.312042951583862305e+00,-7.782212829589843750e+01,2.157250366210937500e+02,2.157250366210937500e+02,-3.779006898403167725e-01,-6.217239379882812500e+01,-1.366332769393920898e+00,2.783835649490356445e+00,-5.283759593963623047e+00,-1.237492688233032823e-04,-3.611468374729156494e-01,-1.542488574981689453e+00,-1.060946611687541008e-03,5.429220795631408691e-01,-4.707923233509063721e-01,-9.729683876037597656e+00,5.000000000000000000e-01,-8.842925727367401123e-02,0.000000000000000000e+00
1.383129358291625977e+00,-7.763282775878906250e+01,2.153531036376953125e+02,2.153531036376953125e+02,-4.250836372375488281e-01,-6.264090347290039062e+01,-1.385833621025085449e+00,2.820313453674316406e+00,-5.457522869110107422e+00,-7.731332880211994052e-05,5.131473541259765625e-01,-2.444395065307617188e+00,6.532323313876986504e-04,6.225328445434570312e-01,2.320138812065124512e-01,-6.196202754974365234e+00,5.000000000000000000e-01,-6.302299350500106812e-02,0.000000000000000000e+00
1.383129358291625977e+00,-7.763282775878906250e+01,2.153531036376953125e+02,2.153531036376953125e+02,-4.250836372375488281e-01,-6.264090347290039062e+01,-1.385833621025085449e+00,2.820313453674316406e+00,-5.457522869110107422e+00,-7.731332880211994052e-05,5.131473541259765625e-01,-2.444395065307617188e+00,6.532323313876986504e-04,6.225328445434570312e-01,2.320138812065124512e-01,-6.196202754974365234e+00,5.000000000000000000e-01,-6.302299350500106812e-02,0.000000000000000000e+00
1.383129358291625977e+00,-7.763282775878906250e+01,2.153531036376953125e+02,2.153531036376953125e+02,-4.250836372375488281e-01,-6.264090347290039062e+01,-1.385833621025085449e+00,2.820313453674316406e+00,-5.457522869110107422e+00,-7.731332880211994052e-05,5.131473541259765625e-01,-2.444395065307617188e+00,6.532323313876986504e-04,6.225328445434570312e-01,2.320138812065124512e-01,-6.196202754974365234e+00,5.000000000000000000e-01,-6.302299350500106812e-02,0.000000000000000000e+00
1.450951814651489258e+00,-7.744597625732421875e+01,2.149678649902343750e+02,2.149678649902343750e+02,-3.396038115024566650e-01,-6.344752120971679688e+01,-1.426055669784545898e+00,2.631107807159423828e+00,-5.292079925537109375e+00,-3.700683737406507134e-05,-2.789719820022583008e+00,2.439353466033935547e+00,5.942941643297672272e-04,-1.813589334487915039e+00,-1.792970180511474609e+00,-1.234727859497070312e+01,5.000000000000000000e-01,-1.327377259731292725e-01,0.000000000000000000e+00
1.450951814651489258e+00,-7.744597625732421875e+01,2.149678649902343750e+02,2.149678649902343750e+02,-3.396038115024566650e-01,-6.344752120971679688e+01,-1.426055669784545898e+00,2.631107807159423828e+00,-5.292079925537109375e+00,-3.700683737406507134e-05,-2.789719820022583008e+00,2.439353466033935547e+00,5.942941643297672272e-04,-1.813589334487915039e+00,-1.792970180511474609e+00,-1.234727859497070312e+01,5.000000000000000000e-01,-1.327377259731292725e-01,0.000000000000000000e+00
1.450951814651489258e+00,-7.744597625732421875e+01,2.149678649902343750e+02,2.149678649902343750e+02,-3.396038115024566650e-01,-6.344752120971679688e+01,-1.426055669784545898e+00,2.631107807159423828e+00,-5.292079925537109375e+00,-3.700683737406507134e-05,-2.789719820022583008e+00,2.439353466033935547e+00,5.942941643297672272e-04,-1.813589334487915039e+00,-1.792970180511474609e+00,-1.234727859497070312e+01,5.000000000000000000e-01,-1.327377259731292725e-01,0.000000000000000000e+00
1.527701377868652344e+00,-7.727507019042968750e+01,2.146046752929687500e+02,2.146046752929687500e+02,-2.488374412059783936e-01,-6.414757537841796875e+01,-1.477172851562500000e+00,2.562057495117187500e+00,-5.312535762786865234e+00,-3.788433969020843506e-05,-8.996834754943847656e-01,-2.665270864963531494e-01,-1.143332065112190321e-05,-2.762228548526763916e-01,-9.736750125885009766e-01,-9.882534027099609375e+00,5.000000000000000000e-01,-1.112103760242462158e-01,0.000000000000000000e+00
1.527701377868652344e+00,-7.727507019042968750e+01,2.146046752929687500e+02,2.146046752929687500e+02,-2.488374412059783936e-01,-6.414757537841796875e+01,-1.477172851562500000e+00,2.562057495117187500e+00,-5.312535762786865234e+00,-3.788433969020843506e-05,-8.996834754943847656e-01,-2.665270864963531494e-01,-1.143332065112190321e-05,-2.762228548526763916e-01,-9.736750125885009766e-01,-9.882534027099609375e+00,5.000000000000000000e-01,-1.112103760242462158e-01,0.000000000000000000e+00
1.527701377868652344e+00,-7.727507019042968750e+01,2.146046752929687500e+02,2.146046752929687500e+02,-2.488374412059783936e-01,-6.414757537841796875e+01,-1.477172851562500000e+00,2.562057495117187500e+00,-5.312535762786865234e+00,-3.788433969020843506e-05,-8.996834754943847656e-01,-2.665270864963531494e-01,-1.143332065112190321e-05,-2.762228548526763916e-01,-9.736750125885009766e-01,-9.882534027099609375e+00,5.000000000000000000e-01,-1.112103760242462158e-01,0.000000000000000000e+00
1.600134611129760742e+00,-7.709130859375000000e+01,2.142051544189453125e+02,2.142051544189453125e+02,-1.109017729759216309e-01,-6.477614593505859375e+01,-1.500793576240539551e+00,2.366179466247558594e+00,-5.036869525909423828e+00,-3.148549149045720696e-05,-2.704256296157836914e+00,3.805797815322875977e+00,8.834133041091263294e-05,-2.720961332321166992e+00,-1.300135612487792969e+00,-8.030587196350097656e+00,5.000000000000000000e-01,-9.014383703470230103e-02,0.000000000000000000e+00
1.600134611129760742e+00,-7.709130859375000000e+01,2.142051544189453125e+02,2.142051544189453125e+02,-1.109017729759216309e-01,-6.477614593505859375e+01,-1.500793576240539551e+00,2.366179466247558594e+00,-5.036869525909423828e+00,-3.148549149045720696e-05,-2.704256296157836914e+00,3.805797815322875977e+00,8.834133041091263294e-05,-2.720961332321166992e+00,-1.300135612487792969e+00,-8.030587196350097656e+00,5.000000000000000000e-01,-9.014383703470230103e-02,0.000000000000000000e+00
1.600134611129760742e+00,-7.709130859375000000e+01,2.142051544189453125e+02,2.142051544189453125e+02,-1.109017729759216309e-01,-6.477614593505859375e+01,-1.500793576240539551e+00,2.366179466247558594e+00,-5.036869525909423828e+00,-3.148549149045720696e-05,-2.704256296157836914e+00,3.805797815322875977e+00,8.834133041091263294e-05,-2.720961332321166992e+00,-1.300135612487792969e+00,-8.030587196350097656e+00,5.000000000000000000e-01,-9.014383703470230103e-02,0.000000000000000000e+00
1.600134611129760742e+00,-7.709130859375000000e+01,2.142051544189453125e+02,2.142051544189453125e+02,-1.109017729759216309e-01,-6.477614593505859375e+01,-1.500793576240539551e+00,2.366179466247558594e+00,-5.036869525909423828e+00,-3.148549149045720696e-05,-2.704256296157836914e+00,3.805797815322875977e+00,8.834133041091263294e-05,-2.720961332321166992e+00,-1.300135612487792969e+00,-8.030587196350097656e+00,5.000000000000000000e-01,-9.014383703470230103e-02,0.000000000000000000e+00
1.600134611129760742e+00,-7.709130859375000000e+01,2.142051544189453125e+02,2.142051544189453125e+02,-1.109017729759216309e-01,-6.477614593505859375e+01,-1.500793576240539551e+00,2.366179466247558594e+00,-5.036869525909423828e+00,-3.148549149045720696e-05,-2.704256296157836914e+00,3.805797815322875977e+00,8.834133041091263294e-05,-2.720961332321166992e+00,-1.300135612487792969e+00,-8.030587196350097656e+00,5.000000000000000000e-01,-9.014383703470230103e-02,0.000000000000000000e+00
1.600134611129760742e+00,-7.692424011230468750e+01,2.138356018066406250e+02,2.138356018066406250e+02,-4.537294432520866394e-02,-6.523329162597656250e+01,-1.460540890693664551e+00,2.345265865325927734e+00,-5.088929176330566406e+00,3.593877772800624371e-05,-1.812602430582046509e-01,-4.512061476707458496e-01,5.843728431500494480e-04,-8.373832702636718750e-02,9.093160629272460938e-01,-6.002005100250244141e+00,5.000000000000000000e-01,-7.137273252010345459e-02,0.000000000000000000e+00
1.715513467788696289e+00,-7.692424011230468750e+01,2.138356018066406250e+02,2.138356018066406250e+02,-4.537294432520866394e-02,-6.523329162597656250e+01,-1.460540890693664551e+00,2.345265865325927734e+00,-5.088929176330566406e+00,3.593877772800624371e-05,-1.812602430582046509e-01,-4.512061476707458496e-01,5.843728431500494480e-04,-8.373832702636718750e-02,9.093160629272460938e-01,-6.002005100250244141e+00,5.000000000000000000e-01,-7.137273252010345459e-02,0.000000000000000000e+00
1.715513467788696289e+00,-7.692424011230468750e+01,2.138356018066406250e+02,2.138356018066406250e+02,-4.537294432520866394e-02,-6.523329162597656250e+01,-1.460540890693664551e+00,2.345265865325927734e+00,-5.088929176330566406e+00,3.593877772800624371e-05,-1.812602430582046509e-01,-4.512061476707458496e-01,5.843728431500494480e-04,-8.373832702636718750e-02,9.093160629272460938e-01,-6.002005100250244141e+00,5.000000000000000000e-01,-7.137273252010345459e-02,0.000000000000000000e+00
1.715513467788696289e+00,-7.670517730712890625e+01,2.133423004150390625e+02,2.133423004150390625e+02,3.505935892462730408e-02,-6.573323059082031250e+01,-1.301025271415710449e+00,2.243841409683227539e+00,-4.965495109558105469e+00,1.684670860413461924e-04,-1.039167404174804688e+00,1.264671921730041504e+00,1.357849105261266232e-03,6.144843101501464844e-01,2.431902885437011719e+00,-4.748965263366699219e+00,5.000000000000000000e-01,-5.812072753906250000e-02,0.000000000000000000e+00
1.813115119934082031e+00,-7.670517730712890625e+01,2.133423004150390625e+02,2.133423004150390625e+02,3.505935892462730408e-02,-6.573323059082031250e+01,-1.301025271415710449e+00,2.243841409683227539e+00,-4.965495109558105469e+00,1.684670860413461924e-04,-1.039167404174804688e+00,1.264671921730041504e+00,1.357849105261266232e-03,6.144843101501464844e-01,2.431902885437011719e+00,-4.748965263366699219e+00,5.000000000000000000e-01,-5.812072753906250000e-02,0.000000000000000000e+00
1.813115119934082031e+00,-7.670517730712890625e+01,2.133423004150390625e+02,2.133423004150390625e+02,3.505935892462730408e-02,-6.573323059082031250e+01,-1.301025271415710449e+00,2.243841409683227539e+00,-4.965495109558105469e+00,1.684670860413461924e-04,-1.039167404174804688e+00,1.264671921730041504e+00,1.357849105261266232e-03,6.144843101501464844e-01,2.431902885437011719e+00,-4.748965263366699219e+00,5.000000000000000000e-01,-5.812072753906250000e-02,0.000000000000000000e+00
1.813115119934082031e+00,-7.670517730712890625e+01,2.133423004150390625e+02,2.133423004150390625e+02,3.505935892462730408e-02,-6.573323059082031250e+01,-1.301025271415710449e+00,2.243841409683227539e+00,-4.965495109558105469e+00,1.684670860413461924e-04,-1.039167404174804688e+00,1.264671921730041504e+00,1.357849105261266232e-03,6.144843101501464844e-01,2.431902885437011719e+00,-4.748965263366699219e+00,5.000000000000000000e-01,-5.812072753906250000e-02,0.000000000000000000e+00
1.896134853363037109e+00,-7.650884246826171875e+01,2.128694610595703125e+02,2.128694610595703125e+02,3.934871777892112732e-02,-6.678904724121093750e+01,-1.192870974540710449e+00,2.118126630783081055e+00,-4.952558040618896484e+00,1.457549369661137462e-04,-1.514275908470153809e+00,1.558312475681304932e-01,-2.735753078013658524e-04,2.523430347442626953e+00,1.637407779693603516e+00,-1.202721118927001953e+01,1.000000000000000000e+00,-1.348571777343750000e-01,0.000000000000000000e+00
1.896134853363037109e+00,-7.650884246826171875e+01,2.128694610595703125e+02,2.128694610595703125e+02,3.934871777892112732e-02,-6.678904724121093750e+01,-1.192870974540710449e+00,2.118126630783081055e+00,-4.952558040618896484e+00,1.457549369661137462e-04,-1.514275908470153809e+00,1.558312475681304932e-01,-2.735753078013658524e-04,2.523430347442626953e+00,1.637407779693603516e+00,-1.202721118927001953e+01,1.000000000000000000e+00,-1.348571777343750000e-01,0.000000000000000000e+00
1.896134853363037109e+00,-7.650884246826171875e+01,2.128694610595703125e+02,2.128694610595703125e+02,3.934871777892112732e-02,-6.678904724121093750e+01,-1.192870974540710449e+00,2.118126630783081055e+00,-4.952558040618896484e+00,1.457549369661137462e-04,-1.514275908470153809e+00,1.558312475681304932e-01,-2.735753078013658524e-04,2.523430347442626953e+00,1.637407779693603516e+00,-1.202721118927001953e+01,1.000000000000000000e+00,-1.348571777343750000e-01,0.000000000000000000e+00
1.896134853363037109e+00,-7.650884246826171875e+01,2.128694610595703125e+02,2.128694610595703125e+02,3.934871777892112732e-02,-6.678904724121093750e+01,-1.192870974540710449e+00,2.118126630783081055e+00,-4.952558040618896484e+00,1.457549369661137462e-04,-1.514275908470153809e+00,1.558312475681304932e-01,-2.735753078013658524e-04,2.523430347442626953e+00,1.637407779693603516e+00,-1.202721118927001953e+01,1.000000000000000000e+00,-1.348571777343750000e-01,0.000000000000000000e+00
1.896134853363037109e+00,-7.650884246826171875e+01,2.128694610595703125e+02,2.128694610595703125e+02,3.934871777892112732e-02,-6.678904724121093750e+01,-1.192870974540710449e+00,2.118126630783081055e+00,-4.952558040618896484e+00,1.457549369661137462e-04,-1.514275908470153809e+00,1.558312475681304932e-01,-2.735753078013658524e-04,2.523430347442626953e+00,1.637407779693603516e+00,-1.202721118927001953e+01,1.000000000000000000e+00,-1.348571777343750000e-01,0.000000000000000000e+00
1.896134853363037109e+00,-7.650884246826171875e+01,2.128694610595703125e+02,2.128694610595703125e+02,3.934871777892112732e-02,-6.678904724121093750e+01,-1.192870974540710449e+00,2.118126630783081055e+00,-4.952558040618896484e+00,1.457549369661137462e-04,-1.514275908470153809e+00,1.558312475681304932e-01,-2.735753078013658524e-04,2.523430347442626953e+00,1.637407779693603516e+00,-1.202721118927001953e+01,1.000000000000000000e+00,-1.348571777343750000e-01,0.000000000000000000e+00
1.896134853363037109e+00,-7.650884246826171875e+01,2.128694610595703125e+02,2.128694610595703125e+02,3.934871777892112732e-02,-6.678904724121093750e+01,-1.192870974540710449e+00,2.118126630783081055e+00,-4.952558040618896484e+00,1.457549369661137462e-04,-1.514275908470153809e+00,1.558312475681304932e-01,-2.735753078013658524e-04,2.523430347442626953e+00,1.637407779693603516e+00,-1.202721118927001953e+01,1.000000000000000000e+00,-1.348571777343750000e-01,0.000000000000000000e+00
1.896134853363037109e+00,-7.650884246826171875e+01,2.128694610595703125e+02,2.128694610595703125e+02,3.934871777892112732e-02,-6.678904724121093750e+01,-1.192870974540710449e+00,2.118126630783081055e+00,-4.952558040618896484e+00,1.457549369661137462e-04,-1.514275908470153809e+00,1.558312475681304932e-01,-2.735753078013658524e-04,2.523430347442626953e+00,1.637407779693603516e+00,-1.202721118927001953e+01,1.000000000000000000e+00,-1.348571777343750000e-01,0.000000000000000000e+00
2.195794820785522461e+00,-7.595142364501953125e+01,2.114258117675781250e+02,2.114258117675781250e+02,-4.995463490486145020e-01,-6.904331207275390625e+01,-1.166809320449829102e+00,2.192119598388671875e+00,-5.720503330230712891e+00,-5.670672544511035085e-05,1.480248689651489258e+00,-6.533934116363525391e+00,-4.763455581269226968e-05,-2.040845453739166260e-01,2.655050158500671387e-01,-5.406165122985839844e+00,5.000000000000000000e-01,-4.799499362707138062e-02,0.000000000000000000e+00
2.195794820785522461e+00,-7.595142364501953125e+01,2.114258117675781250e+02,2.114258117675781250e+02,-4.995463490486145020e-01,-6.904331207275390625e+01,-1.166809320449829102e+00,2.192119598388671875e+00,-5.720503330230712891e+00,-5.670672544511035085e-05,1.480248689651489258e+00,-6.533934116363525391e+00,-4.763455581269226968e-05,-2.040845453739166260e-01,2.655050158500671387e-01,-5.406165122985839844e+00,5.000000000000000000e-01,-4.799499362707138062e-02,0.000000000000000000e+00
2.195794820785522461e+00,-7.595142364501953125e+01,2.114258117675781250e+02,2.114258117675781250e+02,-4.995463490486145020e-01,-6.904331207275390625e+01,-1.166809320449829102e+00,2.192119598388671875e+00,-5.720503330230712891e+00,-5.670672544511035085e-05,1.480248689651489258e+00,-6.533934116363525391e+00,-4.763455581269226968e-05,-2.040845453739166260e-01,2.655050158500671387e-01,-5.406165122985839844e+00,5.000000000000000000e-01,-4.799499362707138062e-02,0.000000000000000000e+00
2.195794820785522461e+00,-7.595142364501953125e+01,2.114258117675781250e+02,2.114258117675781250e+02,-4.995463490486145020e-01,-6.904331207275390625e+01,-1.166809320449829102e+00,2.192119598388671875e+00,-5.720503330230712891e+00,-5.670672544511035085e-05,1.480248689651489258e+00,-6.533934116363525391e+00,-4.763455581269226968e-05,-2.040845453739166260e-01,2.655050158500671387e-01,-5.406165122985839844e+00,5.000000000000000000e-01,-4.799499362707138062e-02,0.000000000000000000e+00
2.195794820785522461e+00,-7.595142364501953125e+01,2.114258117675781250e+02,2.114258117675781250e+02,-4.995463490486145020e-01,-6.904331207275390625e+01,-1.166809320449829102e+00,2.192119598388671875e+00,-5.720503330230712891e+00,-5.670672544511035085e-05,1.480248689651489258e+00,-6.533934116363525391e+00,-4.763455581269226968e-05,-2.040845453739166260e-01,2.655050158500671387e-01,-5.406165122985839844e+00,5.000000000000000000e-01,-4.799499362707138062e-02,0.000000000000000000e+00
2.195794820785522461e+00,-7.595142364501953125e+01,2.114258117675781250e+02,2.114258117675781250e+02,-4.995463490486145020e-01,-6.904331207275390625e+01,-1.166809320449829102e+00,2.192119598388671875e+00,-5.720503330230712891e+00,-5.670672544511035085e-05,1.480248689651489258e+00,-6.533934116363525391e+00,-4.763455581269226968e-05,-2.040845453739166260e-01,2.655050158500671387e-01,-5.406165122985839844e+00,5.000000000000000000e-01,-4.799499362707138062e-02,0.000000000000000000e+00
2.195794820785522461e+00,-7.595142364501953125e+01,2.114258117675781250e+02,2.114258117675781250e+02,-4.995463490486145020e-01,-6.904331207275390625e+01,-1.166809320449829102e+00,2.192119598388671875e+00,-5.720503330230712891e+00,-5.670672544511035085e-05,1.480248689651489258e+00,-6.533934116363525391e+00,-4.763455581269226968e-05,-2.040845453739166260e-01,2.655050158500671387e-01,-5.406165122985839844e+00,5.000000000000000000e-01,-4.799499362707138062e-02,0.000000000000000000e+00
2.195794820785522461e+00,-7.595142364501953125e+01,2.114258117675781250e+02,2.114258117675781250e+02,-4.995463490486145020e-01,-6.904331207275390625e+01,-1.166809320449829102e+00,2.192119598388671875e+00,-5.720503330230712891e+00,-5.670672544511035085e-05,1.480248689651489258e+00,-6.533934116363525391e+00,-4.763455581269226968e-05,-2.040845453739166260e-01,2.655050158500671387e-01,-5.406165122985839844e+00,5.000000000000000000e-01,-4.799499362707138062e-02,0.000000000000000000e+00
2.195794820785522461e+00,-7.595142364501953125e+01,2.114258117675781250e+02,2.114258117675781250e+02,-4.995463490486145020e-01,-6.904331207275390625e+01,-1.166809320449829102e+00,2.192119598388671875e+00,-5.720503330230712891e+00,-5.670672544511035085e-05,1.480248689651489258e+00,-6.533934116363525391e+00,-4.763455581269226968e-05,-2.040845453739166260e-01,2.655050158500671387e-01,-5.406165122985839844e+00,5.000000000000000000e-01,-4.799499362707138062e-02,0.000000000000000000e+00
2.195794820785522461e+00,-7.595142364501953125e+01,2.114258117675781250e+02,2.114258117675781250e+02,-4.995463490486145020e-01,-6.904331207275390625e+01,-1.166809320449829102e+00,2.192119598388671875e+00,-5.720503330230712891e+00,-5.670672544511035085e-05,1.480248689651489258e+00,-6.533934116363525391e+00,-4.763455581269226968e-05,-2.040845453739166260e-01,2.655050158500671387e-01,-5.406165122985839844e+00,5.000000000000000000e-01,-4.799499362707138062e-02,0.000000000000000000e+00
2.374083757400512695e+00,-7.583996582031250000e+01,2.111146850585937500e+02,2.111146850585937500e+02,-5.099760293960571289e-01,-6.960755157470703125e+01,-1.182922482490539551e+00,2.141644239425659180e+00,-5.794325828552246094e+00,-2.825362025760114193e-05,-2.831098735332489014e-01,-4.140610098838806152e-01,1.595898502273485065e-04,-7.954660058021545410e-01,-9.989552497863769531e-01,-1.232713603973388672e+01,5.000000000000000000e-01,-1.245974227786064148e-01,0.000000000000000000e+00
2.374083757400512695e+00,-7.583996582031250000e+01,2.111146850585937500e+02,2.111146850585937500e+02,-5.099760293960571289e-01,-6.960755157470703125e+01,-1.182922482490539551e+00,2.141644239425659180e+00,-5.794325828552246094e+00,-2.825362025760114193e-05,-2.831098735332489014e-01,-4.140610098838806152e-01,1.595898502273485065e-04,-7.954660058021545410e-01,-9.989552497863769531e-01,-1.232713603973388672e+01,5.000000000000000000e-01,-1.245974227786064148e-01,0.000000000000000000e+00
2.374083757400512695e+00,-7.583996582031250000e+01,2.111146850585937500e+02,2.111146850585937500e+02,-5.099760293960571289e-01,-6.960755157470703125e+01,-1.182922482490539551e+00,2.141644239425659180e+00,-5.794325828552246094e+00,-2.825362025760114193e-05,-2.831098735332489014e-01,-4.140610098838806152e-01,1.595898502273485065e-04,-7.954660058021545410e-01,-9.989552497863769531e-01,-1.232713603973388672e+01,5.000000000000000000e-01,-1.245974227786064148e-01,0.000000000000000000e+00
2.447860002517700195e+00,-7.564112091064453125e+01,2.105323333740234375e+02,2.105323333740234375e+02,-3.612691760063171387e-01,-7.070342254638671875e+01,-1.286529541015625000e+00,1.965535283088684082e+00,-5.626701354980468750e+00,-4.197374801151454449e-05,-2.387068510055541992e+00,2.272065639495849609e+00,-1.859694602899253368e-04,-2.992657423019409180e+00,-2.320424318313598633e+00,-1.087619400024414062e+01,5.000000000000000000e-01,-1.113444045186042786e-01,0.000000000000000000e+00
2.447860002517700195e+00,-7.564112091064453125e+01,2.105323333740234375e+02,2.105323333740234375e+02,-3.612691760063171387e-01,-7.070342254638671875e+01,-1.286529541015625000e+00,1.965535283088684082e+00,-5.626701354980468750e+00,-4.197374801151454449e-05,-2.387068510055541992e+00,2.272065639495849609e+00,-1.859694602899253368e-04,-2.992657423019409180e+00,-2.320424318313598633e+00,-1.087619400024414062e+01,5.000000000000000000e-01,-1.113444045186042786e-01,0.000000000000000000e+00
2.500878810882568359e+00,-7.550157165527343750e+01,2.101114044189453125e+02,2.101114044189453125e+02,-2.571088075637817383e-01,-7.126368713378906250e+01,-1.351379275321960449e+00,1.922166585922241211e+00,-5.683231830596923828e+00,-5.063263233751058578e-05,-8.179870247840881348e-01,-1.066234350204467773e+00,-1.633172214496880770e-04,-2.039554119110107422e-01,-8.300489783287048340e-01,-7.030421733856201172e+00,5.000000000000000000e-01,-7.784220576286315918e-02,0.000000000000000000e+00
2.500878810882568359e+00,-7.550157165527343750e+01,2.101114044189453125e+02,2.101114044189453125e+02,-2.571088075637817383e-01,-7.126368713378906250e+01,-1.351379275321960449e+00,1.922166585922241211e+00,-5.683231830596923828e+00,-5.063263233751058578e-05,-8.179870247840881348e-01,-1.066234350204467773e+00,-1.633172214496880770e-04,-2.039554119110107422e-01,-8.300489783287048340e-01,-7.030421733856201172e+00,5.000000000000000000e-01,-7.784220576286315918e-02,0.000000000000000000e+00
2.560195446014404297e+00,-7.540558624267578125e+01,2.098164215087890625e+02,2.098164215087890625e+02,-1.683914810419082642e-01,-7.156896972656250000e+01,-1.366058230400085449e+00,1.845825910568237305e+00,-5.553461551666259766e+00,-3.799888145294971764e-05,-1.287002801895141602e+00,2.187755107879638672e+00,2.129883214365690947e-04,-6.803178787231445312e-01,-2.764604687690734863e-01,-5.351625442504882812e+00,5.000000000000000000e-01,-6.072286143898963928e-02,0.000000000000000000e+00
2.560195446014404297e+00,-7.540558624267578125e+01,2.098164215087890625e+02,2.098164215087890625e+02,-1.683914810419082642e-01,-7.156896972656250000e+01,-1.366058230400085449e+00,1.845825910568237305e+00,-5.553461551666259766e+00,-3.799888145294971764e-05,-1.287002801895141602e+00,2.187755107879638672e+00,2.129883214365690947e-04,-6.803178787231445312e-01,-2.764604687690734863e-01,-5.351625442504882812e+00,5.000000000000000000e-01,-6.072286143898963928e-02,0.000000000000000000e+00
2.560195446014404297e+00,-7.540558624267578125e+01,2.098164215087890625e+02,2.098164215087890625e+02,-1.683914810419082642e-01,-7.156896972656250000e+01,-1.366058230400085449e+00,1.845825910568237305e+00,-5.553461551666259766e+00,-3.799888145294971764e-05,-1.287002801895141602e+00,2.187755107879638672e+00,2.129883214365690947e-04,-6.803178787231445312e-01,-2.764604687690734863e-01,-5.351625442504882812e+00,5.000000000000000000e-01,-6.072286143898963928e-02,0.000000000000000000e+00
2.618730545043945312e+00,-7.530602264404296875e+01,2.094920196533203125e+02,2.094920196533203125e+02,-8.401132375001907349e-02,-7.217819976806640625e+01,-1.386962652206420898e+00,1.744120001792907715e+00,-5.473376274108886719e+00,-3.409833516343496740e-05,-1.737520098686218262e+00,1.368158221244812012e+00,6.663602107437327504e-05,1.677419692277908325e-01,-4.850832521915435791e-01,-1.160493373870849609e+01,5.000000000000000000e-01,-1.377962678670883179e-01,0.000000000000000000e+00
2.618730545043945312e+00,-7.530602264404296875e+01,2.094920196533203125e+02,2.094920196533203125e+02,-8.401132375001907349e-02,-7.217819976806640625e+01,-1.386962652206420898e+00,1.744120001792907715e+00,-5.473376274108886719e+00,-3.409833516343496740e-05,-1.737520098686218262e+00,1.368158221244812012e+00,6.663602107437327504e-05,1.677419692277908325e-01,-4.850832521915435791e-01,-1.160493373870849609e+01,5.000000000000000000e-01,-1.377962678670883179e-01,0.000000000000000000e+00
2.677334070205688477e+00,-7.521389007568359375e+01,2.091786499023437500e+02,2.091786499023437500e+02,-1.422045286744832993e-02,-7.280407714843750000e+01,-1.413574457168579102e+00,1.649760603904724121e+00,-5.367781162261962891e+00,-6.047317219781689346e-05,-1.610131740570068359e+00,1.801855921745300293e+00,-4.500554641708731651e-04,4.774306118488311768e-01,-3.519113361835479736e-01,-1.044897937774658203e+01,5.000000000000000000e-01,-1.231656372547149658e-01,0.000000000000000000e+00
2.677334070205688477e+00,-7.521389007568359375e+01,2.091786499023437500e+02,2.091786499023437500e+02,-1.422045286744832993e-02,-7.280407714843750000e+01,-1.413574457168579102e+00,1.649760603904724121e+00,-5.367781162261962891e+00,-6.047317219781689346e-05,-1.610131740570068359e+00,1.801855921745300293e+00,-4.500554641708731651e-04,4.774306118488311768e-01,-3.519113361835479736e-01,-1.044897937774658203e+01,5.000000000000000000e-01,-1.231656372547149658e-01,0.000000000000000000e+00
2.677334070205688477e+00,-7.521389007568359375e+01,2.091786499023437500e+02,2.091786499023437500e+02,-1.422045286744832993e-02,-7.280407714843750000e+01,-1.413574457168579102e+00,1.649760603904724121e+00,-5.367781162261962891e+00,-6.047317219781689346e-05,-1.610131740570068359e+00,1.801855921745300293e+00,-4.500554641708731651e-04,4.774306118488311768e-01,-3.519113361835479736e-01,-1.044897937774658203e+01,5.000000000000000000e-01,-1.231656372547149658e-01,0.000000000000000000e+00
2.677334070205688477e+00,-7.512611389160156250e+01,2.088715515136718750e+02,2.088715515136718750e+02,3.882962465286254883e-02,-7.333705902099609375e+01,-1.427825927734375000e+00,1.567355036735534668e+00,-5.266551971435546875e+00,-6.405845488188788295e-05,-1.060685753822326660e+00,1.302974581718444824e+00,-4.614807403413578868e-05,7.179265022277832031e-01,4.986181855201721191e-02,-8.777327537536621094e+00,5.000000000000000000e-01,-1.049588546156883240e-01,0.000000000000000000e+00
2.755024909973144531e+00,-7.512611389160156250e+01,2.088715515136718750e+02,2.088715515136718750e+02,3.882962465286254883e-02,-7.333705902099609375e+01,-1.427825927734375000e+00,1.567355036735534668e+00,-5.266551971435546875e+00,-6.405845488188788295e-05,-1.060685753822326660e+00,1.302974581718444824e+00,-4.614807403413578868e-05,7.179265022277832031e-01,4.986181855201721191e-02,-8.777327537536621094e+00,5.000000000000000000e-01,-1.049588546156883240e-01,0.000000000000000000e+00
2.755024909973144531e+00,-7.512611389160156250e+01,2.088715515136718750e+02,2.088715515136718750e+02,3.882962465286254883e-02,-7.333705902099609375e+01,-1.427825927734375000e+00,1.567355036735534668e+00,-5.266551971435546875e+00,-6.405845488188788295e-05,-1.060685753822326660e+00,1.302974581718444824e+00,-4.614807403413578868e-05,7.179265022277832031e-01,4.986181855201721191e-02,-8.777327537536621094e+00,5.000000000000000000e-01,-1.049588546156883240e-01,0.000000000000000000e+00
2.755024909973144531e+00,-7.512611389160156250e+01,2.088715515136718750e+02,2.088715515136718750e+02,3.882962465286254883e-02,-7.333705902099609375e+01,-1.427825927734375000e+00,1.567355036735534668e+00,-5.266551971435546875e+00,-6.405845488188788295e-05,-1.060685753822326660e+00,1.302974581718444824e+00,-4.614807403413578868e-05,7.179265022277832031e-01,4.986181855201721191e-02,-8.777327537536621094e+00,5.000000000000000000e-01,-1.049588546156883240e-01,0.000000000000000000e+00
2.830169916152954102e+00,-7.501599121093750000e+01,2.084740905761718750e+02,2.084740905761718750e+02,9.166113287210464478e-02,-7.394609069824218750e+01,-1.406555175781250000e+00,1.429981231689453125e+00,-4.985754489898681641e+00,-1.611459083505906165e-05,-1.828116178512573242e+00,3.736741542816162109e+00,6.380179547704756260e-04,-1.740358591079711914e+00,7.037549279630184174e-03,-8.142479896545410156e+00,1.000000000000000000e+00,-8.935979008674621582e-02,0.000000000000000000e+00
2.830169916152954102e+00,-7.501599121093750000e+01,2.084740905761718750e+02,2.084740905761718750e+02,9.166113287210464478e-02,-7.394609069824218750e+01,-1.406555175781250000e+00,1.429981231689453125e+00,-4.985754489898681641e+00,-1.611459083505906165e-05,-1.828116178512573242e+00,3.736741542816162109e+00,6.380179547704756260e-04,-1.740358591079711914e+00,7.037549279630184174e-03,-8.142479896545410156e+00,1.000000000000000000e+00,-8.935979008674621582e-02,0.000000000000000000e+00
2.830169916152954102e+00,-7.501599121093750000e+01,2.084740905761718750e+02,2.084740905761718750e+02,9.166113287210464478e-02,-7.394609069824218750e+01,-1.406555175781250000e+00,1.429981231689453125e+00,-4.985754489898681641e+00,-1.611459083505906165e-05,-1.828116178512573242e+00,3.736741542816162109e+00,6.380179547704756260e-04,-1.740358591079711914e+00,7.037549279630184174e-03,-8.142479896545410156e+00,1.000000000000000000e+00,-8.935979008674621582e-02,0.000000000000000000e+00
2.830169916152954102e+00,-7.501599121093750000e+01,2.084740905761718750e+02,2.084740905761718750e+02,9.166113287210464478e-02,-7.394609069824218750e+01,-1.406555175781250000e+00,1.429981231689453125e+00,-4.985754489898681641e+00,-1.611459083505906165e-05,-1.828116178512573242e+00,3.736741542816162109e+00,6.380179547704756260e-04,-1.740358591079711914e+00,7.037549279630184174e-03,-8.142479896545410156e+00,1.000000000000000000e+00,-8.935979008674621582e-02,0.000000000000000000e+00
2.830169916152954102e+00,-7.501599121093750000e+01,2.084740905761718750e+02,2.084740905761718750e+02,9.166113287210464478e-02,-7.394609069824218750e+01,-1.406555175781250000e+00,1.429981231689453125e+00,-4.985754489898681641e+00,-1.611459083505906165e-05,-1.828116178512573242e+00,3.736741542816162109e+00,6.380179547704756260e-04,-1.740358591079711914e+00,7.037549279630184174e-03,-8.142479896545410156e+00,1.000000000000000000e+00,-8.935979008674621582e-02,0.000000000000000000e+00
