# Time,X,Y,Z,Roll,Pitch,Yaw,Vx,Vy,Vz,Ax,Ay,Az,Wx,Wy,Wz,Throttle,Steer,Brake
0.000000000000000000e+00,6.615791015625000000e+02,1.426082458496093750e+02,1.426082458496093750e+02,1.446702331304550171e-01,-8.937011718750000000e+01,-6.430053710937500000e-02,9.243426471948623657e-02,-8.437582969665527344e+00,-1.109919958253158256e-05,2.262449078261852264e-02,-2.339953899383544922e+00,-3.293235204182565212e-04,-1.248985409736633301e+00,-1.685057766735553741e-02,3.852989524602890015e-02,1.000000000000000000e+00,-2.822876012942288071e-05,0.000000000000000000e+00
1.045818328857421875e-01,6.615791015625000000e+02,1.426082458496093750e+02,1.426082458496093750e+02,1.446702331304550171e-01,-8.937011718750000000e+01,-6.430053710937500000e-02,9.243426471948623657e-02,-8.437582969665527344e+00,-1.109919958253158256e-05,2.262449078261852264e-02,-2.339953899383544922e+00,-3.293235204182565212e-04,-1.248985409736633301e+00,-1.685057766735553741e-02,3.852989524602890015e-02,1.000000000000000000e+00,-2.822876012942288071e-05,0.000000000000000000e+00
1.045818328857421875e-01,6.615791015625000000e+02,1.426082458496093750e+02,1.426082458496093750e+02,1.446702331304550171e-01,-8.937011718750000000e+01,-6.430053710937500000e-02,9.243426471948623657e-02,-8.437582969665527344e+00,-1.109919958253158256e-05,2.262449078261852264e-02,-2.339953899383544922e+00,-3.293235204182565212e-04,-1.248985409736633301e+00,-1.685057766735553741e-02,3.852989524602890015e-02,1.000000000000000000e+00,-2.822876012942288071e-05,0.000000000000000000e+00
1.045818328857421875e-01,6.615791015625000000e+02,1.426082458496093750e+02,1.426082458496093750e+02,1.446702331304550171e-01,-8.937011718750000000e+01,-6.430053710937500000e-02,9.243426471948623657e-02,-8.437582969665527344e+00,-1.109919958253158256e-05,2.262449078261852264e-02,-2.339953899383544922e+00,-3.293235204182565212e-04,-1.248985409736633301e+00,-1.685057766735553741e-02,3.852989524602890015e-02,1.000000000000000000e+00,-2.822876012942288071e-05,0.000000000000000000e+00
1.045818328857421875e-01,6.615791015625000000e+02,1.426082458496093750e+02,1.426082458496093750e+02,1.446702331304550171e-01,-8.937011718750000000e+01,-6.430053710937500000e-02,9.243426471948623657e-02,-8.437582969665527344e+00,-1.109919958253158256e-05,2.262449078261852264e-02,-2.339953899383544922e+00,-3.293235204182565212e-04,-1.248985409736633301e+00,-1.685057766735553741e-02,3.852989524602890015e-02,1.000000000000000000e+00,-2.822876012942288071e-05,0.000000000000000000e+00
1.045818328857421875e-01,6.615791015625000000e+02,1.426082458496093750e+02,1.426082458496093750e+02,1.446702331304550171e-01,-8.937011718750000000e+01,-6.430053710937500000e-02,9.243426471948623657e-02,-8.437582969665527344e+00,-1.109919958253158256e-05,2.262449078261852264e-02,-2.339953899383544922e+00,-3.293235204182565212e-04,-1.248985409736633301e+00,-1.685057766735553741e-02,3.852989524602890015e-02,1.000000000000000000e+00,-2.822876012942288071e-05,0.000000000000000000e+00
1.045818328857421875e-01,6.615885009765625000e+02,1.417472686767578125e+02,1.417472686767578125e+02,2.463717460632324219e-01,-8.936807250976562500e+01,-6.433106958866119385e-02,9.503406286239624023e-02,-8.701560020446777344e+00,-3.747315349755808711e-05,2.482881397008895874e-02,-2.521056175231933594e+00,-2.518787805456668139e-04,-7.362225651741027832e-01,-1.048212405294179916e-02,1.038519199937582016e-02,5.000000000000000000e-01,-1.214981093653477728e-04,0.000000000000000000e+00
2.092907428741455078e-01,6.615885009765625000e+02,1.417472686767578125e+02,1.417472686767578125e+02,2.463717460632324219e-01,-8.936807250976562500e+01,-6.433106958866119385e-02,9.503406286239624023e-02,-8.701560020446777344e+00,-3.747315349755808711e-05,2.482881397008895874e-02,-2.521056175231933594e+00,-2.518787805456668139e-04,-7.362225651741027832e-01,-1.048212405294179916e-02,1.038519199937582016e-02,5.000000000000000000e-01,-1.214981093653477728e-04,0.000000000000000000e+00
2.092907428741455078e-01,6.615885009765625000e+02,1.417472686767578125e+02,1.417472686767578125e+02,2.463717460632324219e-01,-8.936807250976562500e+01,-6.433106958866119385e-02,9.503406286239624023e-02,-8.701560020446777344e+00,-3.747315349755808711e-05,2.482881397008895874e-02,-2.521056175231933594e+00,-2.518787805456668139e-04,-7.362225651741027832e-01,-1.048212405294179916e-02,1.038519199937582016e-02,5.000000000000000000e-01,-1.214981093653477728e-04,0.000000000000000000e+00
2.092907428741455078e-01,6.615885009765625000e+02,1.417472686767578125e+02,1.417472686767578125e+02,2.463717460632324219e-01,-8.936807250976562500e+01,-6.433106958866119385e-02,9.503406286239624023e-02,-8.701560020446777344e+00,-3.747315349755808711e-05,2.482881397008895874e-02,-2.521056175231933594e+00,-2.518787805456668139e-04,-7.362225651741027832e-01,-1.048212405294179916e-02,1.038519199937582016e-02,5.000000000000000000e-01,-1.214981093653477728e-04,0.000000000000000000e+00
2.092907428741455078e-01,6.615885009765625000e+02,1.417472686767578125e+02,1.417472686767578125e+02,2.463717460632324219e-01,-8.936807250976562500e+01,-6.433106958866119385e-02,9.503406286239624023e-02,-8.701560020446777344e+00,-3.747315349755808711e-05,2.482881397008895874e-02,-2.521056175231933594e+00,-2.518787805456668139e-04,-7.362225651741027832e-01,-1.048212405294179916e-02,1.038519199937582016e-02,5.000000000000000000e-01,-1.214981093653477728e-04,0.000000000000000000e+00
2.092907428741455078e-01,6.615980224609375000e+02,1.408683013916015625e+02,1.408683013916015625e+02,2.733578085899353027e-01,-8.936861419677734375e+01,-6.436155736446380615e-02,9.624291956424713135e-02,-8.829957962036132812e+00,-2.805242183967493474e-05,1.620047912001609802e-02,-1.720723509788513184e+00,1.262518198927864432e-04,4.892633482813835144e-02,1.084131421521306038e-03,-1.518093701452016830e-02,5.000000000000000000e-01,-1.535415649414062500e-04,0.000000000000000000e+00
2.839093208312988281e-01,6.615980224609375000e+02,1.408683013916015625e+02,1.408683013916015625e+02,2.733578085899353027e-01,-8.936861419677734375e+01,-6.436155736446380615e-02,9.624291956424713135e-02,-8.829957962036132812e+00,-2.805242183967493474e-05,1.620047912001609802e-02,-1.720723509788513184e+00,1.262518198927864432e-04,4.892633482813835144e-02,1.084131421521306038e-03,-1.518093701452016830e-02,5.000000000000000000e-01,-1.535415649414062500e-04,0.000000000000000000e+00
2.839093208312988281e-01,6.615980224609375000e+02,1.408683013916015625e+02,1.408683013916015625e+02,2.733578085899353027e-01,-8.936861419677734375e+01,-6.436155736446380615e-02,9.624291956424713135e-02,-8.829957962036132812e+00,-2.805242183967493474e-05,1.620047912001609802e-02,-1.720723509788513184e+00,1.262518198927864432e-04,4.892633482813835144e-02,1.084131421521306038e-03,-1.518093701452016830e-02,5.000000000000000000e-01,-1.535415649414062500e-04,0.000000000000000000e+00
2.839093208312988281e-01,6.615980224609375000e+02,1.408683013916015625e+02,1.408683013916015625e+02,2.733578085899353027e-01,-8.936861419677734375e+01,-6.436155736446380615e-02,9.624291956424713135e-02,-8.829957962036132812e+00,-2.805242183967493474e-05,1.620047912001609802e-02,-1.720723509788513184e+00,1.262518198927864432e-04,4.892633482813835144e-02,1.084131421521306038e-03,-1.518093701452016830e-02,5.000000000000000000e-01,-1.535415649414062500e-04,0.000000000000000000e+00
2.839093208312988281e-01,6.615980224609375000e+02,1.408683013916015625e+02,1.408683013916015625e+02,2.733578085899353027e-01,-8.936861419677734375e+01,-6.436155736446380615e-02,9.624291956424713135e-02,-8.829957962036132812e+00,-2.805242183967493474e-05,1.620047912001609802e-02,-1.720723509788513184e+00,1.262518198927864432e-04,4.892633482813835144e-02,1.084131421521306038e-03,-1.518093701452016830e-02,5.000000000000000000e-01,-1.535415649414062500e-04,0.000000000000000000e+00
3.569011688232421875e-01,6.616050415039062500e+02,1.402085876464843750e+02,1.402085876464843750e+02,2.489398866891860962e-01,-8.937022399902343750e+01,-6.427001208066940308e-02,9.632074832916259766e-02,-8.844916343688964844e+00,-6.293310889304848388e-06,1.066266559064388275e-03,-2.049322277307510376e-01,2.981033176183700562e-04,4.917117953300476074e-01,7.913798093795776367e-03,-2.615295909345149994e-02,5.000000000000000000e-01,-1.398086606059223413e-04,0.000000000000000000e+00
3.569011688232421875e-01,6.616050415039062500e+02,1.402085876464843750e+02,1.402085876464843750e+02,2.489398866891860962e-01,-8.937022399902343750e+01,-6.427001208066940308e-02,9.632074832916259766e-02,-8.844916343688964844e+00,-6.293310889304848388e-06,1.066266559064388275e-03,-2.049322277307510376e-01,2.981033176183700562e-04,4.917117953300476074e-01,7.913798093795776367e-03,-2.615295909345149994e-02,5.000000000000000000e-01,-1.398086606059223413e-04,0.000000000000000000e+00
3.569011688232421875e-01,6.616050415039062500e+02,1.402085876464843750e+02,1.402085876464843750e+02,2.489398866891860962e-01,-8.937022399902343750e+01,-6.427001208066940308e-02,9.632074832916259766e-02,-8.844916343688964844e+00,-6.293310889304848388e-06,1.066266559064388275e-03,-2.049322277307510376e-01,2.981033176183700562e-04,4.917117953300476074e-01,7.913798093795776367e-03,-2.615295909345149994e-02,5.000000000000000000e-01,-1.398086606059223413e-04,0.000000000000000000e+00
3.569011688232421875e-01,6.616050415039062500e+02,1.402085876464843750e+02,1.402085876464843750e+02,2.489398866891860962e-01,-8.937022399902343750e+01,-6.427001208066940308e-02,9.632074832916259766e-02,-8.844916343688964844e+00,-6.293310889304848388e-06,1.066266559064388275e-03,-2.049322277307510376e-01,2.981033176183700562e-04,4.917117953300476074e-01,7.913798093795776367e-03,-2.615295909345149994e-02,5.000000000000000000e-01,-1.398086606059223413e-04,0.000000000000000000e+00
4.765405654907226562e-01,6.616121215820312500e+02,1.395647735595703125e+02,1.395647735595703125e+02,2.005138546228408813e-01,-8.937230682373046875e+01,-6.408689171075820923e-02,9.587778151035308838e-02,-8.807577133178710938e+00,1.171894564322428778e-05,-3.702516434714198112e-03,3.120979666709899902e-01,1.505545660620555282e-04,7.566241025924682617e-01,1.190700195729732513e-02,-2.983604185283184052e-02,5.000000000000000000e-01,-1.057624831446446478e-04,0.000000000000000000e+00
4.765405654907226562e-01,6.616121215820312500e+02,1.395647735595703125e+02,1.395647735595703125e+02,2.005138546228408813e-01,-8.937230682373046875e+01,-6.408689171075820923e-02,9.587778151035308838e-02,-8.807577133178710938e+00,1.171894564322428778e-05,-3.702516434714198112e-03,3.120979666709899902e-01,1.505545660620555282e-04,7.566241025924682617e-01,1.190700195729732513e-02,-2.983604185283184052e-02,5.000000000000000000e-01,-1.057624831446446478e-04,0.000000000000000000e+00
4.765405654907226562e-01,6.616121215820312500e+02,1.395647735595703125e+02,1.395647735595703125e+02,2.005138546228408813e-01,-8.937230682373046875e+01,-6.408689171075820923e-02,9.587778151035308838e-02,-8.807577133178710938e+00,1.171894564322428778e-05,-3.702516434714198112e-03,3.120979666709899902e-01,1.505545660620555282e-04,7.566241025924682617e-01,1.190700195729732513e-02,-2.983604185283184052e-02,5.000000000000000000e-01,-1.057624831446446478e-04,0.000000000000000000e+00
4.765405654907226562e-01,6.616121215820312500e+02,1.395647735595703125e+02,1.395647735595703125e+02,2.005138546228408813e-01,-8.937230682373046875e+01,-6.408689171075820923e-02,9.587778151035308838e-02,-8.807577133178710938e+00,1.171894564322428778e-05,-3.702516434714198112e-03,3.120979666709899902e-01,1.505545660620555282e-04,7.566241025924682617e-01,1.190700195729732513e-02,-2.983604185283184052e-02,5.000000000000000000e-01,-1.057624831446446478e-04,0.000000000000000000e+00
4.765405654907226562e-01,6.616121215820312500e+02,1.395647735595703125e+02,1.395647735595703125e+02,2.005138546228408813e-01,-8.937230682373046875e+01,-6.408689171075820923e-02,9.587778151035308838e-02,-8.807577133178710938e+00,1.171894564322428778e-05,-3.702516434714198112e-03,3.120979666709899902e-01,1.505545660620555282e-04,7.566241025924682617e-01,1.190700195729732513e-02,-2.983604185283184052e-02,5.000000000000000000e-01,-1.057624831446446478e-04,0.000000000000000000e+00
4.765405654907226562e-01,6.616121215820312500e+02,1.395647735595703125e+02,1.395647735595703125e+02,2.005138546228408813e-01,-8.937230682373046875e+01,-6.408689171075820923e-02,9.587778151035308838e-02,-8.807577133178710938e+00,1.171894564322428778e-05,-3.702516434714198112e-03,3.120979666709899902e-01,1.505545660620555282e-04,7.566241025924682617e-01,1.190700195729732513e-02,-2.983604185283184052e-02,5.000000000000000000e-01,-1.057624831446446478e-04,0.000000000000000000e+00
4.765405654907226562e-01,6.616121215820312500e+02,1.395647735595703125e+02,1.395647735595703125e+02,2.005138546228408813e-01,-8.937230682373046875e+01,-6.408689171075820923e-02,9.587778151035308838e-02,-8.807577133178710938e+00,1.171894564322428778e-05,-3.702516434714198112e-03,3.120979666709899902e-01,1.505545660620555282e-04,7.566241025924682617e-01,1.190700195729732513e-02,-2.983604185283184052e-02,5.000000000000000000e-01,-1.057624831446446478e-04,0.000000000000000000e+00
6.200885772705078125e-01,6.616214599609375000e+02,1.386905059814453125e+02,1.386905059814453125e+02,1.147676631808280945e-01,-8.937511444091796875e+01,-6.372068822383880615e-02,9.465600550174713135e-02,-8.700724601745605469e+00,2.174015025957487524e-05,-8.511271327733993530e-03,7.443678975105285645e-01,6.981081969570368528e-05,8.791273832321166992e-01,1.478803902864456177e-02,-2.843044698238372803e-02,5.000000000000000000e-01,-6.189346458995714784e-05,0.000000000000000000e+00
6.200885772705078125e-01,6.616214599609375000e+02,1.386905059814453125e+02,1.386905059814453125e+02,1.147676631808280945e-01,-8.937511444091796875e+01,-6.372068822383880615e-02,9.465600550174713135e-02,-8.700724601745605469e+00,2.174015025957487524e-05,-8.511271327733993530e-03,7.443678975105285645e-01,6.981081969570368528e-05,8.791273832321166992e-01,1.478803902864456177e-02,-2.843044698238372803e-02,5.000000000000000000e-01,-6.189346458995714784e-05,0.000000000000000000e+00
6.200885772705078125e-01,6.616214599609375000e+02,1.386905059814453125e+02,1.386905059814453125e+02,1.147676631808280945e-01,-8.937511444091796875e+01,-6.372068822383880615e-02,9.465600550174713135e-02,-8.700724601745605469e+00,2.174015025957487524e-05,-8.511271327733993530e-03,7.443678975105285645e-01,6.981081969570368528e-05,8.791273832321166992e-01,1.478803902864456177e-02,-2.843044698238372803e-02,5.000000000000000000e-01,-6.189346458995714784e-05,0.000000000000000000e+00
6.200885772705078125e-01,6.616214599609375000e+02,1.386905059814453125e+02,1.386905059814453125e+02,1.147676631808280945e-01,-8.937511444091796875e+01,-6.372068822383880615e-02,9.465600550174713135e-02,-8.700724601745605469e+00,2.174015025957487524e-05,-8.511271327733993530e-03,7.443678975105285645e-01,6.981081969570368528e-05,8.791273832321166992e-01,1.478803902864456177e-02,-2.843044698238372803e-02,5.000000000000000000e-01,-6.189346458995714784e-05,0.000000000000000000e+00
6.200885772705078125e-01,6.616214599609375000e+02,1.386905059814453125e+02,1.386905059814453125e+02,1.147676631808280945e-01,-8.937511444091796875e+01,-6.372068822383880615e-02,9.465600550174713135e-02,-8.700724601745605469e+00,2.174015025957487524e-05,-8.511271327733993530e-03,7.443678975105285645e-01,6.981081969570368528e-05,8.791273832321166992e-01,1.478803902864456177e-02,-2.843044698238372803e-02,5.000000000000000000e-01,-6.189346458995714784e-05,0.000000000000000000e+00
6.200885772705078125e-01,6.616214599609375000e+02,1.386905059814453125e+02,1.386905059814453125e+02,1.147676631808280945e-01,-8.937511444091796875e+01,-6.372068822383880615e-02,9.465600550174713135e-02,-8.700724601745605469e+00,2.174015025957487524e-05,-8.511271327733993530e-03,7.443678975105285645e-01,6.981081969570368528e-05,8.791273832321166992e-01,1.478803902864456177e-02,-2.843044698238372803e-02,5.000000000000000000e-01,-6.189346458995714784e-05,0.000000000000000000e+00
7.946169376373291016e-01,6.616308593750000000e+02,1.378294982910156250e+02,1.378294982910156250e+02,3.002551011741161346e-02,-8.937718963623046875e+01,-6.350706517696380615e-02,9.319160878658294678e-02,-8.552993774414062500e+00,1.498926121712429449e-05,-8.390594273805618286e-03,8.464574217796325684e-01,-3.868075509672053158e-05,8.087546229362487793e-01,1.252569817006587982e-02,-1.797975413501262665e-02,5.000000000000000000e-01,1.220703143189894035e-05,0.000000000000000000e+00
7.946169376373291016e-01,6.616308593750000000e+02,1.378294982910156250e+02,1.378294982910156250e+02,3.002551011741161346e-02,-8.937718963623046875e+01,-6.350706517696380615e-02,9.319160878658294678e-02,-8.552993774414062500e+00,1.498926121712429449e-05,-8.390594273805618286e-03,8.464574217796325684e-01,-3.868075509672053158e-05,8.087546229362487793e-01,1.252569817006587982e-02,-1.797975413501262665e-02,5.000000000000000000e-01,1.220703143189894035e-05,0.000000000000000000e+00
7.946169376373291016e-01,6.616308593750000000e+02,1.378294982910156250e+02,1.378294982910156250e+02,3.002551011741161346e-02,-8.937718963623046875e+01,-6.350706517696380615e-02,9.319160878658294678e-02,-8.552993774414062500e+00,1.498926121712429449e-05,-8.390594273805618286e-03,8.464574217796325684e-01,-3.868075509672053158e-05,8.087546229362487793e-01,1.252569817006587982e-02,-1.797975413501262665e-02,5.000000000000000000e-01,1.220703143189894035e-05,0.000000000000000000e+00
7.946169376373291016e-01,6.616308593750000000e+02,1.378294982910156250e+02,1.378294982910156250e+02,3.002551011741161346e-02,-8.937718963623046875e+01,-6.350706517696380615e-02,9.319160878658294678e-02,-8.552993774414062500e+00,1.498926121712429449e-05,-8.390594273805618286e-03,8.464574217796325684e-01,-3.868075509672053158e-05,8.087546229362487793e-01,1.252569817006587982e-02,-1.797975413501262665e-02,5.000000000000000000e-01,1.220703143189894035e-05,0.000000000000000000e+00
8.783230781555175781e-01,6.616401977539062500e+02,1.369846191406250000e+02,1.369846191406250000e+02,-4.275698214769363403e-02,-8.937834930419921875e+01,-6.326293200254440308e-02,9.143427014350891113e-02,-8.382120132446289062e+00,3.623358452387037687e-06,-2.099414356052875519e-02,2.041351318359375000e+00,-1.357833825750276446e-04,6.641490459442138672e-01,1.038371864706277847e-02,-9.528469294309616089e-03,5.000000000000000000e-01,5.683898780262097716e-05,0.000000000000000000e+00
8.783230781555175781e-01,6.616401977539062500e+02,1.369846191406250000e+02,1.369846191406250000e+02,-4.275698214769363403e-02,-8.937834930419921875e+01,-6.326293200254440308e-02,9.143427014350891113e-02,-8.382120132446289062e+00,3.623358452387037687e-06,-2.099414356052875519e-02,2.041351318359375000e+00,-1.357833825750276446e-04,6.641490459442138672e-01,1.038371864706277847e-02,-9.528469294309616089e-03,5.000000000000000000e-01,5.683898780262097716e-05,0.000000000000000000e+00
9.483780860900878906e-01,6.616478271484375000e+02,1.362907714843750000e+02,1.362907714843750000e+02,-9.048634022474288940e-02,-8.937956237792968750e+01,-6.271361559629440308e-02,8.935669809579849243e-02,-8.229784011840820312e+00,-2.383853114906742121e-07,-2.965629659593105316e-02,2.174521446228027344e+00,-5.512444840860553086e-05,5.215744376182556152e-01,1.189111918210983276e-02,-1.767911389470100403e-02,5.000000000000000000e-01,1.525878928987367544e-06,0.000000000000000000e+00
9.483780860900878906e-01,6.616478271484375000e+02,1.362907714843750000e+02,1.362907714843750000e+02,-9.048634022474288940e-02,-8.937956237792968750e+01,-6.271361559629440308e-02,8.935669809579849243e-02,-8.229784011840820312e+00,-2.383853114906742121e-07,-2.965629659593105316e-02,2.174521446228027344e+00,-5.512444840860553086e-05,5.215744376182556152e-01,1.189111918210983276e-02,-1.767911389470100403e-02,5.000000000000000000e-01,1.525878928987367544e-06,0.000000000000000000e+00
9.483780860900878906e-01,6.616478271484375000e+02,1.362907714843750000e+02,1.362907714843750000e+02,-9.048634022474288940e-02,-8.937956237792968750e+01,-6.271361559629440308e-02,8.935669809579849243e-02,-8.229784011840820312e+00,-2.383853114906742121e-07,-2.965629659593105316e-02,2.174521446228027344e+00,-5.512444840860553086e-05,5.215744376182556152e-01,1.189111918210983276e-02,-1.767911389470100403e-02,5.000000000000000000e-01,1.525878928987367544e-06,0.000000000000000000e+00
9.483780860900878906e-01,6.616478271484375000e+02,1.362907714843750000e+02,1.362907714843750000e+02,-9.048634022474288940e-02,-8.937956237792968750e+01,-6.271361559629440308e-02,8.935669809579849243e-02,-8.229784011840820312e+00,-2.383853114906742121e-07,-2.965629659593105316e-02,2.174521446228027344e+00,-5.512444840860553086e-05,5.215744376182556152e-01,1.189111918210983276e-02,-1.767911389470100403e-02,5.000000000000000000e-01,1.525878928987367544e-06,0.000000000000000000e+00
9.483780860900878906e-01,6.616540527343750000e+02,1.357195434570312500e+02,1.357195434570312500e+02,-1.204503774642944336e-01,-8.938083648681640625e+01,-6.240843608975410461e-02,8.796473592519760132e-02,-8.116081237792968750e+00,-4.052547865285305306e-06,-1.766471564769744873e-02,1.442946672439575195e+00,-4.840368274017237127e-05,3.290760815143585205e-01,7.215254008769989014e-03,-1.553439535200595856e-02,1.000000000000000000e+00,1.430511474609375000e-05,0.000000000000000000e+00
1.027177095413208008e+00,6.616540527343750000e+02,1.357195434570312500e+02,1.357195434570312500e+02,-1.204503774642944336e-01,-8.938083648681640625e+01,-6.240843608975410461e-02,8.796473592519760132e-02,-8.116081237792968750e+00,-4.052547865285305306e-06,-1.766471564769744873e-02,1.442946672439575195e+00,-4.840368274017237127e-05,3.290760815143585205e-01,7.215254008769989014e-03,-1.553439535200595856e-02,1.000000000000000000e+00,1.430511474609375000e-05,0.000000000000000000e+00
1.027177095413208008e+00,6.616540527343750000e+02,1.357195434570312500e+02,1.357195434570312500e+02,-1.204503774642944336e-01,-8.938083648681640625e+01,-6.240843608975410461e-02,8.796473592519760132e-02,-8.116081237792968750e+00,-4.052547865285305306e-06,-1.766471564769744873e-02,1.442946672439575195e+00,-4.840368274017237127e-05,3.290760815143585205e-01,7.215254008769989014e-03,-1.553439535200595856e-02,1.000000000000000000e+00,1.430511474609375000e-05,0.000000000000000000e+00
1.095043420791625977e+00,6.616610717773437500e+02,1.350821685791015625e+02,1.350821685791015625e+02,-1.219188719987869263e-01,-8.938148498535156250e+01,-6.225587055087089539e-02,8.744238317012786865e-02,-8.081464767456054688e+00,1.010735445561294910e-06,-7.696788292378187180e-03,5.100684165954589844e-01,7.460670894943177700e-05,-1.827048063278198242e-01,-1.279932330362498760e-03,-3.576252842321991920e-03,1.000000000000000000e+00,1.783371044439263642e-05,0.000000000000000000e+00
1.095043420791625977e+00,6.616610717773437500e+02,1.350821685791015625e+02,1.350821685791015625e+02,-1.219188719987869263e-01,-8.938148498535156250e+01,-6.225587055087089539e-02,8.744238317012786865e-02,-8.081464767456054688e+00,1.010735445561294910e-06,-7.696788292378187180e-03,5.100684165954589844e-01,7.460670894943177700e-05,-1.827048063278198242e-01,-1.279932330362498760e-03,-3.576252842321991920e-03,1.000000000000000000e+00,1.783371044439263642e-05,0.000000000000000000e+00
1.095043420791625977e+00,6.616610717773437500e+02,1.350821685791015625e+02,1.350821685791015625e+02,-1.219188719987869263e-01,-8.938148498535156250e+01,-6.225587055087089539e-02,8.744238317012786865e-02,-8.081464767456054688e+00,1.010735445561294910e-06,-7.696788292378187180e-03,5.100684165954589844e-01,7.460670894943177700e-05,-1.827048063278198242e-01,-1.279932330362498760e-03,-3.576252842321991920e-03,1.000000000000000000e+00,1.783371044439263642e-05,0.000000000000000000e+00
1.095043420791625977e+00,6.616610717773437500e+02,1.350821685791015625e+02,1.350821685791015625e+02,-1.219188719987869263e-01,-8.938148498535156250e+01,-6.225587055087089539e-02,8.744238317012786865e-02,-8.081464767456054688e+00,1.010735445561294910e-06,-7.696788292378187180e-03,5.100684165954589844e-01,7.460670894943177700e-05,-1.827048063278198242e-01,-1.279932330362498760e-03,-3.576252842321991920e-03,1.000000000000000000e+00,1.783371044439263642e-05,0.000000000000000000e+00
1.168572425842285156e+00,6.616669311523437500e+02,1.345338287353515625e+02,1.345338287353515625e+02,-1.007384508848190308e-01,-8.938150787353515625e+01,-6.228635832667350769e-02,8.726359903812408447e-02,-8.073119163513183594e+00,6.407821729226270691e-06,-2.431477652862668037e-03,1.135008409619331360e-01,7.340077718254178762e-05,-3.622349798679351807e-01,-5.351255647838115692e-03,5.958550609648227692e-04,1.000000000000000000e+00,1.373290979245211929e-05,0.000000000000000000e+00
1.168572425842285156e+00,6.616669311523437500e+02,1.345338287353515625e+02,1.345338287353515625e+02,-1.007384508848190308e-01,-8.938150787353515625e+01,-6.228635832667350769e-02,8.726359903812408447e-02,-8.073119163513183594e+00,6.407821729226270691e-06,-2.431477652862668037e-03,1.135008409619331360e-01,7.340077718254178762e-05,-3.622349798679351807e-01,-5.351255647838115692e-03,5.958550609648227692e-04,1.000000000000000000e+00,1.373290979245211929e-05,0.000000000000000000e+00
1.168572425842285156e+00,6.616669311523437500e+02,1.345338287353515625e+02,1.345338287353515625e+02,-1.007384508848190308e-01,-8.938150787353515625e+01,-6.228635832667350769e-02,8.726359903812408447e-02,-8.073119163513183594e+00,6.407821729226270691e-06,-2.431477652862668037e-03,1.135008409619331360e-01,7.340077718254178762e-05,-3.622349798679351807e-01,-5.351255647838115692e-03,5.958550609648227692e-04,1.000000000000000000e+00,1.373290979245211929e-05,0.000000000000000000e+00
1.168572425842285156e+00,6.616669311523437500e+02,1.345338287353515625e+02,1.345338287353515625e+02,-1.007384508848190308e-01,-8.938150787353515625e+01,-6.228635832667350769e-02,8.726359903812408447e-02,-8.073119163513183594e+00,6.407821729226270691e-06,-2.431477652862668037e-03,1.135008409619331360e-01,7.340077718254178762e-05,-3.622349798679351807e-01,-5.351255647838115692e-03,5.958550609648227692e-04,1.000000000000000000e+00,1.373290979245211929e-05,0.000000000000000000e+00
1.168572425842285156e+00,6.616732177734375000e+02,1.339404907226562500e+02,1.339404907226562500e+02,-7.299422472715377808e-02,-8.938134765625000000e+01,-6.249999627470970154e-02,8.715571463108062744e-02,-8.061984062194824219e+00,6.779627256037201732e-06,-1.437530154362320900e-03,1.483721733093261719e-01,4.954206815455108881e-06,-3.694338202476501465e-01,-7.101060356944799423e-03,2.889942377805709839e-03,1.000000000000000000e+00,2.050399780273437500e-05,0.000000000000000000e+00
1.243620872497558594e+00,6.616732177734375000e+02,1.339404907226562500e+02,1.339404907226562500e+02,-7.299422472715377808e-02,-8.938134765625000000e+01,-6.249999627470970154e-02,8.715571463108062744e-02,-8.061984062194824219e+00,6.779627256037201732e-06,-1.437530154362320900e-03,1.483721733093261719e-01,4.954206815455108881e-06,-3.694338202476501465e-01,-7.101060356944799423e-03,2.889942377805709839e-03,1.000000000000000000e+00,2.050399780273437500e-05,0.000000000000000000e+00
1.243620872497558594e+00,6.616732177734375000e+02,1.339404907226562500e+02,1.339404907226562500e+02,-7.299422472715377808e-02,-8.938134765625000000e+01,-6.249999627470970154e-02,8.715571463108062744e-02,-8.061984062194824219e+00,6.779627256037201732e-06,-1.437530154362320900e-03,1.483721733093261719e-01,4.954206815455108881e-06,-3.694338202476501465e-01,-7.101060356944799423e-03,2.889942377805709839e-03,1.000000000000000000e+00,2.050399780273437500e-05,0.000000000000000000e+00
1.243620872497558594e+00,6.616732177734375000e+02,1.339404907226562500e+02,1.339404907226562500e+02,-7.299422472715377808e-02,-8.938134765625000000e+01,-6.249999627470970154e-02,8.715571463108062744e-02,-8.061984062194824219e+00,6.779627256037201732e-06,-1.437530154362320900e-03,1.483721733093261719e-01,4.954206815455108881e-06,-3.694338202476501465e-01,-7.101060356944799423e-03,2.889942377805709839e-03,1.000000000000000000e+00,2.050399780273437500e-05,0.000000000000000000e+00
1.312042951583862305e+00,6.616798095703125000e+02,1.333357391357421875e+02,1.333357391357421875e+02,-4.775667935609817505e-02,-8.938070678710937500e+01,-6.292723119258880615e-02,8.730465918779373169e-02,-8.051095008850097656e+00,3.127582203887868673e-06,2.176849404349923134e-03,1.591453254222869873e-01,-5.337524271453730762e-05,-3.089039921760559082e-01,-8.578250184655189514e-03,1.017692498862743378e-02,1.000000000000000000e+00,6.189346458995714784e-05,0.000000000000000000e+00
1.312042951583862305e+00,6.616798095703125000e+02,1.333357391357421875e+02,1.333357391357421875e+02,-4.775667935609817505e-02,-8.938070678710937500e+01,-6.292723119258880615e-02,8.730465918779373169e-02,-8.051095008850097656e+00,3.127582203887868673e-06,2.176849404349923134e-03,1.591453254222869873e-01,-5.337524271453730762e-05,-3.089039921760559082e-01,-8.578250184655189514e-03,1.017692498862743378e-02,1.000000000000000000e+00,6.189346458995714784e-05,0.000000000000000000e+00
1.312042951583862305e+00,6.616856689453125000e+02,1.327851409912109375e+02,1.327851409912109375e+02,-2.967034094035625458e-02,-8.938014984130859375e+01,-6.307981908321380615e-02,8.715724945068359375e-02,-8.041017532348632812e+00,2.727135097302380018e-06,-2.073669806122779846e-03,1.417637616395950317e-01,-5.633244199998443946e-06,-2.396899014711380005e-01,-4.397995769977569580e-03,7.281521335244178772e-03,1.000000000000000000e+00,2.918243444582913071e-05,0.000000000000000000e+00
1.383129358291625977e+00,6.616856689453125000e+02,1.327851409912109375e+02,1.327851409912109375e+02,-2.967034094035625458e-02,-8.938014984130859375e+01,-6.307981908321380615e-02,8.715724945068359375e-02,-8.041017532348632812e+00,2.727135097302380018e-06,-2.073669806122779846e-03,1.417637616395950317e-01,-5.633244199998443946e-06,-2.396899014711380005e-01,-4.397995769977569580e-03,7.281521335244178772e-03,1.000000000000000000e+00,2.918243444582913071e-05,0.000000000000000000e+00
1.383129358291625977e+00,6.616856689453125000e+02,1.327851409912109375e+02,1.327851409912109375e+02,-2.967034094035625458e-02,-8.938014984130859375e+01,-6.307981908321380615e-02,8.715724945068359375e-02,-8.041017532348632812e+00,2.727135097302380018e-06,-2.073669806122779846e-03,1.417637616395950317e-01,-5.633244199998443946e-06,-2.396899014711380005e-01,-4.397995769977569580e-03,7.281521335244178772e-03,1.000000000000000000e+00,2.918243444582913071e-05,0.000000000000000000e+00
1.450951814651489258e+00,6.616919555664062500e+02,1.322138671875000000e+02,1.322138671875000000e+02,-1.513569802045822144e-02,-8.937963867187500000e+01,-6.323241442441940308e-02,8.714667707681655884e-02,-8.030624389648437500e+00,1.430308202543528751e-06,-1.558830845169723034e-04,1.532404422760009766e-01,-1.912090738187544048e-05,-1.808006465435028076e-01,-4.220463335514068604e-03,7.698420900851488113e-03,1.000000000000000000e+00,3.843307422357611358e-05,0.000000000000000000e+00
1.450951814651489258e+00,6.616919555664062500e+02,1.322138671875000000e+02,1.322138671875000000e+02,-1.513569802045822144e-02,-8.937963867187500000e+01,-6.323241442441940308e-02,8.714667707681655884e-02,-8.030624389648437500e+00,1.430308202543528751e-06,-1.558830845169723034e-04,1.532404422760009766e-01,-1.912090738187544048e-05,-1.808006465435028076e-01,-4.220463335514068604e-03,7.698420900851488113e-03,1.000000000000000000e+00,3.843307422357611358e-05,0.000000000000000000e+00
1.450951814651489258e+00,6.616919555664062500e+02,1.322138671875000000e+02,1.322138671875000000e+02,-1.513569802045822144e-02,-8.937963867187500000e+01,-6.323241442441940308e-02,8.714667707681655884e-02,-8.030624389648437500e+00,1.430308202543528751e-06,-1.558830845169723034e-04,1.532404422760009766e-01,-1.912090738187544048e-05,-1.808006465435028076e-01,-4.220463335514068604e-03,7.698420900851488113e-03,1.000000000000000000e+00,3.843307422357611358e-05,0.000000000000000000e+00
1.527701377868652344e+00,6.616978149414062500e+02,1.316695251464843750e+02,1.316695251464843750e+02,-4.910905845463275909e-03,-8.937914276123046875e+01,-6.332395970821380615e-02,8.707656711339950562e-02,-8.020706176757812500e+00,7.437650424435560126e-07,-9.134900756180286407e-04,1.292282640933990479e-01,-8.945238732849247754e-06,-1.329611539840698242e-01,-2.754861954599618912e-03,6.602475885301828384e-03,1.000000000000000000e+00,3.023147655767388642e-05,0.000000000000000000e+00
1.527701377868652344e+00,6.616978149414062500e+02,1.316695251464843750e+02,1.316695251464843750e+02,-4.910905845463275909e-03,-8.937914276123046875e+01,-6.332395970821380615e-02,8.707656711339950562e-02,-8.020706176757812500e+00,7.437650424435560126e-07,-9.134900756180286407e-04,1.292282640933990479e-01,-8.945238732849247754e-06,-1.329611539840698242e-01,-2.754861954599618912e-03,6.602475885301828384e-03,1.000000000000000000e+00,3.023147655767388642e-05,0.000000000000000000e+00
1.527701377868652344e+00,6.616978149414062500e+02,1.316695251464843750e+02,1.316695251464843750e+02,-4.910905845463275909e-03,-8.937914276123046875e+01,-6.332395970821380615e-02,8.707656711339950562e-02,-8.020706176757812500e+00,7.437650424435560126e-07,-9.134900756180286407e-04,1.292282640933990479e-01,-8.945238732849247754e-06,-1.329611539840698242e-01,-2.754861954599618912e-03,6.602475885301828384e-03,1.000000000000000000e+00,3.023147655767388642e-05,0.000000000000000000e+00
1.600134611129760742e+00,6.617044677734375000e+02,1.310535736083984375e+02,1.310535736083984375e+02,8.339660242199897766e-03,-8.937850952148437500e+01,-6.344603747129440308e-02,8.759179711341857910e-02,-8.058705329895019531e+00,-2.574525410636852030e-07,7.113171275705099106e-03,-5.246093869209289551e-01,-1.382262689730850980e-05,-4.067034423351287842e-01,-5.801085848361253738e-03,1.545810792595148087e-02,1.000000000000000000e+00,3.614425804698839784e-05,0.000000000000000000e+00
1.600134611129760742e+00,6.617044677734375000e+02,1.310535736083984375e+02,1.310535736083984375e+02,8.339660242199897766e-03,-8.937850952148437500e+01,-6.344603747129440308e-02,8.759179711341857910e-02,-8.058705329895019531e+00,-2.574525410636852030e-07,7.113171275705099106e-03,-5.246093869209289551e-01,-1.382262689730850980e-05,-4.067034423351287842e-01,-5.801085848361253738e-03,1.545810792595148087e-02,1.000000000000000000e+00,3.614425804698839784e-05,0.000000000000000000e+00
1.600134611129760742e+00,6.617044677734375000e+02,1.310535736083984375e+02,1.310535736083984375e+02,8.339660242199897766e-03,-8.937850952148437500e+01,-6.344603747129440308e-02,8.759179711341857910e-02,-8.058705329895019531e+00,-2.574525410636852030e-07,7.113171275705099106e-03,-5.246093869209289551e-01,-1.382262689730850980e-05,-4.067034423351287842e-01,-5.801085848361253738e-03,1.545810792595148087e-02,1.000000000000000000e+00,3.614425804698839784e-05,0.000000000000000000e+00
1.600134611129760742e+00,6.617044677734375000e+02,1.310535736083984375e+02,1.310535736083984375e+02,8.339660242199897766e-03,-8.937850952148437500e+01,-6.344603747129440308e-02,8.759179711341857910e-02,-8.058705329895019531e+00,-2.574525410636852030e-07,7.113171275705099106e-03,-5.246093869209289551e-01,-1.382262689730850980e-05,-4.067034423351287842e-01,-5.801085848361253738e-03,1.545810792595148087e-02,1.000000000000000000e+00,3.614425804698839784e-05,0.000000000000000000e+00
1.600134611129760742e+00,6.617044677734375000e+02,1.310535736083984375e+02,1.310535736083984375e+02,8.339660242199897766e-03,-8.937850952148437500e+01,-6.344603747129440308e-02,8.759179711341857910e-02,-8.058705329895019531e+00,-2.574525410636852030e-07,7.113171275705099106e-03,-5.246093869209289551e-01,-1.382262689730850980e-05,-4.067034423351287842e-01,-5.801085848361253738e-03,1.545810792595148087e-02,1.000000000000000000e+00,3.614425804698839784e-05,0.000000000000000000e+00
1.600134611129760742e+00,6.617108154296875000e+02,1.304592590332031250e+02,1.304592590332031250e+02,7.543943822383880615e-02,-8.937634277343750000e+01,-6.369017809629440308e-02,9.030674397945404053e-02,-8.295235633850097656e+00,-5.034670721215661615e-06,2.353071235120296478e-02,-2.050031661987304688e+00,-4.140462260693311691e-05,-1.170735359191894531e+00,-1.784587465226650238e-02,3.735732287168502808e-02,1.000000000000000000e+00,2.918243444582913071e-05,0.000000000000000000e+00
1.715513467788696289e+00,6.617108154296875000e+02,1.304592590332031250e+02,1.304592590332031250e+02,7.543943822383880615e-02,-8.937634277343750000e+01,-6.369017809629440308e-02,9.030674397945404053e-02,-8.295235633850097656e+00,-5.034670721215661615e-06,2.353071235120296478e-02,-2.050031661987304688e+00,-4.140462260693311691e-05,-1.170735359191894531e+00,-1.784587465226650238e-02,3.735732287168502808e-02,1.000000000000000000e+00,2.918243444582913071e-05,0.000000000000000000e+00
1.715513467788696289e+00,6.617108154296875000e+02,1.304592590332031250e+02,1.304592590332031250e+02,7.543943822383880615e-02,-8.937634277343750000e+01,-6.369017809629440308e-02,9.030674397945404053e-02,-8.295235633850097656e+00,-5.034670721215661615e-06,2.353071235120296478e-02,-2.050031661987304688e+00,-4.140462260693311691e-05,-1.170735359191894531e+00,-1.784587465226650238e-02,3.735732287168502808e-02,1.000000000000000000e+00,2.918243444582913071e-05,0.000000000000000000e+00
1.715513467788696289e+00,6.617108154296875000e+02,1.304592590332031250e+02,1.304592590332031250e+02,7.543943822383880615e-02,-8.937634277343750000e+01,-6.369017809629440308e-02,9.030674397945404053e-02,-8.295235633850097656e+00,-5.034670721215661615e-06,2.353071235120296478e-02,-2.050031661987304688e+00,-4.140462260693311691e-05,-1.170735359191894531e+00,-1.784587465226650238e-02,3.735732287168502808e-02,1.000000000000000000e+00,2.918243444582913071e-05,0.000000000000000000e+00
1.813115119934082031e+00,6.617201538085937500e+02,1.296070251464843750e+02,1.296070251464843750e+02,2.102263867855072021e-01,-8.937200164794921875e+01,-6.439208239316940308e-02,9.475769847631454468e-02,-8.671360015869140625e+00,-2.774729728116653860e-05,4.560327157378196716e-02,-3.853668212890625000e+00,-2.327073889318853617e-04,-1.353840589523315430e+00,-2.409535087645053864e-02,4.688943177461624146e-02,1.000000000000000000e+00,6.866454896226059645e-06,0.000000000000000000e+00
1.813115119934082031e+00,6.617201538085937500e+02,1.296070251464843750e+02,1.296070251464843750e+02,2.102263867855072021e-01,-8.937200164794921875e+01,-6.439208239316940308e-02,9.475769847631454468e-02,-8.671360015869140625e+00,-2.774729728116653860e-05,4.560327157378196716e-02,-3.853668212890625000e+00,-2.327073889318853617e-04,-1.353840589523315430e+00,-2.409535087645053864e-02,4.688943177461624146e-02,1.000000000000000000e+00,6.866454896226059645e-06,0.000000000000000000e+00
1.813115119934082031e+00,6.617201538085937500e+02,1.296070251464843750e+02,1.296070251464843750e+02,2.102263867855072021e-01,-8.937200164794921875e+01,-6.439208239316940308e-02,9.475769847631454468e-02,-8.671360015869140625e+00,-2.774729728116653860e-05,4.560327157378196716e-02,-3.853668212890625000e+00,-2.327073889318853617e-04,-1.353840589523315430e+00,-2.409535087645053864e-02,4.688943177461624146e-02,1.000000000000000000e+00,6.866454896226059645e-06,0.000000000000000000e+00
1.813115119934082031e+00,6.617201538085937500e+02,1.296070251464843750e+02,1.296070251464843750e+02,2.102263867855072021e-01,-8.937200164794921875e+01,-6.439208239316940308e-02,9.475769847631454468e-02,-8.671360015869140625e+00,-2.774729728116653860e-05,4.560327157378196716e-02,-3.853668212890625000e+00,-2.327073889318853617e-04,-1.353840589523315430e+00,-2.409535087645053864e-02,4.688943177461624146e-02,1.000000000000000000e+00,6.866454896226059645e-06,0.000000000000000000e+00
1.896134853363037109e+00,6.617296142578125000e+02,1.287387542724609375e+02,1.287387542724609375e+02,3.228425383567810059e-01,-8.936853027343750000e+01,-6.488034129142761230e-02,9.859916567802429199e-02,-9.025726318359375000e+00,-5.059372415416873991e-05,4.627173766493797302e-02,-4.268458843231201172e+00,-2.751927240751683712e-04,-9.170989394187927246e-01,-1.572740636765956879e-02,2.906253002583980560e-02,5.000000000000000000e-01,-9.002685692394152284e-05,0.000000000000000000e+00
1.896134853363037109e+00,6.617296142578125000e+02,1.287387542724609375e+02,1.287387542724609375e+02,3.228425383567810059e-01,-8.936853027343750000e+01,-6.488034129142761230e-02,9.859916567802429199e-02,-9.025726318359375000e+00,-5.059372415416873991e-05,4.627173766493797302e-02,-4.268458843231201172e+00,-2.751927240751683712e-04,-9.170989394187927246e-01,-1.572740636765956879e-02,2.906253002583980560e-02,5.000000000000000000e-01,-9.002685692394152284e-05,0.000000000000000000e+00
1.896134853363037109e+00,6.617296142578125000e+02,1.287387542724609375e+02,1.287387542724609375e+02,3.228425383567810059e-01,-8.936853027343750000e+01,-6.488034129142761230e-02,9.859916567802429199e-02,-9.025726318359375000e+00,-5.059372415416873991e-05,4.627173766493797302e-02,-4.268458843231201172e+00,-2.751927240751683712e-04,-9.170989394187927246e-01,-1.572740636765956879e-02,2.906253002583980560e-02,5.000000000000000000e-01,-9.002685692394152284e-05,0.000000000000000000e+00
1.896134853363037109e+00,6.617296142578125000e+02,1.287387542724609375e+02,1.287387542724609375e+02,3.228425383567810059e-01,-8.936853027343750000e+01,-6.488034129142761230e-02,9.859916567802429199e-02,-9.025726318359375000e+00,-5.059372415416873991e-05,4.627173766493797302e-02,-4.268458843231201172e+00,-2.751927240751683712e-04,-9.170989394187927246e-01,-1.572740636765956879e-02,2.906253002583980560e-02,5.000000000000000000e-01,-9.002685692394152284e-05,0.000000000000000000e+00
1.896134853363037109e+00,6.617296142578125000e+02,1.287387542724609375e+02,1.287387542724609375e+02,3.228425383567810059e-01,-8.936853027343750000e+01,-6.488034129142761230e-02,9.859916567802429199e-02,-9.025726318359375000e+00,-5.059372415416873991e-05,4.627173766493797302e-02,-4.268458843231201172e+00,-2.751927240751683712e-04,-9.170989394187927246e-01,-1.572740636765956879e-02,2.906253002583980560e-02,5.000000000000000000e-01,-9.002685692394152284e-05,0.000000000000000000e+00
1.896134853363037109e+00,6.617296142578125000e+02,1.287387542724609375e+02,1.287387542724609375e+02,3.228425383567810059e-01,-8.936853027343750000e+01,-6.488034129142761230e-02,9.859916567802429199e-02,-9.025726318359375000e+00,-5.059372415416873991e-05,4.627173766493797302e-02,-4.268458843231201172e+00,-2.751927240751683712e-04,-9.170989394187927246e-01,-1.572740636765956879e-02,2.906253002583980560e-02,5.000000000000000000e-01,-9.002685692394152284e-05,0.000000000000000000e+00
1.896134853363037109e+00,6.617296142578125000e+02,1.287387542724609375e+02,1.287387542724609375e+02,3.228425383567810059e-01,-8.936853027343750000e+01,-6.488034129142761230e-02,9.859916567802429199e-02,-9.025726318359375000e+00,-5.059372415416873991e-05,4.627173766493797302e-02,-4.268458843231201172e+00,-2.751927240751683712e-04,-9.170989394187927246e-01,-1.572740636765956879e-02,2.906253002583980560e-02,5.000000000000000000e-01,-9.002685692394152284e-05,0.000000000000000000e+00
2.195794820785522461e+00,6.617570190429687500e+02,1.262186431884765625e+02,1.262186431884765625e+02,3.181843459606170654e-01,-8.937021636962890625e+01,-6.448360532522201538e-02,1.028235480189323425e-01,-9.464378356933593750e+00,1.527563108538743109e-05,8.987816050648689270e-03,-1.456074476242065430e+00,4.879902407992631197e-04,5.451514124870300293e-01,1.191076077520847321e-02,-3.029567562043666840e-02,5.000000000000000000e-01,-1.886367826955392957e-04,0.000000000000000000e+00
2.195794820785522461e+00,6.617570190429687500e+02,1.262186431884765625e+02,1.262186431884765625e+02,3.181843459606170654e-01,-8.937021636962890625e+01,-6.448360532522201538e-02,1.028235480189323425e-01,-9.464378356933593750e+00,1.527563108538743109e-05,8.987816050648689270e-03,-1.456074476242065430e+00,4.879902407992631197e-04,5.451514124870300293e-01,1.191076077520847321e-02,-3.029567562043666840e-02,5.000000000000000000e-01,-1.886367826955392957e-04,0.000000000000000000e+00
2.195794820785522461e+00,6.617570190429687500e+02,1.262186431884765625e+02,1.262186431884765625e+02,3.181843459606170654e-01,-8.937021636962890625e+01,-6.448360532522201538e-02,1.028235480189323425e-01,-9.464378356933593750e+00,1.527563108538743109e-05,8.987816050648689270e-03,-1.456074476242065430e+00,4.879902407992631197e-04,5.451514124870300293e-01,1.191076077520847321e-02,-3.029567562043666840e-02,5.000000000000000000e-01,-1.886367826955392957e-04,0.000000000000000000e+00
2.195794820785522461e+00,6.617570190429687500e+02,1.262186431884765625e+02,1.262186431884765625e+02,3.181843459606170654e-01,-8.937021636962890625e+01,-6.448360532522201538e-02,1.028235480189323425e-01,-9.464378356933593750e+00,1.527563108538743109e-05,8.987816050648689270e-03,-1.456074476242065430e+00,4.879902407992631197e-04,5.451514124870300293e-01,1.191076077520847321e-02,-3.029567562043666840e-02,5.000000000000000000e-01,-1.886367826955392957e-04,0.000000000000000000e+00
2.195794820785522461e+00,6.617570190429687500e+02,1.262186431884765625e+02,1.262186431884765625e+02,3.181843459606170654e-01,-8.937021636962890625e+01,-6.448360532522201538e-02,1.028235480189323425e-01,-9.464378356933593750e+00,1.527563108538743109e-05,8.987816050648689270e-03,-1.456074476242065430e+00,4.879902407992631197e-04,5.451514124870300293e-01,1.191076077520847321e-02,-3.029567562043666840e-02,5.000000000000000000e-01,-1.886367826955392957e-04,0.000000000000000000e+00
2.195794820785522461e+00,6.617570190429687500e+02,1.262186431884765625e+02,1.262186431884765625e+02,3.181843459606170654e-01,-8.937021636962890625e+01,-6.448360532522201538e-02,1.028235480189323425e-01,-9.464378356933593750e+00,1.527563108538743109e-05,8.987816050648689270e-03,-1.456074476242065430e+00,4.879902407992631197e-04,5.451514124870300293e-01,1.191076077520847321e-02,-3.029567562043666840e-02,5.000000000000000000e-01,-1.886367826955392957e-04,0.000000000000000000e+00
2.195794820785522461e+00,6.617570190429687500e+02,1.262186431884765625e+02,1.262186431884765625e+02,3.181843459606170654e-01,-8.937021636962890625e+01,-6.448360532522201538e-02,1.028235480189323425e-01,-9.464378356933593750e+00,1.527563108538743109e-05,8.987816050648689270e-03,-1.456074476242065430e+00,4.879902407992631197e-04,5.451514124870300293e-01,1.191076077520847321e-02,-3.029567562043666840e-02,5.000000000000000000e-01,-1.886367826955392957e-04,0.000000000000000000e+00
2.195794820785522461e+00,6.617570190429687500e+02,1.262186431884765625e+02,1.262186431884765625e+02,3.181843459606170654e-01,-8.937021636962890625e+01,-6.448360532522201538e-02,1.028235480189323425e-01,-9.464378356933593750e+00,1.527563108538743109e-05,8.987816050648689270e-03,-1.456074476242065430e+00,4.879902407992631197e-04,5.451514124870300293e-01,1.191076077520847321e-02,-3.029567562043666840e-02,5.000000000000000000e-01,-1.886367826955392957e-04,0.000000000000000000e+00
2.195794820785522461e+00,6.617570190429687500e+02,1.262186431884765625e+02,1.262186431884765625e+02,3.181843459606170654e-01,-8.937021636962890625e+01,-6.448360532522201538e-02,1.028235480189323425e-01,-9.464378356933593750e+00,1.527563108538743109e-05,8.987816050648689270e-03,-1.456074476242065430e+00,4.879902407992631197e-04,5.451514124870300293e-01,1.191076077520847321e-02,-3.029567562043666840e-02,5.000000000000000000e-01,-1.886367826955392957e-04,0.000000000000000000e+00
2.195794820785522461e+00,6.617570190429687500e+02,1.262186431884765625e+02,1.262186431884765625e+02,3.181843459606170654e-01,-8.937021636962890625e+01,-6.448360532522201538e-02,1.028235480189323425e-01,-9.464378356933593750e+00,1.527563108538743109e-05,8.987816050648689270e-03,-1.456074476242065430e+00,4.879902407992631197e-04,5.451514124870300293e-01,1.191076077520847321e-02,-3.029567562043666840e-02,5.000000000000000000e-01,-1.886367826955392957e-04,0.000000000000000000e+00
2.374083757400512695e+00,6.617623291015625000e+02,1.257155914306640625e+02,1.257155914306640625e+02,2.875441312789916992e-01,-8.937197875976562500e+01,-6.420895457267761230e-02,1.029745340347290039e-01,-9.493927001953125000e+00,2.328563641640357673e-05,8.468613959848880768e-04,-1.657345890998840332e-01,4.492710286285728216e-05,5.959778428077697754e-01,1.205513346940279007e-02,-3.336923196911811829e-02,5.000000000000000000e-01,-1.726150512695312500e-04,0.000000000000000000e+00
2.374083757400512695e+00,6.617623291015625000e+02,1.257155914306640625e+02,1.257155914306640625e+02,2.875441312789916992e-01,-8.937197875976562500e+01,-6.420895457267761230e-02,1.029745340347290039e-01,-9.493927001953125000e+00,2.328563641640357673e-05,8.468613959848880768e-04,-1.657345890998840332e-01,4.492710286285728216e-05,5.959778428077697754e-01,1.205513346940279007e-02,-3.336923196911811829e-02,5.000000000000000000e-01,-1.726150512695312500e-04,0.000000000000000000e+00
2.374083757400512695e+00,6.617623291015625000e+02,1.257155914306640625e+02,1.257155914306640625e+02,2.875441312789916992e-01,-8.937197875976562500e+01,-6.420895457267761230e-02,1.029745340347290039e-01,-9.493927001953125000e+00,2.328563641640357673e-05,8.468613959848880768e-04,-1.657345890998840332e-01,4.492710286285728216e-05,5.959778428077697754e-01,1.205513346940279007e-02,-3.336923196911811829e-02,5.000000000000000000e-01,-1.726150512695312500e-04,0.000000000000000000e+00
2.447860002517700195e+00,6.617726440429687500e+02,1.247645263671875000e+02,1.247645263671875000e+02,2.260246127843856812e-01,-8.937463378906250000e+01,-6.399536877870559692e-02,1.033635884523391724e-01,-9.527643203735351562e+00,2.894872704928275198e-05,5.273437593132257462e-03,-4.570062160491943359e-01,7.676035602344200015e-05,5.898437500000000000e-01,9.696288965642452240e-03,-2.417620271444320679e-02,5.000000000000000000e-01,-1.026153549901209772e-04,0.000000000000000000e+00
2.447860002517700195e+00,6.617726440429687500e+02,1.247645263671875000e+02,1.247645263671875000e+02,2.260246127843856812e-01,-8.937463378906250000e+01,-6.399536877870559692e-02,1.033635884523391724e-01,-9.527643203735351562e+00,2.894872704928275198e-05,5.273437593132257462e-03,-4.570062160491943359e-01,7.676035602344200015e-05,5.898437500000000000e-01,9.696288965642452240e-03,-2.417620271444320679e-02,5.000000000000000000e-01,-1.026153549901209772e-04,0.000000000000000000e+00
2.500878810882568359e+00,6.617804565429687500e+02,1.240613250732421875e+02,1.240613250732421875e+02,1.864504963159561157e-01,-8.937579345703125000e+01,-6.399536877870559692e-02,1.037118807435035706e-01,-9.540521621704101562e+00,2.105402018059976399e-05,6.569221150130033493e-03,-2.429028153419494629e-01,-1.489038841100409627e-04,5.090488195419311523e-01,5.790584255009889603e-03,-1.165950205177068710e-02,5.000000000000000000e-01,-3.156661841785535216e-05,0.000000000000000000e+00
2.500878810882568359e+00,6.617804565429687500e+02,1.240613250732421875e+02,1.240613250732421875e+02,1.864504963159561157e-01,-8.937579345703125000e+01,-6.399536877870559692e-02,1.037118807435035706e-01,-9.540521621704101562e+00,2.105402018059976399e-05,6.569221150130033493e-03,-2.429028153419494629e-01,-1.489038841100409627e-04,5.090488195419311523e-01,5.790584255009889603e-03,-1.165950205177068710e-02,5.000000000000000000e-01,-3.156661841785535216e-05,0.000000000000000000e+00
2.500878810882568359e+00,6.617804565429687500e+02,1.240613250732421875e+02,1.240613250732421875e+02,1.864504963159561157e-01,-8.937579345703125000e+01,-6.399536877870559692e-02,1.037118807435035706e-01,-9.540521621704101562e+00,2.105402018059976399e-05,6.569221150130033493e-03,-2.429028153419494629e-01,-1.489038841100409627e-04,5.090488195419311523e-01,5.790584255009889603e-03,-1.165950205177068710e-02,5.000000000000000000e-01,-3.156661841785535216e-05,0.000000000000000000e+00
2.560195446014404297e+00,6.617861328125000000e+02,1.235555114746093750e+02,1.235555114746093750e+02,1.617730259895324707e-01,-8.937635803222656250e+01,-6.387326866388320923e-02,1.036507710814476013e-01,-9.545954704284667969e+00,2.093991133733652532e-05,-1.030228100717067719e-03,-9.159458428621292114e-02,-1.923724084917921573e-06,4.453701078891754150e-01,7.989177480340003967e-03,-1.108338404446840286e-02,5.000000000000000000e-01,-5.130767749506048858e-05,0.000000000000000000e+00
2.560195446014404297e+00,6.617861328125000000e+02,1.235555114746093750e+02,1.235555114746093750e+02,1.617730259895324707e-01,-8.937635803222656250e+01,-6.387326866388320923e-02,1.036507710814476013e-01,-9.545954704284667969e+00,2.093991133733652532e-05,-1.030228100717067719e-03,-9.159458428621292114e-02,-1.923724084917921573e-06,4.453701078891754150e-01,7.989177480340003967e-03,-1.108338404446840286e-02,5.000000000000000000e-01,-5.130767749506048858e-05,0.000000000000000000e+00
2.618730545043945312e+00,6.617924194335937500e+02,1.229893417358398438e+02,1.229893417358398438e+02,1.373072862625122070e-01,-8.937728881835937500e+01,-6.350707262754440308e-02,1.033346429467201233e-01,-9.549555778503417969e+00,1.625773620617110282e-05,-5.400659516453742981e-03,-6.151991337537765503e-02,-7.998918590601533651e-05,3.858160972595214844e-01,1.036496087908744812e-02,-1.753184013068675995e-02,5.000000000000000000e-01,-9.555816359352320433e-05,0.000000000000000000e+00
2.618730545043945312e+00,6.617924194335937500e+02,1.229893417358398438e+02,1.229893417358398438e+02,1.373072862625122070e-01,-8.937728881835937500e+01,-6.350707262754440308e-02,1.033346429467201233e-01,-9.549555778503417969e+00,1.625773620617110282e-05,-5.400659516453742981e-03,-6.151991337537765503e-02,-7.998918590601533651e-05,3.858160972595214844e-01,1.036496087908744812e-02,-1.753184013068675995e-02,5.000000000000000000e-01,-9.555816359352320433e-05,0.000000000000000000e+00
2.618730545043945312e+00,6.617983398437500000e+02,1.224304428100585938e+02,1.224304428100585938e+02,1.172060370445251465e-01,-8.937841033935546875e+01,-6.323240697383880615e-02,1.031440496444702148e-01,-9.551305770874023438e+00,1.143288227467564866e-05,-3.252249676734209061e-03,-2.986155450344085693e-02,-8.233043627114966512e-05,3.192769885063171387e-01,7.679878734052181244e-03,-1.975870318710803986e-02,5.000000000000000000e-01,-8.964538574218750000e-05,0.000000000000000000e+00
2.677334070205688477e+00,6.617983398437500000e+02,1.224304428100585938e+02,1.224304428100585938e+02,1.172060370445251465e-01,-8.937841033935546875e+01,-6.323240697383880615e-02,1.031440496444702148e-01,-9.551305770874023438e+00,1.143288227467564866e-05,-3.252249676734209061e-03,-2.986155450344085693e-02,-8.233043627114966512e-05,3.192769885063171387e-01,7.679878734052181244e-03,-1.975870318710803986e-02,5.000000000000000000e-01,-8.964538574218750000e-05,0.000000000000000000e+00
2.677334070205688477e+00,6.617983398437500000e+02,1.224304428100585938e+02,1.224304428100585938e+02,1.172060370445251465e-01,-8.937841033935546875e+01,-6.323240697383880615e-02,1.031440496444702148e-01,-9.551305770874023438e+00,1.143288227467564866e-05,-3.252249676734209061e-03,-2.986155450344085693e-02,-8.233043627114966512e-05,3.192769885063171387e-01,7.679878734052181244e-03,-1.975870318710803986e-02,5.000000000000000000e-01,-8.964538574218750000e-05,0.000000000000000000e+00
2.677334070205688477e+00,6.617983398437500000e+02,1.224304428100585938e+02,1.224304428100585938e+02,1.172060370445251465e-01,-8.937841033935546875e+01,-6.323240697383880615e-02,1.031440496444702148e-01,-9.551305770874023438e+00,1.143288227467564866e-05,-3.252249676734209061e-03,-2.986155450344085693e-02,-8.233043627114966512e-05,3.192769885063171387e-01,7.679878734052181244e-03,-1.975870318710803986e-02,5.000000000000000000e-01,-8.964538574218750000e-05,0.000000000000000000e+00
2.755024909973144531e+00,6.618042602539062500e+02,1.218708190917968750e+02,1.218708190917968750e+02,1.006769835948944092e-01,-8.937951660156250000e+01,-6.307981908321380615e-02,1.030278652906417847e-01,-9.551852226257324219e+00,1.010746655083494261e-05,-1.495470409281551838e-03,-7.033717352896928787e-03,-1.706012881186325103e-05,2.605178654193878174e-01,4.949557594954967499e-03,-1.853679306805133820e-02,5.000000000000000000e-01,-7.324219041038304567e-05,0.000000000000000000e+00
2.755024909973144531e+00,6.618042602539062500e+02,1.218708190917968750e+02,1.218708190917968750e+02,1.006769835948944092e-01,-8.937951660156250000e+01,-6.307981908321380615e-02,1.030278652906417847e-01,-9.551852226257324219e+00,1.010746655083494261e-05,-1.495470409281551838e-03,-7.033717352896928787e-03,-1.706012881186325103e-05,2.605178654193878174e-01,4.949557594954967499e-03,-1.853679306805133820e-02,5.000000000000000000e-01,-7.324219041038304567e-05,0.000000000000000000e+00
2.755024909973144531e+00,6.618042602539062500e+02,1.218708190917968750e+02,1.218708190917968750e+02,1.006769835948944092e-01,-8.937951660156250000e+01,-6.307981908321380615e-02,1.030278652906417847e-01,-9.551852226257324219e+00,1.010746655083494261e-05,-1.495470409281551838e-03,-7.033717352896928787e-03,-1.706012881186325103e-05,2.605178654193878174e-01,4.949557594954967499e-03,-1.853679306805133820e-02,5.000000000000000000e-01,-7.324219041038304567e-05,0.000000000000000000e+00
2.830169916152954102e+00,6.618125000000000000e+02,1.211288833618164062e+02,1.211288833618164062e+02,8.343758434057235718e-02,-8.938035583496093750e+01,-6.320189684629440308e-02,1.031807586550712585e-01,-9.551379203796386719e+00,5.644874818244716153e-06,2.034644363448023796e-03,6.294795311987400055e-03,-5.938640242675319314e-05,1.956793814897537231e-01,5.418341024778783321e-04,-7.871801033616065979e-03,5.000000000000000000e-01,-1.420974695065524429e-05,0.000000000000000000e+00
2.830169916152954102e+00,6.618125000000000000e+02,1.211288833618164062e+02,1.211288833618164062e+02,8.343758434057235718e-02,-8.938035583496093750e+01,-6.320189684629440308e-02,1.031807586550712585e-01,-9.551379203796386719e+00,5.644874818244716153e-06,2.034644363448023796e-03,6.294795311987400055e-03,-5.938640242675319314e-05,1.956793814897537231e-01,5.418341024778783321e-04,-7.871801033616065979e-03,5.000000000000000000e-01,-1.420974695065524429e-05,0.000000000000000000e+00
2.830169916152954102e+00,6.618125000000000000e+02,1.211288833618164062e+02,1.211288833618164062e+02,8.343758434057235718e-02,-8.938035583496093750e+01,-6.320189684629440308e-02,1.031807586550712585e-01,-9.551379203796386719e+00,5.644874818244716153e-06,2.034644363448023796e-03,6.294795311987400055e-03,-5.938640242675319314e-05,1.956793814897537231e-01,5.418341024778783321e-04,-7.871801033616065979e-03,5.000000000000000000e-01,-1.420974695065524429e-05,0.000000000000000000e+00
2.830169916152954102e+00,6.618125000000000000e+02,1.211288833618164062e+02,1.211288833618164062e+02,8.343758434057235718e-02,-8.938035583496093750e+01,-6.320189684629440308e-02,1.031807586550712585e-01,-9.551379203796386719e+00,5.644874818244716153e-06,2.034644363448023796e-03,6.294795311987400055e-03,-5.938640242675319314e-05,1.956793814897537231e-01,5.418341024778783321e-04,-7.871801033616065979e-03,5.000000000000000000e-01,-1.420974695065524429e-05,0.000000000000000000e+00
2.830169916152954102e+00,6.618125000000000000e+02,1.211288833618164062e+02,1.211288833618164062e+02,8.343758434057235718e-02,-8.938035583496093750e+01,-6.320189684629440308e-02,1.031807586550712585e-01,-9.551379203796386719e+00,5.644874818244716153e-06,2.034644363448023796e-03,6.294795311987400055e-03,-5.938640242675319314e-05,1.956793814897537231e-01,5.418341024778783321e-04,-7.871801033616065979e-03,5.000000000000000000e-01,-1.420974695065524429e-05,0.000000000000000000e+00
2.917726278305053711e+00,6.618203125000000000e+02,1.204112930297851562e+02,1.204112930297851562e+02,7.121154665946960449e-02,-8.938085937500000000e+01,-6.320188939571380615e-02,1.030892804265022278e-01,-9.550125122070312500e+00,5.530479484150419012e-06,-1.044792472384870052e-03,1.432313583791255951e-02,-1.306533590650360566e-06,1.435953378677368164e-01,1.826086081564426422e-03,-5.699529312551021576e-03,5.000000000000000000e-01,-2.212524486822076142e-05,0.000000000000000000e+00
