# Time,X,Y,Z,Roll,Pitch,Yaw,Vx,Vy,Vz,Ax,Ay,Az,Wx,Wy,Wz,Throttle,Steer,Brake
0.000000000000000000e+00,6.610799560546875000e+02,1.894356384277343750e+02,1.894356384277343750e+02,8.442113175988197327e-03,-8.932488250732421875e+01,1.196281425654888153e-02,1.038618087768554688e-01,-9.108598709106445312e+00,-3.337388250201911433e-07,-2.459866926074028015e-02,-1.750834472477436066e-02,-5.197004156798357144e-06,9.377793176099658012e-04,-3.141259774565696716e-02,-4.745171219110488892e-02,5.000000000000000000e-01,-5.587986670434474945e-04,0.000000000000000000e+00
1.045818328857421875e-01,6.610799560546875000e+02,1.894356384277343750e+02,1.894356384277343750e+02,8.442113175988197327e-03,-8.932488250732421875e+01,1.196281425654888153e-02,1.038618087768554688e-01,-9.108598709106445312e+00,-3.337388250201911433e-07,-2.459866926074028015e-02,-1.750834472477436066e-02,-5.197004156798357144e-06,9.377793176099658012e-04,-3.141259774565696716e-02,-4.745171219110488892e-02,5.000000000000000000e-01,-5.587986670434474945e-04,0.000000000000000000e+00
1.045818328857421875e-01,6.610799560546875000e+02,1.894356384277343750e+02,1.894356384277343750e+02,8.442113175988197327e-03,-8.932488250732421875e+01,1.196281425654888153e-02,1.038618087768554688e-01,-9.108598709106445312e+00,-3.337388250201911433e-07,-2.459866926074028015e-02,-1.750834472477436066e-02,-5.197004156798357144e-06,9.377793176099658012e-04,-3.141259774565696716e-02,-4.745171219110488892e-02,5.000000000000000000e-01,-5.587986670434474945e-04,0.000000000000000000e+00
1.045818328857421875e-01,6.610799560546875000e+02,1.894356384277343750e+02,1.894356384277343750e+02,8.442113175988197327e-03,-8.932488250732421875e+01,1.196281425654888153e-02,1.038618087768554688e-01,-9.108598709106445312e+00,-3.337388250201911433e-07,-2.459866926074028015e-02,-1.750834472477436066e-02,-5.197004156798357144e-06,9.377793176099658012e-04,-3.141259774565696716e-02,-4.745171219110488892e-02,5.000000000000000000e-01,-5.587986670434474945e-04,0.000000000000000000e+00
1.045818328857421875e-01,6.610799560546875000e+02,1.894356384277343750e+02,1.894356384277343750e+02,8.442113175988197327e-03,-8.932488250732421875e+01,1.196281425654888153e-02,1.038618087768554688e-01,-9.108598709106445312e+00,-3.337388250201911433e-07,-2.459866926074028015e-02,-1.750834472477436066e-02,-5.197004156798357144e-06,9.377793176099658012e-04,-3.141259774565696716e-02,-4.745171219110488892e-02,5.000000000000000000e-01,-5.587986670434474945e-04,0.000000000000000000e+00
1.045818328857421875e-01,6.610799560546875000e+02,1.894356384277343750e+02,1.894356384277343750e+02,8.442113175988197327e-03,-8.932488250732421875e+01,1.196281425654888153e-02,1.038618087768554688e-01,-9.108598709106445312e+00,-3.337388250201911433e-07,-2.459866926074028015e-02,-1.750834472477436066e-02,-5.197004156798357144e-06,9.377793176099658012e-04,-3.141259774565696716e-02,-4.745171219110488892e-02,5.000000000000000000e-01,-5.587986670434474945e-04,0.000000000000000000e+00
1.045818328857421875e-01,6.610903930664062500e+02,1.885246429443359375e+02,1.885246429443359375e+02,8.360151201486587524e-03,-8.933337402343750000e+01,9.344709105789661407e-03,1.018474474549293518e-01,-9.110713005065917969e+00,-1.525624639953093720e-07,-1.923772506415843964e-02,-2.019212953746318817e-02,1.730285930534591898e-06,1.217513927258551121e-03,-2.391427196562290192e-02,-1.045555174350738525e-01,5.000000000000000000e-01,-6.689889123663306236e-04,0.000000000000000000e+00
2.092907428741455078e-01,6.610903930664062500e+02,1.885246429443359375e+02,1.885246429443359375e+02,8.360151201486587524e-03,-8.933337402343750000e+01,9.344709105789661407e-03,1.018474474549293518e-01,-9.110713005065917969e+00,-1.525624639953093720e-07,-1.923772506415843964e-02,-2.019212953746318817e-02,1.730285930534591898e-06,1.217513927258551121e-03,-2.391427196562290192e-02,-1.045555174350738525e-01,5.000000000000000000e-01,-6.689889123663306236e-04,0.000000000000000000e+00
2.092907428741455078e-01,6.610903930664062500e+02,1.885246429443359375e+02,1.885246429443359375e+02,8.360151201486587524e-03,-8.933337402343750000e+01,9.344709105789661407e-03,1.018474474549293518e-01,-9.110713005065917969e+00,-1.525624639953093720e-07,-1.923772506415843964e-02,-2.019212953746318817e-02,1.730285930534591898e-06,1.217513927258551121e-03,-2.391427196562290192e-02,-1.045555174350738525e-01,5.000000000000000000e-01,-6.689889123663306236e-04,0.000000000000000000e+00
2.092907428741455078e-01,6.610903930664062500e+02,1.885246429443359375e+02,1.885246429443359375e+02,8.360151201486587524e-03,-8.933337402343750000e+01,9.344709105789661407e-03,1.018474474549293518e-01,-9.110713005065917969e+00,-1.525624639953093720e-07,-1.923772506415843964e-02,-2.019212953746318817e-02,1.730285930534591898e-06,1.217513927258551121e-03,-2.391427196562290192e-02,-1.045555174350738525e-01,5.000000000000000000e-01,-6.689889123663306236e-04,0.000000000000000000e+00
2.092907428741455078e-01,6.610903930664062500e+02,1.885246429443359375e+02,1.885246429443359375e+02,8.360151201486587524e-03,-8.933337402343750000e+01,9.344709105789661407e-03,1.018474474549293518e-01,-9.110713005065917969e+00,-1.525624639953093720e-07,-1.923772506415843964e-02,-2.019212953746318817e-02,1.730285930534591898e-06,1.217513927258551121e-03,-2.391427196562290192e-02,-1.045555174350738525e-01,5.000000000000000000e-01,-6.689889123663306236e-04,0.000000000000000000e+00
2.092907428741455078e-01,6.611007080078125000e+02,1.876134338378906250e+02,1.876134338378906250e+02,8.257698267698287964e-03,-8.934520721435546875e+01,7.333124987781047821e-03,1.002822071313858032e-01,-9.112780570983886719e+00,-3.814061599882734299e-08,-2.097654901444911957e-02,-2.770845964550971985e-02,1.533423073851736262e-06,1.177229918539524078e-03,-1.640985347330570221e-02,-1.253872364759445190e-01,5.000000000000000000e-01,-6.490434752777218819e-04,0.000000000000000000e+00
2.839093208312988281e-01,6.611007080078125000e+02,1.876134338378906250e+02,1.876134338378906250e+02,8.257698267698287964e-03,-8.934520721435546875e+01,7.333124987781047821e-03,1.002822071313858032e-01,-9.112780570983886719e+00,-3.814061599882734299e-08,-2.097654901444911957e-02,-2.770845964550971985e-02,1.533423073851736262e-06,1.177229918539524078e-03,-1.640985347330570221e-02,-1.253872364759445190e-01,5.000000000000000000e-01,-6.490434752777218819e-04,0.000000000000000000e+00
2.839093208312988281e-01,6.611007080078125000e+02,1.876134338378906250e+02,1.876134338378906250e+02,8.257698267698287964e-03,-8.934520721435546875e+01,7.333124987781047821e-03,1.002822071313858032e-01,-9.112780570983886719e+00,-3.814061599882734299e-08,-2.097654901444911957e-02,-2.770845964550971985e-02,1.533423073851736262e-06,1.177229918539524078e-03,-1.640985347330570221e-02,-1.253872364759445190e-01,5.000000000000000000e-01,-6.490434752777218819e-04,0.000000000000000000e+00
2.839093208312988281e-01,6.611007080078125000e+02,1.876134338378906250e+02,1.876134338378906250e+02,8.257698267698287964e-03,-8.934520721435546875e+01,7.333124987781047821e-03,1.002822071313858032e-01,-9.112780570983886719e+00,-3.814061599882734299e-08,-2.097654901444911957e-02,-2.770845964550971985e-02,1.533423073851736262e-06,1.177229918539524078e-03,-1.640985347330570221e-02,-1.253872364759445190e-01,5.000000000000000000e-01,-6.490434752777218819e-04,0.000000000000000000e+00
2.839093208312988281e-01,6.611007080078125000e+02,1.876134338378906250e+02,1.876134338378906250e+02,8.257698267698287964e-03,-8.934520721435546875e+01,7.333124987781047821e-03,1.002822071313858032e-01,-9.112780570983886719e+00,-3.814061599882734299e-08,-2.097654901444911957e-02,-2.770845964550971985e-02,1.533423073851736262e-06,1.177229918539524078e-03,-1.640985347330570221e-02,-1.253872364759445190e-01,5.000000000000000000e-01,-6.490434752777218819e-04,0.000000000000000000e+00
3.569011688232421875e-01,6.611082763671875000e+02,1.869334106445312500e+02,1.869334106445312500e+02,8.189396001398563385e-03,-8.935443115234375000e+01,6.105654407292604446e-03,9.941630065441131592e-02,-9.114294052124023438e+00,-7.532902941420616116e-07,-1.186305750161409378e-02,-2.073493413627147675e-02,-9.797664461075328290e-06,1.065650838427245617e-03,-1.384848449379205704e-02,-1.224183440208435059e-01,5.000000000000000000e-01,-5.572727532126009464e-04,0.000000000000000000e+00
3.569011688232421875e-01,6.611082763671875000e+02,1.869334106445312500e+02,1.869334106445312500e+02,8.189396001398563385e-03,-8.935443115234375000e+01,6.105654407292604446e-03,9.941630065441131592e-02,-9.114294052124023438e+00,-7.532902941420616116e-07,-1.186305750161409378e-02,-2.073493413627147675e-02,-9.797664461075328290e-06,1.065650838427245617e-03,-1.384848449379205704e-02,-1.224183440208435059e-01,5.000000000000000000e-01,-5.572727532126009464e-04,0.000000000000000000e+00
3.569011688232421875e-01,6.611082763671875000e+02,1.869334106445312500e+02,1.869334106445312500e+02,8.189396001398563385e-03,-8.935443115234375000e+01,6.105654407292604446e-03,9.941630065441131592e-02,-9.114294052124023438e+00,-7.532902941420616116e-07,-1.186305750161409378e-02,-2.073493413627147675e-02,-9.797664461075328290e-06,1.065650838427245617e-03,-1.384848449379205704e-02,-1.224183440208435059e-01,5.000000000000000000e-01,-5.572727532126009464e-04,0.000000000000000000e+00
3.569011688232421875e-01,6.611082763671875000e+02,1.869334106445312500e+02,1.869334106445312500e+02,8.189396001398563385e-03,-8.935443115234375000e+01,6.105654407292604446e-03,9.941630065441131592e-02,-9.114294052124023438e+00,-7.532902941420616116e-07,-1.186305750161409378e-02,-2.073493413627147675e-02,-9.797664461075328290e-06,1.065650838427245617e-03,-1.384848449379205704e-02,-1.224183440208435059e-01,5.000000000000000000e-01,-5.572727532126009464e-04,0.000000000000000000e+00
4.765405654907226562e-01,6.611157836914062500e+02,1.862680816650390625e+02,1.862680816650390625e+02,8.127924986183643341e-03,-8.936236572265625000e+01,4.834447056055068970e-03,9.918241947889328003e-02,-9.115753173828125000e+00,-9.821411595112294890e-07,-1.954884268343448639e-03,-1.219599694013595581e-02,-1.912838797579752281e-06,9.634415036998689175e-04,-1.375270914286375046e-02,-1.015537381172180176e-01,5.000000000000000000e-01,-3.759111568797379732e-04,0.000000000000000000e+00
4.765405654907226562e-01,6.611157836914062500e+02,1.862680816650390625e+02,1.862680816650390625e+02,8.127924986183643341e-03,-8.936236572265625000e+01,4.834447056055068970e-03,9.918241947889328003e-02,-9.115753173828125000e+00,-9.821411595112294890e-07,-1.954884268343448639e-03,-1.219599694013595581e-02,-1.912838797579752281e-06,9.634415036998689175e-04,-1.375270914286375046e-02,-1.015537381172180176e-01,5.000000000000000000e-01,-3.759111568797379732e-04,0.000000000000000000e+00
4.765405654907226562e-01,6.611157836914062500e+02,1.862680816650390625e+02,1.862680816650390625e+02,8.127924986183643341e-03,-8.936236572265625000e+01,4.834447056055068970e-03,9.918241947889328003e-02,-9.115753173828125000e+00,-9.821411595112294890e-07,-1.954884268343448639e-03,-1.219599694013595581e-02,-1.912838797579752281e-06,9.634415036998689175e-04,-1.375270914286375046e-02,-1.015537381172180176e-01,5.000000000000000000e-01,-3.759111568797379732e-04,0.000000000000000000e+00
4.765405654907226562e-01,6.611157836914062500e+02,1.862680816650390625e+02,1.862680816650390625e+02,8.127924986183643341e-03,-8.936236572265625000e+01,4.834447056055068970e-03,9.918241947889328003e-02,-9.115753173828125000e+00,-9.821411595112294890e-07,-1.954884268343448639e-03,-1.219599694013595581e-02,-1.912838797579752281e-06,9.634415036998689175e-04,-1.375270914286375046e-02,-1.015537381172180176e-01,5.000000000000000000e-01,-3.759111568797379732e-04,0.000000000000000000e+00
4.765405654907226562e-01,6.611157836914062500e+02,1.862680816650390625e+02,1.862680816650390625e+02,8.127924986183643341e-03,-8.936236572265625000e+01,4.834447056055068970e-03,9.918241947889328003e-02,-9.115753173828125000e+00,-9.821411595112294890e-07,-1.954884268343448639e-03,-1.219599694013595581e-02,-1.912838797579752281e-06,9.634415036998689175e-04,-1.375270914286375046e-02,-1.015537381172180176e-01,5.000000000000000000e-01,-3.759111568797379732e-04,0.000000000000000000e+00
4.765405654907226562e-01,6.611157836914062500e+02,1.862680816650390625e+02,1.862680816650390625e+02,8.127924986183643341e-03,-8.936236572265625000e+01,4.834447056055068970e-03,9.918241947889328003e-02,-9.115753173828125000e+00,-9.821411595112294890e-07,-1.954884268343448639e-03,-1.219599694013595581e-02,-1.912838797579752281e-06,9.634415036998689175e-04,-1.375270914286375046e-02,-1.015537381172180176e-01,5.000000000000000000e-01,-3.759111568797379732e-04,0.000000000000000000e+00
4.765405654907226562e-01,6.611157836914062500e+02,1.862680816650390625e+02,1.862680816650390625e+02,8.127924986183643341e-03,-8.936236572265625000e+01,4.834447056055068970e-03,9.918241947889328003e-02,-9.115753173828125000e+00,-9.821411595112294890e-07,-1.954884268343448639e-03,-1.219599694013595581e-02,-1.912838797579752281e-06,9.634415036998689175e-04,-1.375270914286375046e-02,-1.015537381172180176e-01,5.000000000000000000e-01,-3.759111568797379732e-04,0.000000000000000000e+00
6.200885772705078125e-01,6.611256713867187500e+02,1.853563842773437500e+02,1.853563842773437500e+02,8.052792400121688843e-03,-8.937114715576171875e+01,3.752769436687231064e-03,9.833960235118865967e-02,-9.117722511291503906e+00,-9.725856671138899401e-07,-5.871325731277465820e-03,-1.371901668608188629e-02,6.656652828951337142e-08,7.557079079560935497e-04,-7.380383554846048355e-03,-8.042416721582412720e-02,5.000000000000000000e-01,-3.203255764674395323e-04,0.000000000000000000e+00
6.200885772705078125e-01,6.611256713867187500e+02,1.853563842773437500e+02,1.853563842773437500e+02,8.052792400121688843e-03,-8.937114715576171875e+01,3.752769436687231064e-03,9.833960235118865967e-02,-9.117722511291503906e+00,-9.725856671138899401e-07,-5.871325731277465820e-03,-1.371901668608188629e-02,6.656652828951337142e-08,7.557079079560935497e-04,-7.380383554846048355e-03,-8.042416721582412720e-02,5.000000000000000000e-01,-3.203255764674395323e-04,0.000000000000000000e+00
6.200885772705078125e-01,6.611256713867187500e+02,1.853563842773437500e+02,1.853563842773437500e+02,8.052792400121688843e-03,-8.937114715576171875e+01,3.752769436687231064e-03,9.833960235118865967e-02,-9.117722511291503906e+00,-9.725856671138899401e-07,-5.871325731277465820e-03,-1.371901668608188629e-02,6.656652828951337142e-08,7.557079079560935497e-04,-7.380383554846048355e-03,-8.042416721582412720e-02,5.000000000000000000e-01,-3.203255764674395323e-04,0.000000000000000000e+00
6.200885772705078125e-01,6.611256713867187500e+02,1.853563842773437500e+02,1.853563842773437500e+02,8.052792400121688843e-03,-8.937114715576171875e+01,3.752769436687231064e-03,9.833960235118865967e-02,-9.117722511291503906e+00,-9.725856671138899401e-07,-5.871325731277465820e-03,-1.371901668608188629e-02,6.656652828951337142e-08,7.557079079560935497e-04,-7.380383554846048355e-03,-8.042416721582412720e-02,5.000000000000000000e-01,-3.203255764674395323e-04,0.000000000000000000e+00
6.200885772705078125e-01,6.611256713867187500e+02,1.853563842773437500e+02,1.853563842773437500e+02,8.052792400121688843e-03,-8.937114715576171875e+01,3.752769436687231064e-03,9.833960235118865967e-02,-9.117722511291503906e+00,-9.725856671138899401e-07,-5.871325731277465820e-03,-1.371901668608188629e-02,6.656652828951337142e-08,7.557079079560935497e-04,-7.380383554846048355e-03,-8.042416721582412720e-02,5.000000000000000000e-01,-3.203255764674395323e-04,0.000000000000000000e+00
6.200885772705078125e-01,6.611256713867187500e+02,1.853563842773437500e+02,1.853563842773437500e+02,8.052792400121688843e-03,-8.937114715576171875e+01,3.752769436687231064e-03,9.833960235118865967e-02,-9.117722511291503906e+00,-9.725856671138899401e-07,-5.871325731277465820e-03,-1.371901668608188629e-02,6.656652828951337142e-08,7.557079079560935497e-04,-7.380383554846048355e-03,-8.042416721582412720e-02,5.000000000000000000e-01,-3.203255764674395323e-04,0.000000000000000000e+00
7.946169376373291016e-01,6.611356201171875000e+02,1.844444885253906250e+02,1.844444885253906250e+02,7.991320453584194183e-03,-8.937738037109375000e+01,2.710090950131416321e-03,9.813343733549118042e-02,-9.119650840759277344e+00,4.576873777750734007e-07,-1.181269413791596889e-03,-1.104880310595035553e-02,8.195075679395813495e-06,6.261077360250055790e-04,-7.155370432883501053e-03,-5.285103246569633484e-02,5.000000000000000000e-01,-1.776559074642136693e-04,0.000000000000000000e+00
7.946169376373291016e-01,6.611356201171875000e+02,1.844444885253906250e+02,1.844444885253906250e+02,7.991320453584194183e-03,-8.937738037109375000e+01,2.710090950131416321e-03,9.813343733549118042e-02,-9.119650840759277344e+00,4.576873777750734007e-07,-1.181269413791596889e-03,-1.104880310595035553e-02,8.195075679395813495e-06,6.261077360250055790e-04,-7.155370432883501053e-03,-5.285103246569633484e-02,5.000000000000000000e-01,-1.776559074642136693e-04,0.000000000000000000e+00
7.946169376373291016e-01,6.611356201171875000e+02,1.844444885253906250e+02,1.844444885253906250e+02,7.991320453584194183e-03,-8.937738037109375000e+01,2.710090950131416321e-03,9.813343733549118042e-02,-9.119650840759277344e+00,4.576873777750734007e-07,-1.181269413791596889e-03,-1.104880310595035553e-02,8.195075679395813495e-06,6.261077360250055790e-04,-7.155370432883501053e-03,-5.285103246569633484e-02,5.000000000000000000e-01,-1.776559074642136693e-04,0.000000000000000000e+00
7.946169376373291016e-01,6.611356201171875000e+02,1.844444885253906250e+02,1.844444885253906250e+02,7.991320453584194183e-03,-8.937738037109375000e+01,2.710090950131416321e-03,9.813343733549118042e-02,-9.119650840759277344e+00,4.576873777750734007e-07,-1.181269413791596889e-03,-1.104880310595035553e-02,8.195075679395813495e-06,6.261077360250055790e-04,-7.155370432883501053e-03,-5.285103246569633484e-02,5.000000000000000000e-01,-1.776559074642136693e-04,0.000000000000000000e+00
8.783230781555175781e-01,6.611455078125000000e+02,1.835323791503906250e+02,1.835323791503906250e+02,7.943509146571159363e-03,-8.938082122802734375e+01,1.771229668520390987e-03,9.829013794660568237e-02,-9.121538162231445312e+00,-8.963044706433720421e-07,1.872032531537115574e-03,-2.254698984324932098e-02,-1.617553789401426911e-05,5.221511237323284149e-04,-6.338258273899555206e-03,-2.482972666621208191e-02,5.000000000000000000e-01,-5.187988426769152284e-05,0.000000000000000000e+00
8.783230781555175781e-01,6.611455078125000000e+02,1.835323791503906250e+02,1.835323791503906250e+02,7.943509146571159363e-03,-8.938082122802734375e+01,1.771229668520390987e-03,9.829013794660568237e-02,-9.121538162231445312e+00,-8.963044706433720421e-07,1.872032531537115574e-03,-2.254698984324932098e-02,-1.617553789401426911e-05,5.221511237323284149e-04,-6.338258273899555206e-03,-2.482972666621208191e-02,5.000000000000000000e-01,-5.187988426769152284e-05,0.000000000000000000e+00
9.483780860900878906e-01,6.611539916992187500e+02,1.827687683105468750e+02,1.827687683105468750e+02,7.902528159320354462e-03,-8.938201904296875000e+01,1.224114326760172844e-03,9.839327633380889893e-02,-9.123089790344238281e+00,-1.220532794832251966e-06,1.472248579375445843e-03,-2.214871160686016083e-02,-4.628196165867848322e-06,4.698089906014502048e-04,-5.329701583832502365e-03,-8.540255948901176453e-03,5.000000000000000000e-01,1.089913510554652021e-07,0.000000000000000000e+00
9.483780860900878906e-01,6.611539916992187500e+02,1.827687683105468750e+02,1.827687683105468750e+02,7.902528159320354462e-03,-8.938201904296875000e+01,1.224114326760172844e-03,9.839327633380889893e-02,-9.123089790344238281e+00,-1.220532794832251966e-06,1.472248579375445843e-03,-2.214871160686016083e-02,-4.628196165867848322e-06,4.698089906014502048e-04,-5.329701583832502365e-03,-8.540255948901176453e-03,5.000000000000000000e-01,1.089913510554652021e-07,0.000000000000000000e+00
9.483780860900878906e-01,6.611539916992187500e+02,1.827687683105468750e+02,1.827687683105468750e+02,7.902528159320354462e-03,-8.938201904296875000e+01,1.224114326760172844e-03,9.839327633380889893e-02,-9.123089790344238281e+00,-1.220532794832251966e-06,1.472248579375445843e-03,-2.214871160686016083e-02,-4.628196165867848322e-06,4.698089906014502048e-04,-5.329701583832502365e-03,-8.540255948901176453e-03,5.000000000000000000e-01,1.089913510554652021e-07,0.000000000000000000e+00
9.483780860900878906e-01,6.611539916992187500e+02,1.827687683105468750e+02,1.827687683105468750e+02,7.902528159320354462e-03,-8.938201904296875000e+01,1.224114326760172844e-03,9.839327633380889893e-02,-9.123089790344238281e+00,-1.220532794832251966e-06,1.472248579375445843e-03,-2.214871160686016083e-02,-4.628196165867848322e-06,4.698089906014502048e-04,-5.329701583832502365e-03,-8.540255948901176453e-03,5.000000000000000000e-01,1.089913510554652021e-07,0.000000000000000000e+00
9.483780860900878906e-01,6.611610107421875000e+02,1.821296081542968750e+02,1.821296081542968750e+02,7.882038131356239319e-03,-8.938249969482421875e+01,1.031283871270716190e-03,9.813972562551498413e-02,-9.124376296997070312e+00,-5.149119601810525637e-07,-3.217688994482159615e-03,-1.632643118500709534e-02,8.954691111284773797e-06,4.192191991023719311e-04,-2.685914281755685806e-03,-6.074343807995319366e-03,5.000000000000000000e-01,-4.294259269954636693e-05,0.000000000000000000e+00
1.027177095413208008e+00,6.611610107421875000e+02,1.821296081542968750e+02,1.821296081542968750e+02,7.882038131356239319e-03,-8.938249969482421875e+01,1.031283871270716190e-03,9.813972562551498413e-02,-9.124376296997070312e+00,-5.149119601810525637e-07,-3.217688994482159615e-03,-1.632643118500709534e-02,8.954691111284773797e-06,4.192191991023719311e-04,-2.685914281755685806e-03,-6.074343807995319366e-03,5.000000000000000000e-01,-4.294259269954636693e-05,0.000000000000000000e+00
1.027177095413208008e+00,6.611610107421875000e+02,1.821296081542968750e+02,1.821296081542968750e+02,7.882038131356239319e-03,-8.938249969482421875e+01,1.031283871270716190e-03,9.813972562551498413e-02,-9.124376296997070312e+00,-5.149119601810525637e-07,-3.217688994482159615e-03,-1.632643118500709534e-02,8.954691111284773797e-06,4.192191991023719311e-04,-2.685914281755685806e-03,-6.074343807995319366e-03,5.000000000000000000e-01,-4.294259269954636693e-05,0.000000000000000000e+00
1.095043420791625977e+00,6.611688232421875000e+02,1.814105377197265625e+02,1.814105377197265625e+02,7.854716852307319641e-03,-8.938299560546875000e+01,8.320557535625994205e-04,9.795509278774261475e-02,-9.125802993774414062e+00,-1.239581138179346453e-06,-2.720536896958947182e-03,-2.102215960621833801e-02,-1.067788980435580015e-05,3.960844478569924831e-04,-2.608425216749310493e-03,-5.895990878343582153e-03,5.000000000000000000e-01,-5.384172618505544960e-05,0.000000000000000000e+00
1.095043420791625977e+00,6.611688232421875000e+02,1.814105377197265625e+02,1.814105377197265625e+02,7.854716852307319641e-03,-8.938299560546875000e+01,8.320557535625994205e-04,9.795509278774261475e-02,-9.125802993774414062e+00,-1.239581138179346453e-06,-2.720536896958947182e-03,-2.102215960621833801e-02,-1.067788980435580015e-05,3.960844478569924831e-04,-2.608425216749310493e-03,-5.895990878343582153e-03,5.000000000000000000e-01,-5.384172618505544960e-05,0.000000000000000000e+00
1.095043420791625977e+00,6.611688232421875000e+02,1.814105377197265625e+02,1.814105377197265625e+02,7.854716852307319641e-03,-8.938299560546875000e+01,8.320557535625994205e-04,9.795509278774261475e-02,-9.125802993774414062e+00,-1.239581138179346453e-06,-2.720536896958947182e-03,-2.102215960621833801e-02,-1.067788980435580015e-05,3.960844478569924831e-04,-2.608425216749310493e-03,-5.895990878343582153e-03,5.000000000000000000e-01,-5.384172618505544960e-05,0.000000000000000000e+00
1.095043420791625977e+00,6.611688232421875000e+02,1.814105377197265625e+02,1.814105377197265625e+02,7.854716852307319641e-03,-8.938299560546875000e+01,8.320557535625994205e-04,9.795509278774261475e-02,-9.125802993774414062e+00,-1.239581138179346453e-06,-2.720536896958947182e-03,-2.102215960621833801e-02,-1.067788980435580015e-05,3.960844478569924831e-04,-2.608425216749310493e-03,-5.895990878343582153e-03,5.000000000000000000e-01,-5.384172618505544960e-05,0.000000000000000000e+00
1.168572425842285156e+00,6.611754760742187500e+02,1.807911682128906250e+02,1.807911682128906250e+02,7.827396504580974579e-03,-8.938317871093750000e+01,5.411548772826790810e-04,9.812165796756744385e-02,-9.127010345458984375e+00,9.344739737571217120e-07,2.265298971906304359e-03,-1.642007380723953247e-02,2.956731441372539848e-05,3.914954431820660830e-04,-3.899166826158761978e-03,-1.067867153324186802e-03,5.000000000000000000e-01,-6.321498403849545866e-06,0.000000000000000000e+00
1.168572425842285156e+00,6.611754760742187500e+02,1.807911682128906250e+02,1.807911682128906250e+02,7.827396504580974579e-03,-8.938317871093750000e+01,5.411548772826790810e-04,9.812165796756744385e-02,-9.127010345458984375e+00,9.344739737571217120e-07,2.265298971906304359e-03,-1.642007380723953247e-02,2.956731441372539848e-05,3.914954431820660830e-04,-3.899166826158761978e-03,-1.067867153324186802e-03,5.000000000000000000e-01,-6.321498403849545866e-06,0.000000000000000000e+00
1.168572425842285156e+00,6.611754760742187500e+02,1.807911682128906250e+02,1.807911682128906250e+02,7.827396504580974579e-03,-8.938317871093750000e+01,5.411548772826790810e-04,9.812165796756744385e-02,-9.127010345458984375e+00,9.344739737571217120e-07,2.265298971906304359e-03,-1.642007380723953247e-02,2.956731441372539848e-05,3.914954431820660830e-04,-3.899166826158761978e-03,-1.067867153324186802e-03,5.000000000000000000e-01,-6.321498403849545866e-06,0.000000000000000000e+00
1.168572425842285156e+00,6.611754760742187500e+02,1.807911682128906250e+02,1.807911682128906250e+02,7.827396504580974579e-03,-8.938317871093750000e+01,5.411548772826790810e-04,9.812165796756744385e-02,-9.127010345458984375e+00,9.344739737571217120e-07,2.265298971906304359e-03,-1.642007380723953247e-02,2.956731441372539848e-05,3.914954431820660830e-04,-3.899166826158761978e-03,-1.067867153324186802e-03,5.000000000000000000e-01,-6.321498403849545866e-06,0.000000000000000000e+00
1.168572425842285156e+00,6.611826171875000000e+02,1.801200103759765625e+02,1.801200103759765625e+02,7.800075691193342209e-03,-8.938299560546875000e+01,2.542982110753655434e-04,9.831491857767105103e-02,-9.128304481506347656e+00,5.721204487940667605e-08,2.575144637376070023e-03,-1.724400930106639862e-02,-1.168927519756834954e-05,3.741329128388315439e-04,-3.148775780573487282e-03,4.349446855485439301e-03,5.000000000000000000e-01,1.765659908414818347e-05,0.000000000000000000e+00
1.243620872497558594e+00,6.611826171875000000e+02,1.801200103759765625e+02,1.801200103759765625e+02,7.800075691193342209e-03,-8.938299560546875000e+01,2.542982110753655434e-04,9.831491857767105103e-02,-9.128304481506347656e+00,5.721204487940667605e-08,2.575144637376070023e-03,-1.724400930106639862e-02,-1.168927519756834954e-05,3.741329128388315439e-04,-3.148775780573487282e-03,4.349446855485439301e-03,5.000000000000000000e-01,1.765659908414818347e-05,0.000000000000000000e+00
1.243620872497558594e+00,6.611826171875000000e+02,1.801200103759765625e+02,1.801200103759765625e+02,7.800075691193342209e-03,-8.938299560546875000e+01,2.542982110753655434e-04,9.831491857767105103e-02,-9.128304481506347656e+00,5.721204487940667605e-08,2.575144637376070023e-03,-1.724400930106639862e-02,-1.168927519756834954e-05,3.741329128388315439e-04,-3.148775780573487282e-03,4.349446855485439301e-03,5.000000000000000000e-01,1.765659908414818347e-05,0.000000000000000000e+00
1.243620872497558594e+00,6.611826171875000000e+02,1.801200103759765625e+02,1.801200103759765625e+02,7.800075691193342209e-03,-8.938299560546875000e+01,2.542982110753655434e-04,9.831491857767105103e-02,-9.128304481506347656e+00,5.721204487940667605e-08,2.575144637376070023e-03,-1.724400930106639862e-02,-1.168927519756834954e-05,3.741329128388315439e-04,-3.148775780573487282e-03,4.349446855485439301e-03,5.000000000000000000e-01,1.765659908414818347e-05,0.000000000000000000e+00
1.312042951583862305e+00,6.611900634765625000e+02,1.794348907470703125e+02,1.794348907470703125e+02,7.779585197567939758e-03,-8.938241577148437500e+01,0.000000000000000000e+00,9.858844429254531860e-02,-9.129607200622558594e+00,1.058419570654223207e-06,3.997623454779386520e-03,-1.903945580124855042e-02,1.463281478208955377e-05,3.710098098963499069e-04,-2.797644352540373802e-03,1.038894429802894592e-02,5.000000000000000000e-01,4.664829975808970630e-05,0.000000000000000000e+00
1.312042951583862305e+00,6.611900634765625000e+02,1.794348907470703125e+02,1.794348907470703125e+02,7.779585197567939758e-03,-8.938241577148437500e+01,0.000000000000000000e+00,9.858844429254531860e-02,-9.129607200622558594e+00,1.058419570654223207e-06,3.997623454779386520e-03,-1.903945580124855042e-02,1.463281478208955377e-05,3.710098098963499069e-04,-2.797644352540373802e-03,1.038894429802894592e-02,5.000000000000000000e-01,4.664829975808970630e-05,0.000000000000000000e+00
1.312042951583862305e+00,6.611967163085937500e+02,1.788101959228515625e+02,1.788101959228515625e+02,7.752264384180307388e-03,-8.938156127929687500e+01,-1.525882689747959375e-04,9.875040501356124878e-02,-9.130781173706054688e+00,1.334961211796326097e-06,2.278364030644297600e-03,-1.651473343372344971e-02,3.890218067681416869e-06,3.490479139145463705e-04,-1.823306665755808353e-03,1.318203471601009369e-02,5.000000000000000000e-01,4.544939292827621102e-05,0.000000000000000000e+00
1.383129358291625977e+00,6.611967163085937500e+02,1.788101959228515625e+02,1.788101959228515625e+02,7.752264384180307388e-03,-8.938156127929687500e+01,-1.525882689747959375e-04,9.875040501356124878e-02,-9.130781173706054688e+00,1.334961211796326097e-06,2.278364030644297600e-03,-1.651473343372344971e-02,3.890218067681416869e-06,3.490479139145463705e-04,-1.823306665755808353e-03,1.318203471601009369e-02,5.000000000000000000e-01,4.544939292827621102e-05,0.000000000000000000e+00
1.383129358291625977e+00,6.611967163085937500e+02,1.788101959228515625e+02,1.788101959228515625e+02,7.752264384180307388e-03,-8.938156127929687500e+01,-1.525882689747959375e-04,9.875040501356124878e-02,-9.130781173706054688e+00,1.334961211796326097e-06,2.278364030644297600e-03,-1.651473343372344971e-02,3.890218067681416869e-06,3.490479139145463705e-04,-1.823306665755808353e-03,1.318203471601009369e-02,5.000000000000000000e-01,4.544939292827621102e-05,0.000000000000000000e+00
1.450951814651489258e+00,6.612037353515625000e+02,1.781610717773437500e+02,1.781610717773437500e+02,7.731773890554904938e-03,-8.938058471679687500e+01,-2.441408869344741106e-04,9.888693690299987793e-02,-9.131983757019042969e+00,1.277741944250010420e-06,2.013077959418296814e-03,-1.773134432733058929e-02,-8.436625762442417908e-07,3.426592156756669283e-04,-1.301599433645606041e-03,1.411747653037309647e-02,5.000000000000000000e-01,3.934587584808468819e-05,0.000000000000000000e+00
1.450951814651489258e+00,6.612037353515625000e+02,1.781610717773437500e+02,1.781610717773437500e+02,7.731773890554904938e-03,-8.938058471679687500e+01,-2.441408869344741106e-04,9.888693690299987793e-02,-9.131983757019042969e+00,1.277741944250010420e-06,2.013077959418296814e-03,-1.773134432733058929e-02,-8.436625762442417908e-07,3.426592156756669283e-04,-1.301599433645606041e-03,1.411747653037309647e-02,5.000000000000000000e-01,3.934587584808468819e-05,0.000000000000000000e+00
1.450951814651489258e+00,6.612037353515625000e+02,1.781610717773437500e+02,1.781610717773437500e+02,7.731773890554904938e-03,-8.938058471679687500e+01,-2.441408869344741106e-04,9.888693690299987793e-02,-9.131983757019042969e+00,1.277741944250010420e-06,2.013077959418296814e-03,-1.773134432733058929e-02,-8.436625762442417908e-07,3.426592156756669283e-04,-1.301599433645606041e-03,1.411747653037309647e-02,5.000000000000000000e-01,3.934587584808468819e-05,0.000000000000000000e+00
1.527701377868652344e+00,6.612103881835937500e+02,1.775416717529296875e+02,1.775416717529296875e+02,7.704453077167272568e-03,-8.937960052490234375e+01,-3.051752864848822355e-04,9.902334958314895630e-02,-9.133116722106933594e+00,1.907089881569845602e-07,1.777374069206416607e-03,-1.476184464991092682e-02,-1.416337636328535154e-05,3.468779032118618488e-04,-1.105989445932209492e-03,1.421738136559724808e-02,5.000000000000000000e-01,3.564017242752015591e-05,0.000000000000000000e+00
1.527701377868652344e+00,6.612103881835937500e+02,1.775416717529296875e+02,1.775416717529296875e+02,7.704453077167272568e-03,-8.937960052490234375e+01,-3.051752864848822355e-04,9.902334958314895630e-02,-9.133116722106933594e+00,1.907089881569845602e-07,1.777374069206416607e-03,-1.476184464991092682e-02,-1.416337636328535154e-05,3.468779032118618488e-04,-1.105989445932209492e-03,1.421738136559724808e-02,5.000000000000000000e-01,3.564017242752015591e-05,0.000000000000000000e+00
1.527701377868652344e+00,6.612103881835937500e+02,1.775416717529296875e+02,1.775416717529296875e+02,7.704453077167272568e-03,-8.937960052490234375e+01,-3.051752864848822355e-04,9.902334958314895630e-02,-9.133116722106933594e+00,1.907089881569845602e-07,1.777374069206416607e-03,-1.476184464991092682e-02,-1.416337636328535154e-05,3.468779032118618488e-04,-1.105989445932209492e-03,1.421738136559724808e-02,5.000000000000000000e-01,3.564017242752015591e-05,0.000000000000000000e+00
1.600134611129760742e+00,6.612177734375000000e+02,1.768406677246093750e+02,1.768406677246093750e+02,7.683962583541870117e-03,-8.937859344482421875e+01,-3.662109375000000000e-04,9.912481904029846191e-02,-9.134385108947753906e+00,4.100170087895094184e-07,1.400868874043226242e-03,-1.751111820340156555e-02,3.027726506843464449e-06,3.482294559944421053e-04,-7.343792240135371685e-04,1.274925097823143005e-02,5.000000000000000000e-01,2.190726081607863307e-05,0.000000000000000000e+00
1.600134611129760742e+00,6.612177734375000000e+02,1.768406677246093750e+02,1.768406677246093750e+02,7.683962583541870117e-03,-8.937859344482421875e+01,-3.662109375000000000e-04,9.912481904029846191e-02,-9.134385108947753906e+00,4.100170087895094184e-07,1.400868874043226242e-03,-1.751111820340156555e-02,3.027726506843464449e-06,3.482294559944421053e-04,-7.343792240135371685e-04,1.274925097823143005e-02,5.000000000000000000e-01,2.190726081607863307e-05,0.000000000000000000e+00
1.600134611129760742e+00,6.612177734375000000e+02,1.768406677246093750e+02,1.768406677246093750e+02,7.683962583541870117e-03,-8.937859344482421875e+01,-3.662109375000000000e-04,9.912481904029846191e-02,-9.134385108947753906e+00,4.100170087895094184e-07,1.400868874043226242e-03,-1.751111820340156555e-02,3.027726506843464449e-06,3.482294559944421053e-04,-7.343792240135371685e-04,1.274925097823143005e-02,5.000000000000000000e-01,2.190726081607863307e-05,0.000000000000000000e+00
1.600134611129760742e+00,6.612177734375000000e+02,1.768406677246093750e+02,1.768406677246093750e+02,7.683962583541870117e-03,-8.937859344482421875e+01,-3.662109375000000000e-04,9.912481904029846191e-02,-9.134385108947753906e+00,4.100170087895094184e-07,1.400868874043226242e-03,-1.751111820340156555e-02,3.027726506843464449e-06,3.482294559944421053e-04,-7.343792240135371685e-04,1.274925097823143005e-02,5.000000000000000000e-01,2.190726081607863307e-05,0.000000000000000000e+00
1.600134611129760742e+00,6.612177734375000000e+02,1.768406677246093750e+02,1.768406677246093750e+02,7.683962583541870117e-03,-8.937859344482421875e+01,-3.662109375000000000e-04,9.912481904029846191e-02,-9.134385108947753906e+00,4.100170087895094184e-07,1.400868874043226242e-03,-1.751111820340156555e-02,3.027726506843464449e-06,3.482294559944421053e-04,-7.343792240135371685e-04,1.274925097823143005e-02,5.000000000000000000e-01,2.190726081607863307e-05,0.000000000000000000e+00
1.600134611129760742e+00,6.612247314453125000e+02,1.761789855957031250e+02,1.761789855957031250e+02,7.656641770154237747e-03,-8.937758636474609375e+01,-4.882809589616954327e-04,9.941767156124114990e-02,-9.135564804077148438e+00,6.674753194602089934e-07,2.538181841373443604e-03,-1.022453419864177704e-02,2.231416601716773584e-06,3.547090454958379269e-04,-1.452661934308707714e-03,1.495949551463127136e-02,5.000000000000000000e-01,4.970005466020666063e-05,0.000000000000000000e+00
1.715513467788696289e+00,6.612247314453125000e+02,1.761789855957031250e+02,1.761789855957031250e+02,7.656641770154237747e-03,-8.937758636474609375e+01,-4.882809589616954327e-04,9.941767156124114990e-02,-9.135564804077148438e+00,6.674753194602089934e-07,2.538181841373443604e-03,-1.022453419864177704e-02,2.231416601716773584e-06,3.547090454958379269e-04,-1.452661934308707714e-03,1.495949551463127136e-02,5.000000000000000000e-01,4.970005466020666063e-05,0.000000000000000000e+00
1.715513467788696289e+00,6.612247314453125000e+02,1.761789855957031250e+02,1.761789855957031250e+02,7.656641770154237747e-03,-8.937758636474609375e+01,-4.882809589616954327e-04,9.941767156124114990e-02,-9.135564804077148438e+00,6.674753194602089934e-07,2.538181841373443604e-03,-1.022453419864177704e-02,2.231416601716773584e-06,3.547090454958379269e-04,-1.452661934308707714e-03,1.495949551463127136e-02,5.000000000000000000e-01,4.970005466020666063e-05,0.000000000000000000e+00
1.715513467788696289e+00,6.612247314453125000e+02,1.761789855957031250e+02,1.761789855957031250e+02,7.656641770154237747e-03,-8.937758636474609375e+01,-4.882809589616954327e-04,9.941767156124114990e-02,-9.135564804077148438e+00,6.674753194602089934e-07,2.538181841373443604e-03,-1.022453419864177704e-02,2.231416601716773584e-06,3.547090454958379269e-04,-1.452661934308707714e-03,1.495949551463127136e-02,5.000000000000000000e-01,4.970005466020666063e-05,0.000000000000000000e+00
1.813115119934082031e+00,6.612346191406250000e+02,1.752653045654296875e+02,1.752653045654296875e+02,7.615660317242145538e-03,-8.937536621093750000e+01,-7.934568566270172596e-04,1.001884117722511292e-01,-9.137159347534179688e+00,1.620976036065258086e-06,7.896794937551021576e-03,-1.633725874125957489e-02,9.769309144758153707e-06,3.353575593791902065e-04,-1.807962777093052864e-03,2.594093047082424164e-02,5.000000000000000000e-01,1.215253578266128898e-04,0.000000000000000000e+00
1.813115119934082031e+00,6.612346191406250000e+02,1.752653045654296875e+02,1.752653045654296875e+02,7.615660317242145538e-03,-8.937536621093750000e+01,-7.934568566270172596e-04,1.001884117722511292e-01,-9.137159347534179688e+00,1.620976036065258086e-06,7.896794937551021576e-03,-1.633725874125957489e-02,9.769309144758153707e-06,3.353575593791902065e-04,-1.807962777093052864e-03,2.594093047082424164e-02,5.000000000000000000e-01,1.215253578266128898e-04,0.000000000000000000e+00
1.813115119934082031e+00,6.612346191406250000e+02,1.752653045654296875e+02,1.752653045654296875e+02,7.615660317242145538e-03,-8.937536621093750000e+01,-7.934568566270172596e-04,1.001884117722511292e-01,-9.137159347534179688e+00,1.620976036065258086e-06,7.896794937551021576e-03,-1.633725874125957489e-02,9.769309144758153707e-06,3.353575593791902065e-04,-1.807962777093052864e-03,2.594093047082424164e-02,5.000000000000000000e-01,1.215253578266128898e-04,0.000000000000000000e+00
1.813115119934082031e+00,6.612346191406250000e+02,1.752653045654296875e+02,1.752653045654296875e+02,7.615660317242145538e-03,-8.937536621093750000e+01,-7.934568566270172596e-04,1.001884117722511292e-01,-9.137159347534179688e+00,1.620976036065258086e-06,7.896794937551021576e-03,-1.633725874125957489e-02,9.769309144758153707e-06,3.353575593791902065e-04,-1.807962777093052864e-03,2.594093047082424164e-02,5.000000000000000000e-01,1.215253578266128898e-04,0.000000000000000000e+00
1.896134853363037109e+00,6.612444458007812500e+02,1.743734283447265625e+02,1.743734283447265625e+02,7.588339969515800476e-03,-8.937307739257812500e+01,-7.019040058366954327e-04,1.002642139792442322e-01,-9.138693809509277344e+00,2.860557515305117704e-07,9.130625403486192226e-04,-1.848309859633445740e-02,-1.607955346116796136e-05,3.278432996012270451e-04,3.564756771083921194e-04,2.195511572062969208e-02,5.000000000000000000e-01,5.645752025884576142e-05,0.000000000000000000e+00
1.896134853363037109e+00,6.612444458007812500e+02,1.743734283447265625e+02,1.743734283447265625e+02,7.588339969515800476e-03,-8.937307739257812500e+01,-7.019040058366954327e-04,1.002642139792442322e-01,-9.138693809509277344e+00,2.860557515305117704e-07,9.130625403486192226e-04,-1.848309859633445740e-02,-1.607955346116796136e-05,3.278432996012270451e-04,3.564756771083921194e-04,2.195511572062969208e-02,5.000000000000000000e-01,5.645752025884576142e-05,0.000000000000000000e+00
1.896134853363037109e+00,6.612444458007812500e+02,1.743734283447265625e+02,1.743734283447265625e+02,7.588339969515800476e-03,-8.937307739257812500e+01,-7.019040058366954327e-04,1.002642139792442322e-01,-9.138693809509277344e+00,2.860557515305117704e-07,9.130625403486192226e-04,-1.848309859633445740e-02,-1.607955346116796136e-05,3.278432996012270451e-04,3.564756771083921194e-04,2.195511572062969208e-02,5.000000000000000000e-01,5.645752025884576142e-05,0.000000000000000000e+00
1.896134853363037109e+00,6.612444458007812500e+02,1.743734283447265625e+02,1.743734283447265625e+02,7.588339969515800476e-03,-8.937307739257812500e+01,-7.019040058366954327e-04,1.002642139792442322e-01,-9.138693809509277344e+00,2.860557515305117704e-07,9.130625403486192226e-04,-1.848309859633445740e-02,-1.607955346116796136e-05,3.278432996012270451e-04,3.564756771083921194e-04,2.195511572062969208e-02,5.000000000000000000e-01,5.645752025884576142e-05,0.000000000000000000e+00
1.896134853363037109e+00,6.612444458007812500e+02,1.743734283447265625e+02,1.743734283447265625e+02,7.588339969515800476e-03,-8.937307739257812500e+01,-7.019040058366954327e-04,1.002642139792442322e-01,-9.138693809509277344e+00,2.860557515305117704e-07,9.130625403486192226e-04,-1.848309859633445740e-02,-1.607955346116796136e-05,3.278432996012270451e-04,3.564756771083921194e-04,2.195511572062969208e-02,5.000000000000000000e-01,5.645752025884576142e-05,0.000000000000000000e+00
1.896134853363037109e+00,6.612444458007812500e+02,1.743734283447265625e+02,1.743734283447265625e+02,7.588339969515800476e-03,-8.937307739257812500e+01,-7.019040058366954327e-04,1.002642139792442322e-01,-9.138693809509277344e+00,2.860557515305117704e-07,9.130625403486192226e-04,-1.848309859633445740e-02,-1.607955346116796136e-05,3.278432996012270451e-04,3.564756771083921194e-04,2.195511572062969208e-02,5.000000000000000000e-01,5.645752025884576142e-05,0.000000000000000000e+00
1.896134853363037109e+00,6.612444458007812500e+02,1.743734283447265625e+02,1.743734283447265625e+02,7.588339969515800476e-03,-8.937307739257812500e+01,-7.019040058366954327e-04,1.002642139792442322e-01,-9.138693809509277344e+00,2.860557515305117704e-07,9.130625403486192226e-04,-1.848309859633445740e-02,-1.607955346116796136e-05,3.278432996012270451e-04,3.564756771083921194e-04,2.195511572062969208e-02,5.000000000000000000e-01,5.645752025884576142e-05,0.000000000000000000e+00
2.195794820785522461e+00,6.612713012695312500e+02,1.718993072509765625e+02,1.718993072509765625e+02,7.499547209590673447e-03,-8.936980438232421875e+01,-4.272461519576609135e-04,1.003324091434478760e-01,-9.142817497253417969e+00,6.865451496196328662e-07,-6.481840973719954491e-04,-2.469080314040184021e-02,1.832662746892310679e-05,3.236854681745171547e-04,7.107991259545087814e-04,4.425131250172853470e-03,5.000000000000000000e-01,-2.920968108810484409e-05,0.000000000000000000e+00
2.195794820785522461e+00,6.612713012695312500e+02,1.718993072509765625e+02,1.718993072509765625e+02,7.499547209590673447e-03,-8.936980438232421875e+01,-4.272461519576609135e-04,1.003324091434478760e-01,-9.142817497253417969e+00,6.865451496196328662e-07,-6.481840973719954491e-04,-2.469080314040184021e-02,1.832662746892310679e-05,3.236854681745171547e-04,7.107991259545087814e-04,4.425131250172853470e-03,5.000000000000000000e-01,-2.920968108810484409e-05,0.000000000000000000e+00
2.195794820785522461e+00,6.612713012695312500e+02,1.718993072509765625e+02,1.718993072509765625e+02,7.499547209590673447e-03,-8.936980438232421875e+01,-4.272461519576609135e-04,1.003324091434478760e-01,-9.142817497253417969e+00,6.865451496196328662e-07,-6.481840973719954491e-04,-2.469080314040184021e-02,1.832662746892310679e-05,3.236854681745171547e-04,7.107991259545087814e-04,4.425131250172853470e-03,5.000000000000000000e-01,-2.920968108810484409e-05,0.000000000000000000e+00
2.195794820785522461e+00,6.612713012695312500e+02,1.718993072509765625e+02,1.718993072509765625e+02,7.499547209590673447e-03,-8.936980438232421875e+01,-4.272461519576609135e-04,1.003324091434478760e-01,-9.142817497253417969e+00,6.865451496196328662e-07,-6.481840973719954491e-04,-2.469080314040184021e-02,1.832662746892310679e-05,3.236854681745171547e-04,7.107991259545087814e-04,4.425131250172853470e-03,5.000000000000000000e-01,-2.920968108810484409e-05,0.000000000000000000e+00
2.195794820785522461e+00,6.612713012695312500e+02,1.718993072509765625e+02,1.718993072509765625e+02,7.499547209590673447e-03,-8.936980438232421875e+01,-4.272461519576609135e-04,1.003324091434478760e-01,-9.142817497253417969e+00,6.865451496196328662e-07,-6.481840973719954491e-04,-2.469080314040184021e-02,1.832662746892310679e-05,3.236854681745171547e-04,7.107991259545087814e-04,4.425131250172853470e-03,5.000000000000000000e-01,-2.920968108810484409e-05,0.000000000000000000e+00
2.195794820785522461e+00,6.612713012695312500e+02,1.718993072509765625e+02,1.718993072509765625e+02,7.499547209590673447e-03,-8.936980438232421875e+01,-4.272461519576609135e-04,1.003324091434478760e-01,-9.142817497253417969e+00,6.865451496196328662e-07,-6.481840973719954491e-04,-2.469080314040184021e-02,1.832662746892310679e-05,3.236854681745171547e-04,7.107991259545087814e-04,4.425131250172853470e-03,5.000000000000000000e-01,-2.920968108810484409e-05,0.000000000000000000e+00
2.195794820785522461e+00,6.612713012695312500e+02,1.718993072509765625e+02,1.718993072509765625e+02,7.499547209590673447e-03,-8.936980438232421875e+01,-4.272461519576609135e-04,1.003324091434478760e-01,-9.142817497253417969e+00,6.865451496196328662e-07,-6.481840973719954491e-04,-2.469080314040184021e-02,1.832662746892310679e-05,3.236854681745171547e-04,7.107991259545087814e-04,4.425131250172853470e-03,5.000000000000000000e-01,-2.920968108810484409e-05,0.000000000000000000e+00
2.195794820785522461e+00,6.612713012695312500e+02,1.718993072509765625e+02,1.718993072509765625e+02,7.499547209590673447e-03,-8.936980438232421875e+01,-4.272461519576609135e-04,1.003324091434478760e-01,-9.142817497253417969e+00,6.865451496196328662e-07,-6.481840973719954491e-04,-2.469080314040184021e-02,1.832662746892310679e-05,3.236854681745171547e-04,7.107991259545087814e-04,4.425131250172853470e-03,5.000000000000000000e-01,-2.920968108810484409e-05,0.000000000000000000e+00
2.195794820785522461e+00,6.612713012695312500e+02,1.718993072509765625e+02,1.718993072509765625e+02,7.499547209590673447e-03,-8.936980438232421875e+01,-4.272461519576609135e-04,1.003324091434478760e-01,-9.142817497253417969e+00,6.865451496196328662e-07,-6.481840973719954491e-04,-2.469080314040184021e-02,1.832662746892310679e-05,3.236854681745171547e-04,7.107991259545087814e-04,4.425131250172853470e-03,5.000000000000000000e-01,-2.920968108810484409e-05,0.000000000000000000e+00
2.195794820785522461e+00,6.612713012695312500e+02,1.718993072509765625e+02,1.718993072509765625e+02,7.499547209590673447e-03,-8.936980438232421875e+01,-4.272461519576609135e-04,1.003324091434478760e-01,-9.142817497253417969e+00,6.865451496196328662e-07,-6.481840973719954491e-04,-2.469080314040184021e-02,1.832662746892310679e-05,3.236854681745171547e-04,7.107991259545087814e-04,4.425131250172853470e-03,5.000000000000000000e-01,-2.920968108810484409e-05,0.000000000000000000e+00
2.374083757400512695e+00,6.612766113281250000e+02,1.714140777587890625e+02,1.714140777587890625e+02,7.485887035727500916e-03,-8.936975860595703125e+01,-3.051756939385086298e-04,1.001984402537345886e-01,-9.143604278564453125e+00,6.674834480691060890e-07,-7.514144526794552803e-04,-4.412956535816192627e-03,-1.069146620125138725e-07,3.034171531908214092e-04,1.746275927871465683e-03,-3.936899011023342609e-04,5.000000000000000000e-01,-6.550380203407257795e-05,0.000000000000000000e+00
2.374083757400512695e+00,6.612766113281250000e+02,1.714140777587890625e+02,1.714140777587890625e+02,7.485887035727500916e-03,-8.936975860595703125e+01,-3.051756939385086298e-04,1.001984402537345886e-01,-9.143604278564453125e+00,6.674834480691060890e-07,-7.514144526794552803e-04,-4.412956535816192627e-03,-1.069146620125138725e-07,3.034171531908214092e-04,1.746275927871465683e-03,-3.936899011023342609e-04,5.000000000000000000e-01,-6.550380203407257795e-05,0.000000000000000000e+00
2.374083757400512695e+00,6.612766113281250000e+02,1.714140777587890625e+02,1.714140777587890625e+02,7.485887035727500916e-03,-8.936975860595703125e+01,-3.051756939385086298e-04,1.001984402537345886e-01,-9.143604278564453125e+00,6.674834480691060890e-07,-7.514144526794552803e-04,-4.412956535816192627e-03,-1.069146620125138725e-07,3.034171531908214092e-04,1.746275927871465683e-03,-3.936899011023342609e-04,5.000000000000000000e-01,-6.550380203407257795e-05,0.000000000000000000e+00
2.447860002517700195e+00,6.612864990234375000e+02,1.704996032714843750e+02,1.704996032714843750e+02,7.451735902577638626e-03,-8.937054443359375000e+01,-6.103480700403451920e-05,9.977527707815170288e-02,-9.145071983337402344e+00,3.814061599882734299e-08,-5.735764745622873306e-03,-1.989400200545787811e-02,-8.530426384822931141e-06,3.224836254958063364e-04,1.378385699354112148e-03,-1.197631377726793289e-02,5.000000000000000000e-01,-1.164027635240927339e-04,0.000000000000000000e+00
2.447860002517700195e+00,6.612864990234375000e+02,1.704996032714843750e+02,1.704996032714843750e+02,7.451735902577638626e-03,-8.937054443359375000e+01,-6.103480700403451920e-05,9.977527707815170288e-02,-9.145071983337402344e+00,3.814061599882734299e-08,-5.735764745622873306e-03,-1.989400200545787811e-02,-8.530426384822931141e-06,3.224836254958063364e-04,1.378385699354112148e-03,-1.197631377726793289e-02,5.000000000000000000e-01,-1.164027635240927339e-04,0.000000000000000000e+00
2.500878810882568359e+00,6.612939453125000000e+02,1.698248748779296875e+02,1.698248748779296875e+02,7.424415089190006256e-03,-8.937145996093750000e+01,-6.103522173361852765e-05,9.975525736808776855e-02,-9.146131515502929688e+00,-4.672314162235124968e-07,-3.775963850785046816e-04,-1.998408138751983643e-02,-9.531939213047735393e-06,3.272028698120266199e-04,-4.461148273549042642e-05,-1.285956241190433502e-02,5.000000000000000000e-01,-8.828299178276211023e-05,0.000000000000000000e+00
2.500878810882568359e+00,6.612939453125000000e+02,1.698248748779296875e+02,1.698248748779296875e+02,7.424415089190006256e-03,-8.937145996093750000e+01,-6.103522173361852765e-05,9.975525736808776855e-02,-9.146131515502929688e+00,-4.672314162235124968e-07,-3.775963850785046816e-04,-1.998408138751983643e-02,-9.531939213047735393e-06,3.272028698120266199e-04,-4.461148273549042642e-05,-1.285956241190433502e-02,5.000000000000000000e-01,-8.828299178276211023e-05,0.000000000000000000e+00
2.500878810882568359e+00,6.612939453125000000e+02,1.698248748779296875e+02,1.698248748779296875e+02,7.424415089190006256e-03,-8.937145996093750000e+01,-6.103522173361852765e-05,9.975525736808776855e-02,-9.146131515502929688e+00,-4.672314162235124968e-07,-3.775963850785046816e-04,-1.998408138751983643e-02,-9.531939213047735393e-06,3.272028698120266199e-04,-4.461148273549042642e-05,-1.285956241190433502e-02,5.000000000000000000e-01,-8.828299178276211023e-05,0.000000000000000000e+00
2.560195446014404297e+00,6.612992553710937500e+02,1.693399505615234375e+02,1.693399505615234375e+02,7.410754915326833725e-03,-8.937228393554687500e+01,2.856889841496013105e-05,9.953466802835464478e-02,-9.146884918212890625e+00,-9.535479073008445994e-09,-3.718844382092356682e-03,-1.270137261599302292e-02,7.716147592873312533e-06,2.908896130975335836e-04,1.577119226567447186e-03,-1.597844064235687256e-02,5.000000000000000000e-01,-1.216343443957157433e-04,0.000000000000000000e+00
2.560195446014404297e+00,6.612992553710937500e+02,1.693399505615234375e+02,1.693399505615234375e+02,7.410754915326833725e-03,-8.937228393554687500e+01,2.856889841496013105e-05,9.953466802835464478e-02,-9.146884918212890625e+00,-9.535479073008445994e-09,-3.718844382092356682e-03,-1.270137261599302292e-02,7.716147592873312533e-06,2.908896130975335836e-04,1.577119226567447186e-03,-1.597844064235687256e-02,5.000000000000000000e-01,-1.216343443957157433e-04,0.000000000000000000e+00
2.560195446014404297e+00,6.613052368164062500e+02,1.687973785400390625e+02,1.687973785400390625e+02,7.390264421701431274e-03,-8.937322998046875000e+01,3.100015237578190863e-05,9.949453920125961304e-02,-9.147720336914062500e+00,-6.674729746691809851e-08,-6.855515530332922935e-04,-1.427209842950105667e-02,-9.773933697942993604e-07,3.063145850319415331e-04,-3.067668512812815607e-05,-1.542321033775806427e-02,5.000000000000000000e-01,-9.177071478916332126e-05,0.000000000000000000e+00
2.618730545043945312e+00,6.613052368164062500e+02,1.687973785400390625e+02,1.687973785400390625e+02,7.390264421701431274e-03,-8.937322998046875000e+01,3.100015237578190863e-05,9.949453920125961304e-02,-9.147720336914062500e+00,-6.674729746691809851e-08,-6.855515530332922935e-04,-1.427209842950105667e-02,-9.773933697942993604e-07,3.063145850319415331e-04,-3.067668512812815607e-05,-1.542321033775806427e-02,5.000000000000000000e-01,-9.177071478916332126e-05,0.000000000000000000e+00
2.618730545043945312e+00,6.613109741210937500e+02,1.682651977539062500e+02,1.682651977539062500e+02,-2.165169920772314072e-03,-8.937529754638671875e+01,8.130422065733000636e-05,9.789460897445678711e-02,-9.012043952941894531e+00,8.772519208832818549e-07,-2.730092033743858337e-02,2.315157413482666016e+00,1.610823346709366888e-05,3.965315818786621094e-01,6.913965567946434021e-03,-6.603290140628814697e-02,0.000000000000000000e+00,-9.198870247928425670e-05,1.000000000000000000e+00
2.677334070205688477e+00,6.613109741210937500e+02,1.682651977539062500e+02,1.682651977539062500e+02,-2.165169920772314072e-03,-8.937529754638671875e+01,8.130422065733000636e-05,9.789460897445678711e-02,-9.012043952941894531e+00,8.772519208832818549e-07,-2.730092033743858337e-02,2.315157413482666016e+00,1.610823346709366888e-05,3.965315818786621094e-01,6.913965567946434021e-03,-6.603290140628814697e-02,0.000000000000000000e+00,-9.198870247928425670e-05,1.000000000000000000e+00
2.677334070205688477e+00,6.613109741210937500e+02,1.682651977539062500e+02,1.682651977539062500e+02,-2.165169920772314072e-03,-8.937529754638671875e+01,8.130422065733000636e-05,9.789460897445678711e-02,-9.012043952941894531e+00,8.772519208832818549e-07,-2.730092033743858337e-02,2.315157413482666016e+00,1.610823346709366888e-05,3.965315818786621094e-01,6.913965567946434021e-03,-6.603290140628814697e-02,0.000000000000000000e+00,-9.198870247928425670e-05,1.000000000000000000e+00
2.677334070205688477e+00,6.613109741210937500e+02,1.682651977539062500e+02,1.682651977539062500e+02,-2.165169920772314072e-03,-8.937529754638671875e+01,8.130422065733000636e-05,9.789460897445678711e-02,-9.012043952941894531e+00,8.772519208832818549e-07,-2.730092033743858337e-02,2.315157413482666016e+00,1.610823346709366888e-05,3.965315818786621094e-01,6.913965567946434021e-03,-6.603290140628814697e-02,0.000000000000000000e+00,-9.198870247928425670e-05,1.000000000000000000e+00
2.755024909973144531e+00,6.613166503906250000e+02,1.677534179687500000e+02,1.677534179687500000e+02,-6.339098513126373291e-02,-8.938354492187500000e+01,7.138285436667501926e-04,9.256598353385925293e-02,-8.542243003845214844e+00,4.004845095550990663e-07,-6.858756393194198608e-02,6.047057151794433594e+00,-6.136726369732059538e-06,1.479172348976135254e+00,3.340899199247360229e-02,-1.812744438648223877e-01,0.000000000000000000e+00,-7.978166831890121102e-05,1.000000000000000000e+00
2.755024909973144531e+00,6.613166503906250000e+02,1.677534179687500000e+02,1.677534179687500000e+02,-6.339098513126373291e-02,-8.938354492187500000e+01,7.138285436667501926e-04,9.256598353385925293e-02,-8.542243003845214844e+00,4.004845095550990663e-07,-6.858756393194198608e-02,6.047057151794433594e+00,-6.136726369732059538e-06,1.479172348976135254e+00,3.340899199247360229e-02,-1.812744438648223877e-01,0.000000000000000000e+00,-7.978166831890121102e-05,1.000000000000000000e+00
2.755024909973144531e+00,6.613166503906250000e+02,1.677534179687500000e+02,1.677534179687500000e+02,-6.339098513126373291e-02,-8.938354492187500000e+01,7.138285436667501926e-04,9.256598353385925293e-02,-8.542243003845214844e+00,4.004845095550990663e-07,-6.858756393194198608e-02,6.047057151794433594e+00,-6.136726369732059538e-06,1.479172348976135254e+00,3.340899199247360229e-02,-1.812744438648223877e-01,0.000000000000000000e+00,-7.978166831890121102e-05,1.000000000000000000e+00
2.830169916152954102e+00,6.613236083984375000e+02,1.671298828125000000e+02,1.671298828125000000e+02,-2.381277084350585938e-01,-8.940188598632812500e+01,3.080428577959537506e-03,8.326754719018936157e-02,-7.710126876831054688e+00,-2.879648855014238507e-05,-1.237399056553840637e-01,1.107347202301025391e+01,-3.885417536366730928e-04,2.613827228546142578e+00,7.010395824909210205e-02,-2.657317519187927246e-01,0.000000000000000000e+00,6.125313666416332126e-05,1.000000000000000000e+00
2.830169916152954102e+00,6.613236083984375000e+02,1.671298828125000000e+02,1.671298828125000000e+02,-2.381277084350585938e-01,-8.940188598632812500e+01,3.080428577959537506e-03,8.326754719018936157e-02,-7.710126876831054688e+00,-2.879648855014238507e-05,-1.237399056553840637e-01,1.107347202301025391e+01,-3.885417536366730928e-04,2.613827228546142578e+00,7.010395824909210205e-02,-2.657317519187927246e-01,0.000000000000000000e+00,6.125313666416332126e-05,1.000000000000000000e+00
2.830169916152954102e+00,6.613236083984375000e+02,1.671298828125000000e+02,1.671298828125000000e+02,-2.381277084350585938e-01,-8.940188598632812500e+01,3.080428577959537506e-03,8.326754719018936157e-02,-7.710126876831054688e+00,-2.879648855014238507e-05,-1.237399056553840637e-01,1.107347202301025391e+01,-3.885417536366730928e-04,2.613827228546142578e+00,7.010395824909210205e-02,-2.657317519187927246e-01,0.000000000000000000e+00,6.125313666416332126e-05,1.000000000000000000e+00
2.830169916152954102e+00,6.613236083984375000e+02,1.671298828125000000e+02,1.671298828125000000e+02,-2.381277084350585938e-01,-8.940188598632812500e+01,3.080428577959537506e-03,8.326754719018936157e-02,-7.710126876831054688e+00,-2.879648855014238507e-05,-1.237399056553840637e-01,1.107347202301025391e+01,-3.885417536366730928e-04,2.613827228546142578e+00,7.010395824909210205e-02,-2.657317519187927246e-01,0.000000000000000000e+00,6.125313666416332126e-05,1.000000000000000000e+00
2.830169916152954102e+00,6.613236083984375000e+02,1.671298828125000000e+02,1.671298828125000000e+02,-2.381277084350585938e-01,-8.940188598632812500e+01,3.080428577959537506e-03,8.326754719018936157e-02,-7.710126876831054688e+00,-2.879648855014238507e-05,-1.237399056553840637e-01,1.107347202301025391e+01,-3.885417536366730928e-04,2.613827228546142578e+00,7.010395824909210205e-02,-2.657317519187927246e-01,0.000000000000000000e+00,6.125313666416332126e-05,1.000000000000000000e+00
2.917726278305053711e+00,6.613296508789062500e+02,1.665882720947265625e+02,1.665882720947265625e+02,-4.486956000328063965e-01,-8.942269134521484375e+01,6.292451173067092896e-03,7.462345063686370850e-02,-6.911264419555664062e+00,-1.048598060151562095e-04,-9.872607886791229248e-02,9.123979568481445312e+00,-8.687354275025427341e-04,2.849119901657104492e+00,7.938988506793975830e-02,-2.827362716197967529e-01,0.000000000000000000e+00,3.784179571084678173e-04,1.000000000000000000e+00
