# Time,X,Y,Z,Roll,Pitch,Yaw,Vx,Vy,Vz,Ax,Ay,Az,Wx,Wy,Wz,Throttle,Steer,Brake
0.000000000000000000e+00,1.972321319580078125e+02,4.171264648437500000e+01,4.171264648437500000e+01,-3.677646815776824951e-01,-5.392455309629440308e-02,-3.051758903893642128e-05,1.743472099304199219e+01,-1.642091758549213409e-02,-5.206325295148417354e-05,-1.149094581604003906e+00,1.270861714147031307e-03,-1.665763324126601219e-03,-4.026941955089569092e-03,-2.428367853164672852e+00,1.128220232203602791e-03,1.000000000000000000e+00,4.903351054963422939e-06,0.000000000000000000e+00
1.045818328857421875e-01,1.972321319580078125e+02,4.171264648437500000e+01,4.171264648437500000e+01,-3.677646815776824951e-01,-5.392455309629440308e-02,-3.051758903893642128e-05,1.743472099304199219e+01,-1.642091758549213409e-02,-5.206325295148417354e-05,-1.149094581604003906e+00,1.270861714147031307e-03,-1.665763324126601219e-03,-4.026941955089569092e-03,-2.428367853164672852e+00,1.128220232203602791e-03,1.000000000000000000e+00,4.903351054963422939e-06,0.000000000000000000e+00
1.045818328857421875e-01,1.972321319580078125e+02,4.171264648437500000e+01,4.171264648437500000e+01,-3.677646815776824951e-01,-5.392455309629440308e-02,-3.051758903893642128e-05,1.743472099304199219e+01,-1.642091758549213409e-02,-5.206325295148417354e-05,-1.149094581604003906e+00,1.270861714147031307e-03,-1.665763324126601219e-03,-4.026941955089569092e-03,-2.428367853164672852e+00,1.128220232203602791e-03,1.000000000000000000e+00,4.903351054963422939e-06,0.000000000000000000e+00
1.045818328857421875e-01,1.972321319580078125e+02,4.171264648437500000e+01,4.171264648437500000e+01,-3.677646815776824951e-01,-5.392455309629440308e-02,-3.051758903893642128e-05,1.743472099304199219e+01,-1.642091758549213409e-02,-5.206325295148417354e-05,-1.149094581604003906e+00,1.270861714147031307e-03,-1.665763324126601219e-03,-4.026941955089569092e-03,-2.428367853164672852e+00,1.128220232203602791e-03,1.000000000000000000e+00,4.903351054963422939e-06,0.000000000000000000e+00
1.045818328857421875e-01,1.972321319580078125e+02,4.171264648437500000e+01,4.171264648437500000e+01,-3.677646815776824951e-01,-5.392455309629440308e-02,-3.051758903893642128e-05,1.743472099304199219e+01,-1.642091758549213409e-02,-5.206325295148417354e-05,-1.149094581604003906e+00,1.270861714147031307e-03,-1.665763324126601219e-03,-4.026941955089569092e-03,-2.428367853164672852e+00,1.128220232203602791e-03,1.000000000000000000e+00,4.903351054963422939e-06,0.000000000000000000e+00
1.045818328857421875e-01,1.972321319580078125e+02,4.171264648437500000e+01,4.171264648437500000e+01,-3.677646815776824951e-01,-5.392455309629440308e-02,-3.051758903893642128e-05,1.743472099304199219e+01,-1.642091758549213409e-02,-5.206325295148417354e-05,-1.149094581604003906e+00,1.270861714147031307e-03,-1.665763324126601219e-03,-4.026941955089569092e-03,-2.428367853164672852e+00,1.128220232203602791e-03,1.000000000000000000e+00,4.903351054963422939e-06,0.000000000000000000e+00
1.045818328857421875e-01,1.989685058593750000e+02,4.171100616455078125e+01,4.171100616455078125e+01,-1.533513963222503662e-01,-5.371093004941940308e-02,1.777179131750017405e-04,1.729481697082519531e+01,-1.624727062880992889e-02,-2.566672628745436668e-04,-1.336123347282409668e+00,1.658377936109900475e-03,-1.954026520252227783e-03,-4.122464917600154877e-03,-1.866406559944152832e+00,2.570159966126084328e-03,1.000000000000000000e+00,1.030713337968336418e-05,0.000000000000000000e+00
2.092907428741455078e-01,1.989685058593750000e+02,4.171100616455078125e+01,4.171100616455078125e+01,-1.533513963222503662e-01,-5.371093004941940308e-02,1.777179131750017405e-04,1.729481697082519531e+01,-1.624727062880992889e-02,-2.566672628745436668e-04,-1.336123347282409668e+00,1.658377936109900475e-03,-1.954026520252227783e-03,-4.122464917600154877e-03,-1.866406559944152832e+00,2.570159966126084328e-03,1.000000000000000000e+00,1.030713337968336418e-05,0.000000000000000000e+00
2.092907428741455078e-01,1.989685058593750000e+02,4.171100616455078125e+01,4.171100616455078125e+01,-1.533513963222503662e-01,-5.371093004941940308e-02,1.777179131750017405e-04,1.729481697082519531e+01,-1.624727062880992889e-02,-2.566672628745436668e-04,-1.336123347282409668e+00,1.658377936109900475e-03,-1.954026520252227783e-03,-4.122464917600154877e-03,-1.866406559944152832e+00,2.570159966126084328e-03,1.000000000000000000e+00,1.030713337968336418e-05,0.000000000000000000e+00
2.092907428741455078e-01,1.989685058593750000e+02,4.171100616455078125e+01,4.171100616455078125e+01,-1.533513963222503662e-01,-5.371093004941940308e-02,1.777179131750017405e-04,1.729481697082519531e+01,-1.624727062880992889e-02,-2.566672628745436668e-04,-1.336123347282409668e+00,1.658377936109900475e-03,-1.954026520252227783e-03,-4.122464917600154877e-03,-1.866406559944152832e+00,2.570159966126084328e-03,1.000000000000000000e+00,1.030713337968336418e-05,0.000000000000000000e+00
2.092907428741455078e-01,1.989685058593750000e+02,4.171100616455078125e+01,4.171100616455078125e+01,-1.533513963222503662e-01,-5.371093004941940308e-02,1.777179131750017405e-04,1.729481697082519531e+01,-1.624727062880992889e-02,-2.566672628745436668e-04,-1.336123347282409668e+00,1.658377936109900475e-03,-1.954026520252227783e-03,-4.122464917600154877e-03,-1.866406559944152832e+00,2.570159966126084328e-03,1.000000000000000000e+00,1.030713337968336418e-05,0.000000000000000000e+00
2.092907428741455078e-01,2.007021636962890625e+02,4.170988082885742188e+01,4.170988082885742188e+01,-1.158195137977600098e-01,-2.294921875000000000e-02,8.631460368633270264e-03,1.744270896911621094e+01,-1.171483471989631653e-02,-3.909413062501698732e-04,1.981972932815551758e+00,6.074138730764389038e-02,-1.799472025595605373e-03,-1.452629268169403076e-01,1.175165414810180664e+00,4.067308306694030762e-01,1.000000000000000000e+00,2.932315459474921227e-03,0.000000000000000000e+00
2.839093208312988281e-01,2.007021636962890625e+02,4.170988082885742188e+01,4.170988082885742188e+01,-1.158195137977600098e-01,-2.294921875000000000e-02,8.631460368633270264e-03,1.744270896911621094e+01,-1.171483471989631653e-02,-3.909413062501698732e-04,1.981972932815551758e+00,6.074138730764389038e-02,-1.799472025595605373e-03,-1.452629268169403076e-01,1.175165414810180664e+00,4.067308306694030762e-01,1.000000000000000000e+00,2.932315459474921227e-03,0.000000000000000000e+00
2.839093208312988281e-01,2.007021636962890625e+02,4.170988082885742188e+01,4.170988082885742188e+01,-1.158195137977600098e-01,-2.294921875000000000e-02,8.631460368633270264e-03,1.744270896911621094e+01,-1.171483471989631653e-02,-3.909413062501698732e-04,1.981972932815551758e+00,6.074138730764389038e-02,-1.799472025595605373e-03,-1.452629268169403076e-01,1.175165414810180664e+00,4.067308306694030762e-01,1.000000000000000000e+00,2.932315459474921227e-03,0.000000000000000000e+00
2.839093208312988281e-01,2.007021636962890625e+02,4.170988082885742188e+01,4.170988082885742188e+01,-1.158195137977600098e-01,-2.294921875000000000e-02,8.631460368633270264e-03,1.744270896911621094e+01,-1.171483471989631653e-02,-3.909413062501698732e-04,1.981972932815551758e+00,6.074138730764389038e-02,-1.799472025595605373e-03,-1.452629268169403076e-01,1.175165414810180664e+00,4.067308306694030762e-01,1.000000000000000000e+00,2.932315459474921227e-03,0.000000000000000000e+00
2.839093208312988281e-01,2.007021636962890625e+02,4.170988082885742188e+01,4.170988082885742188e+01,-1.158195137977600098e-01,-2.294921875000000000e-02,8.631460368633270264e-03,1.744270896911621094e+01,-1.171483471989631653e-02,-3.909413062501698732e-04,1.981972932815551758e+00,6.074138730764389038e-02,-1.799472025595605373e-03,-1.452629268169403076e-01,1.175165414810180664e+00,4.067308306694030762e-01,1.000000000000000000e+00,2.932315459474921227e-03,0.000000000000000000e+00
3.569011688232421875e-01,2.020129089355468750e+02,4.170989990234375000e+01,4.170989990234375000e+01,-2.705642580986022949e-01,3.601354360580444336e-02,3.208879753947257996e-02,1.766608619689941406e+01,-9.951269021257758141e-04,-3.804115985985845327e-04,3.060303688049316406e+00,1.468617171049118042e-01,1.442586799385026097e-04,-4.416207373142242432e-01,2.487961053848266602e+00,1.009666562080383301e+00,1.000000000000000000e+00,9.121696464717388153e-03,0.000000000000000000e+00
3.569011688232421875e-01,2.020129089355468750e+02,4.170989990234375000e+01,4.170989990234375000e+01,-2.705642580986022949e-01,3.601354360580444336e-02,3.208879753947257996e-02,1.766608619689941406e+01,-9.951269021257758141e-04,-3.804115985985845327e-04,3.060303688049316406e+00,1.468617171049118042e-01,1.442586799385026097e-04,-4.416207373142242432e-01,2.487961053848266602e+00,1.009666562080383301e+00,1.000000000000000000e+00,9.121696464717388153e-03,0.000000000000000000e+00
3.569011688232421875e-01,2.020129089355468750e+02,4.170989990234375000e+01,4.170989990234375000e+01,-2.705642580986022949e-01,3.601354360580444336e-02,3.208879753947257996e-02,1.766608619689941406e+01,-9.951269021257758141e-04,-3.804115985985845327e-04,3.060303688049316406e+00,1.468617171049118042e-01,1.442586799385026097e-04,-4.416207373142242432e-01,2.487961053848266602e+00,1.009666562080383301e+00,1.000000000000000000e+00,9.121696464717388153e-03,0.000000000000000000e+00
3.569011688232421875e-01,2.020129089355468750e+02,4.170989990234375000e+01,4.170989990234375000e+01,-2.705642580986022949e-01,3.601354360580444336e-02,3.208879753947257996e-02,1.766608619689941406e+01,-9.951269021257758141e-04,-3.804115985985845327e-04,3.060303688049316406e+00,1.468617171049118042e-01,1.442586799385026097e-04,-4.416207373142242432e-01,2.487961053848266602e+00,1.009666562080383301e+00,1.000000000000000000e+00,9.121696464717388153e-03,0.000000000000000000e+00
4.765405654907226562e-01,2.033112487792968750e+02,4.171152114868164062e+01,4.171152114868164062e+01,-4.639269113540649414e-01,1.483557224273681641e-01,8.614780008792877197e-02,1.789061927795410156e+01,2.071995660662651062e-02,-2.576642436906695366e-04,1.876748681068420410e+00,1.815044581890106201e-01,1.025977777317166328e-03,-9.675659537315368652e-01,2.647953271865844727e+00,1.841808676719665527e+00,1.000000000000000000e+00,1.508954539895057678e-02,0.000000000000000000e+00
4.765405654907226562e-01,2.033112487792968750e+02,4.171152114868164062e+01,4.171152114868164062e+01,-4.639269113540649414e-01,1.483557224273681641e-01,8.614780008792877197e-02,1.789061927795410156e+01,2.071995660662651062e-02,-2.576642436906695366e-04,1.876748681068420410e+00,1.815044581890106201e-01,1.025977777317166328e-03,-9.675659537315368652e-01,2.647953271865844727e+00,1.841808676719665527e+00,1.000000000000000000e+00,1.508954539895057678e-02,0.000000000000000000e+00
4.765405654907226562e-01,2.033112487792968750e+02,4.171152114868164062e+01,4.171152114868164062e+01,-4.639269113540649414e-01,1.483557224273681641e-01,8.614780008792877197e-02,1.789061927795410156e+01,2.071995660662651062e-02,-2.576642436906695366e-04,1.876748681068420410e+00,1.815044581890106201e-01,1.025977777317166328e-03,-9.675659537315368652e-01,2.647953271865844727e+00,1.841808676719665527e+00,1.000000000000000000e+00,1.508954539895057678e-02,0.000000000000000000e+00
4.765405654907226562e-01,2.033112487792968750e+02,4.171152114868164062e+01,4.171152114868164062e+01,-4.639269113540649414e-01,1.483557224273681641e-01,8.614780008792877197e-02,1.789061927795410156e+01,2.071995660662651062e-02,-2.576642436906695366e-04,1.876748681068420410e+00,1.815044581890106201e-01,1.025977777317166328e-03,-9.675659537315368652e-01,2.647953271865844727e+00,1.841808676719665527e+00,1.000000000000000000e+00,1.508954539895057678e-02,0.000000000000000000e+00
4.765405654907226562e-01,2.033112487792968750e+02,4.171152114868164062e+01,4.171152114868164062e+01,-4.639269113540649414e-01,1.483557224273681641e-01,8.614780008792877197e-02,1.789061927795410156e+01,2.071995660662651062e-02,-2.576642436906695366e-04,1.876748681068420410e+00,1.815044581890106201e-01,1.025977777317166328e-03,-9.675659537315368652e-01,2.647953271865844727e+00,1.841808676719665527e+00,1.000000000000000000e+00,1.508954539895057678e-02,0.000000000000000000e+00
4.765405654907226562e-01,2.033112487792968750e+02,4.171152114868164062e+01,4.171152114868164062e+01,-4.639269113540649414e-01,1.483557224273681641e-01,8.614780008792877197e-02,1.789061927795410156e+01,2.071995660662651062e-02,-2.576642436906695366e-04,1.876748681068420410e+00,1.815044581890106201e-01,1.025977777317166328e-03,-9.675659537315368652e-01,2.647953271865844727e+00,1.841808676719665527e+00,1.000000000000000000e+00,1.508954539895057678e-02,0.000000000000000000e+00
4.765405654907226562e-01,2.033112487792968750e+02,4.171152114868164062e+01,4.171152114868164062e+01,-4.639269113540649414e-01,1.483557224273681641e-01,8.614780008792877197e-02,1.789061927795410156e+01,2.071995660662651062e-02,-2.576642436906695366e-04,1.876748681068420410e+00,1.815044581890106201e-01,1.025977777317166328e-03,-9.675659537315368652e-01,2.647953271865844727e+00,1.841808676719665527e+00,1.000000000000000000e+00,1.508954539895057678e-02,0.000000000000000000e+00
6.200885772705078125e-01,2.051171875000000000e+02,4.171798324584960938e+01,4.171798324584960938e+01,-6.988512277603149414e-01,3.879165053367614746e-01,2.412033081054687500e-01,1.819908332824707031e+01,7.353932410478591919e-02,-7.218110840767621994e-05,2.148856401443481445e+00,3.679561018943786621e-01,1.292133121751248837e-03,-2.006324529647827148e+00,2.000562191009521484e+00,2.699764966964721680e+00,1.000000000000000000e+00,1.842793449759483337e-02,0.000000000000000000e+00
6.200885772705078125e-01,2.051171875000000000e+02,4.171798324584960938e+01,4.171798324584960938e+01,-6.988512277603149414e-01,3.879165053367614746e-01,2.412033081054687500e-01,1.819908332824707031e+01,7.353932410478591919e-02,-7.218110840767621994e-05,2.148856401443481445e+00,3.679561018943786621e-01,1.292133121751248837e-03,-2.006324529647827148e+00,2.000562191009521484e+00,2.699764966964721680e+00,1.000000000000000000e+00,1.842793449759483337e-02,0.000000000000000000e+00
6.200885772705078125e-01,2.051171875000000000e+02,4.171798324584960938e+01,4.171798324584960938e+01,-6.988512277603149414e-01,3.879165053367614746e-01,2.412033081054687500e-01,1.819908332824707031e+01,7.353932410478591919e-02,-7.218110840767621994e-05,2.148856401443481445e+00,3.679561018943786621e-01,1.292133121751248837e-03,-2.006324529647827148e+00,2.000562191009521484e+00,2.699764966964721680e+00,1.000000000000000000e+00,1.842793449759483337e-02,0.000000000000000000e+00
6.200885772705078125e-01,2.051171875000000000e+02,4.171798324584960938e+01,4.171798324584960938e+01,-6.988512277603149414e-01,3.879165053367614746e-01,2.412033081054687500e-01,1.819908332824707031e+01,7.353932410478591919e-02,-7.218110840767621994e-05,2.148856401443481445e+00,3.679561018943786621e-01,1.292133121751248837e-03,-2.006324529647827148e+00,2.000562191009521484e+00,2.699764966964721680e+00,1.000000000000000000e+00,1.842793449759483337e-02,0.000000000000000000e+00
6.200885772705078125e-01,2.051171875000000000e+02,4.171798324584960938e+01,4.171798324584960938e+01,-6.988512277603149414e-01,3.879165053367614746e-01,2.412033081054687500e-01,1.819908332824707031e+01,7.353932410478591919e-02,-7.218110840767621994e-05,2.148856401443481445e+00,3.679561018943786621e-01,1.292133121751248837e-03,-2.006324529647827148e+00,2.000562191009521484e+00,2.699764966964721680e+00,1.000000000000000000e+00,1.842793449759483337e-02,0.000000000000000000e+00
6.200885772705078125e-01,2.051171875000000000e+02,4.171798324584960938e+01,4.171798324584960938e+01,-6.988512277603149414e-01,3.879165053367614746e-01,2.412033081054687500e-01,1.819908332824707031e+01,7.353932410478591919e-02,-7.218110840767621994e-05,2.148856401443481445e+00,3.679561018943786621e-01,1.292133121751248837e-03,-2.006324529647827148e+00,2.000562191009521484e+00,2.699764966964721680e+00,1.000000000000000000e+00,1.842793449759483337e-02,0.000000000000000000e+00
7.946169376373291016e-01,2.069541625976562500e+02,4.173134613037109375e+01,4.173134613037109375e+01,-8.464038372039794922e-01,6.863046288490295410e-01,5.050219893455505371e-01,1.850276184082031250e+01,1.531144380569458008e-01,1.021787029458209872e-04,1.739995241165161133e+00,4.559437334537506104e-01,9.990342659875750542e-04,-3.075844764709472656e+00,1.066632151603698730e+00,3.151489257812500000e+00,1.000000000000000000e+00,2.127313055098056793e-02,0.000000000000000000e+00
7.946169376373291016e-01,2.069541625976562500e+02,4.173134613037109375e+01,4.173134613037109375e+01,-8.464038372039794922e-01,6.863046288490295410e-01,5.050219893455505371e-01,1.850276184082031250e+01,1.531144380569458008e-01,1.021787029458209872e-04,1.739995241165161133e+00,4.559437334537506104e-01,9.990342659875750542e-04,-3.075844764709472656e+00,1.066632151603698730e+00,3.151489257812500000e+00,1.000000000000000000e+00,2.127313055098056793e-02,0.000000000000000000e+00
7.946169376373291016e-01,2.069541625976562500e+02,4.173134613037109375e+01,4.173134613037109375e+01,-8.464038372039794922e-01,6.863046288490295410e-01,5.050219893455505371e-01,1.850276184082031250e+01,1.531144380569458008e-01,1.021787029458209872e-04,1.739995241165161133e+00,4.559437334537506104e-01,9.990342659875750542e-04,-3.075844764709472656e+00,1.066632151603698730e+00,3.151489257812500000e+00,1.000000000000000000e+00,2.127313055098056793e-02,0.000000000000000000e+00
7.946169376373291016e-01,2.069541625976562500e+02,4.173134613037109375e+01,4.173134613037109375e+01,-8.464038372039794922e-01,6.863046288490295410e-01,5.050219893455505371e-01,1.850276184082031250e+01,1.531144380569458008e-01,1.021787029458209872e-04,1.739995241165161133e+00,4.559437334537506104e-01,9.990342659875750542e-04,-3.075844764709472656e+00,1.066632151603698730e+00,3.151489257812500000e+00,1.000000000000000000e+00,2.127313055098056793e-02,0.000000000000000000e+00
8.783230781555175781e-01,2.088214416503906250e+02,4.175338745117187500e+01,4.175338745117187500e+01,-9.132645726203918457e-01,9.914163351058959961e-01,8.508877158164978027e-01,1.879876327514648438e+01,2.492135018110275269e-01,1.413681893609464169e-04,3.536197423934936523e+00,1.148052811622619629e+00,4.681793507188558578e-04,-3.650189161300659180e+00,3.390256166458129883e-01,3.028834342956542969e+00,1.000000000000000000e+00,2.070133574306964874e-02,0.000000000000000000e+00
8.783230781555175781e-01,2.088214416503906250e+02,4.175338745117187500e+01,4.175338745117187500e+01,-9.132645726203918457e-01,9.914163351058959961e-01,8.508877158164978027e-01,1.879876327514648438e+01,2.492135018110275269e-01,1.413681893609464169e-04,3.536197423934936523e+00,1.148052811622619629e+00,4.681793507188558578e-04,-3.650189161300659180e+00,3.390256166458129883e-01,3.028834342956542969e+00,1.000000000000000000e+00,2.070133574306964874e-02,0.000000000000000000e+00
9.483780860900878906e-01,2.104068298339843750e+02,4.177843093872070312e+01,4.177843093872070312e+01,-9.275805950164794922e-01,1.181847453117370605e+00,1.140150666236877441e+00,1.904113388061523438e+01,3.259831964969635010e-01,8.752554276725277305e-05,3.459718465805053711e+00,1.095848798751831055e+00,-7.685766904614865780e-04,-3.252854347229003906e+00,-2.426864393055438995e-02,1.891326427459716797e+00,1.000000000000000000e+00,1.007477473467588425e-02,0.000000000000000000e+00
9.483780860900878906e-01,2.104068298339843750e+02,4.177843093872070312e+01,4.177843093872070312e+01,-9.275805950164794922e-01,1.181847453117370605e+00,1.140150666236877441e+00,1.904113388061523438e+01,3.259831964969635010e-01,8.752554276725277305e-05,3.459718465805053711e+00,1.095848798751831055e+00,-7.685766904614865780e-04,-3.252854347229003906e+00,-2.426864393055438995e-02,1.891326427459716797e+00,1.000000000000000000e+00,1.007477473467588425e-02,0.000000000000000000e+00
9.483780860900878906e-01,2.104068298339843750e+02,4.177843093872070312e+01,4.177843093872070312e+01,-9.275805950164794922e-01,1.181847453117370605e+00,1.140150666236877441e+00,1.904113388061523438e+01,3.259831964969635010e-01,8.752554276725277305e-05,3.459718465805053711e+00,1.095848798751831055e+00,-7.685766904614865780e-04,-3.252854347229003906e+00,-2.426864393055438995e-02,1.891326427459716797e+00,1.000000000000000000e+00,1.007477473467588425e-02,0.000000000000000000e+00
9.483780860900878906e-01,2.104068298339843750e+02,4.177843093872070312e+01,4.177843093872070312e+01,-9.275805950164794922e-01,1.181847453117370605e+00,1.140150666236877441e+00,1.904113388061523438e+01,3.259831964969635010e-01,8.752554276725277305e-05,3.459718465805053711e+00,1.095848798751831055e+00,-7.685766904614865780e-04,-3.252854347229003906e+00,-2.426864393055438995e-02,1.891326427459716797e+00,1.000000000000000000e+00,1.007477473467588425e-02,0.000000000000000000e+00
9.483780860900878906e-01,2.117492065429687500e+02,4.180286026000976562e+01,4.180286026000976562e+01,-9.232707619667053223e-01,1.229897379875183105e+00,1.322919487953186035e+00,1.924110794067382812e+01,3.719007670879364014e-01,5.828040593769401312e-05,2.537773609161376953e+00,5.827175974845886230e-01,-3.711358294822275639e-04,-2.088559150695800781e+00,-1.608286052942276001e-01,5.218717828392982483e-02,1.000000000000000000e+00,-6.454010959714651108e-03,0.000000000000000000e+00
1.027177095413208008e+00,2.117492065429687500e+02,4.180286026000976562e+01,4.180286026000976562e+01,-9.232707619667053223e-01,1.229897379875183105e+00,1.322919487953186035e+00,1.924110794067382812e+01,3.719007670879364014e-01,5.828040593769401312e-05,2.537773609161376953e+00,5.827175974845886230e-01,-3.711358294822275639e-04,-2.088559150695800781e+00,-1.608286052942276001e-01,5.218717828392982483e-02,1.000000000000000000e+00,-6.454010959714651108e-03,0.000000000000000000e+00
1.027177095413208008e+00,2.117492065429687500e+02,4.180286026000976562e+01,4.180286026000976562e+01,-9.232707619667053223e-01,1.229897379875183105e+00,1.322919487953186035e+00,1.924110794067382812e+01,3.719007670879364014e-01,5.828040593769401312e-05,2.537773609161376953e+00,5.827175974845886230e-01,-3.711358294822275639e-04,-2.088559150695800781e+00,-1.608286052942276001e-01,5.218717828392982483e-02,1.000000000000000000e+00,-6.454010959714651108e-03,0.000000000000000000e+00
1.095043420791625977e+00,2.132760467529296875e+02,4.183176803588867188e+01,4.183176803588867188e+01,-9.101499915122985840e-01,1.114300847053527832e+00,1.383162260055541992e+00,1.946397972106933594e+01,3.875775933265686035e-01,1.290499349124729633e-04,3.283981800079345703e+00,2.309956550598144531e-01,1.042778254486620426e-03,2.540595531463623047e-01,-1.797676086425781250e-01,-2.278953075408935547e+00,1.000000000000000000e+00,-2.026117034256458282e-02,0.000000000000000000e+00
1.095043420791625977e+00,2.132760467529296875e+02,4.183176803588867188e+01,4.183176803588867188e+01,-9.101499915122985840e-01,1.114300847053527832e+00,1.383162260055541992e+00,1.946397972106933594e+01,3.875775933265686035e-01,1.290499349124729633e-04,3.283981800079345703e+00,2.309956550598144531e-01,1.042778254486620426e-03,2.540595531463623047e-01,-1.797676086425781250e-01,-2.278953075408935547e+00,1.000000000000000000e+00,-2.026117034256458282e-02,0.000000000000000000e+00
1.095043420791625977e+00,2.132760467529296875e+02,4.183176803588867188e+01,4.183176803588867188e+01,-9.101499915122985840e-01,1.114300847053527832e+00,1.383162260055541992e+00,1.946397972106933594e+01,3.875775933265686035e-01,1.290499349124729633e-04,3.283981800079345703e+00,2.309956550598144531e-01,1.042778254486620426e-03,2.540595531463623047e-01,-1.797676086425781250e-01,-2.278953075408935547e+00,1.000000000000000000e+00,-2.026117034256458282e-02,0.000000000000000000e+00
1.095043420791625977e+00,2.132760467529296875e+02,4.183176803588867188e+01,4.183176803588867188e+01,-9.101499915122985840e-01,1.114300847053527832e+00,1.383162260055541992e+00,1.946397972106933594e+01,3.875775933265686035e-01,1.290499349124729633e-04,3.283981800079345703e+00,2.309956550598144531e-01,1.042778254486620426e-03,2.540595531463623047e-01,-1.797676086425781250e-01,-2.278953075408935547e+00,1.000000000000000000e+00,-2.026117034256458282e-02,0.000000000000000000e+00
1.168572425842285156e+00,2.146048431396484375e+02,4.185582351684570312e+01,4.185582351684570312e+01,-8.980673551559448242e-01,8.990846276283264160e-01,1.258893489837646484e+00,1.965463256835937500e+01,3.633017539978027344e-01,2.998707932420074940e-04,2.592892885208129883e+00,-3.301532268524169922e-01,2.323176478967070580e-03,2.928562164306640625e+00,-1.220712587237358093e-01,-3.686837196350097656e+00,1.000000000000000000e+00,-2.601023204624652863e-02,0.000000000000000000e+00
1.168572425842285156e+00,2.146048431396484375e+02,4.185582351684570312e+01,4.185582351684570312e+01,-8.980673551559448242e-01,8.990846276283264160e-01,1.258893489837646484e+00,1.965463256835937500e+01,3.633017539978027344e-01,2.998707932420074940e-04,2.592892885208129883e+00,-3.301532268524169922e-01,2.323176478967070580e-03,2.928562164306640625e+00,-1.220712587237358093e-01,-3.686837196350097656e+00,1.000000000000000000e+00,-2.601023204624652863e-02,0.000000000000000000e+00
1.168572425842285156e+00,2.146048431396484375e+02,4.185582351684570312e+01,4.185582351684570312e+01,-8.980673551559448242e-01,8.990846276283264160e-01,1.258893489837646484e+00,1.965463256835937500e+01,3.633017539978027344e-01,2.998707932420074940e-04,2.592892885208129883e+00,-3.301532268524169922e-01,2.323176478967070580e-03,2.928562164306640625e+00,-1.220712587237358093e-01,-3.686837196350097656e+00,1.000000000000000000e+00,-2.601023204624652863e-02,0.000000000000000000e+00
1.168572425842285156e+00,2.146048431396484375e+02,4.185582351684570312e+01,4.185582351684570312e+01,-8.980673551559448242e-01,8.990846276283264160e-01,1.258893489837646484e+00,1.965463256835937500e+01,3.633017539978027344e-01,2.998707932420074940e-04,2.592892885208129883e+00,-3.301532268524169922e-01,2.323176478967070580e-03,2.928562164306640625e+00,-1.220712587237358093e-01,-3.686837196350097656e+00,1.000000000000000000e+00,-2.601023204624652863e-02,0.000000000000000000e+00
1.168572425842285156e+00,2.160591430664062500e+02,4.187858963012695312e+01,4.187858963012695312e+01,-8.877264857292175293e-01,5.807430744171142578e-01,9.068182110786437988e-01,1.985987281799316406e+01,2.987258732318878174e-01,5.180169246159493923e-04,2.734770059585571289e+00,-8.604559302330017090e-01,2.906737383455038071e-03,5.989137649536132812e+00,-5.197384953498840332e-02,-4.751789569854736328e+00,1.000000000000000000e+00,-3.184888511896133423e-02,0.000000000000000000e+00
1.243620872497558594e+00,2.160591430664062500e+02,4.187858963012695312e+01,4.187858963012695312e+01,-8.877264857292175293e-01,5.807430744171142578e-01,9.068182110786437988e-01,1.985987281799316406e+01,2.987258732318878174e-01,5.180169246159493923e-04,2.734770059585571289e+00,-8.604559302330017090e-01,2.906737383455038071e-03,5.989137649536132812e+00,-5.197384953498840332e-02,-4.751789569854736328e+00,1.000000000000000000e+00,-3.184888511896133423e-02,0.000000000000000000e+00
1.243620872497558594e+00,2.160591430664062500e+02,4.187858963012695312e+01,4.187858963012695312e+01,-8.877264857292175293e-01,5.807430744171142578e-01,9.068182110786437988e-01,1.985987281799316406e+01,2.987258732318878174e-01,5.180169246159493923e-04,2.734770059585571289e+00,-8.604559302330017090e-01,2.906737383455038071e-03,5.989137649536132812e+00,-5.197384953498840332e-02,-4.751789569854736328e+00,1.000000000000000000e+00,-3.184888511896133423e-02,0.000000000000000000e+00
1.243620872497558594e+00,2.160591430664062500e+02,4.187858963012695312e+01,4.187858963012695312e+01,-8.877264857292175293e-01,5.807430744171142578e-01,9.068182110786437988e-01,1.985987281799316406e+01,2.987258732318878174e-01,5.180169246159493923e-04,2.734770059585571289e+00,-8.604559302330017090e-01,2.906737383455038071e-03,5.989137649536132812e+00,-5.197384953498840332e-02,-4.751789569854736328e+00,1.000000000000000000e+00,-3.184888511896133423e-02,0.000000000000000000e+00
1.312042951583862305e+00,2.175589599609375000e+02,4.189580535888671875e+01,4.189580535888671875e+01,-8.820437788963317871e-01,1.967444121837615967e-01,3.318428397178649902e-01,2.006744384765625000e+01,1.981776207685470581e-01,5.709458491764962673e-04,3.033684968948364258e+00,-1.469529390335083008e+00,7.735650287941098213e-04,8.663910865783691406e+00,-1.228458341211080551e-02,-5.453167915344238281e+00,1.000000000000000000e+00,-3.703746944665908813e-02,0.000000000000000000e+00
1.312042951583862305e+00,2.175589599609375000e+02,4.189580535888671875e+01,4.189580535888671875e+01,-8.820437788963317871e-01,1.967444121837615967e-01,3.318428397178649902e-01,2.006744384765625000e+01,1.981776207685470581e-01,5.709458491764962673e-04,3.033684968948364258e+00,-1.469529390335083008e+00,7.735650287941098213e-04,8.663910865783691406e+00,-1.228458341211080551e-02,-5.453167915344238281e+00,1.000000000000000000e+00,-3.703746944665908813e-02,0.000000000000000000e+00
1.312042951583862305e+00,2.189396972656250000e+02,4.190497970581054688e+01,4.190497970581054688e+01,-8.808894753456115723e-01,-1.426696628332138062e-01,-3.215026855468750000e-01,2.025482368469238281e+01,9.059743583202362061e-02,3.290011954959481955e-04,2.635944604873657227e+00,-1.513372063636779785e+00,-3.403529059141874313e-03,1.003512382507324219e+01,-2.069752849638462067e-02,-4.860725402832031250e+00,1.000000000000000000e+00,-2.787129953503608704e-02,0.000000000000000000e+00
1.383129358291625977e+00,2.189396972656250000e+02,4.190497970581054688e+01,4.190497970581054688e+01,-8.808894753456115723e-01,-1.426696628332138062e-01,-3.215026855468750000e-01,2.025482368469238281e+01,9.059743583202362061e-02,3.290011954959481955e-04,2.635944604873657227e+00,-1.513372063636779785e+00,-3.403529059141874313e-03,1.003512382507324219e+01,-2.069752849638462067e-02,-4.860725402832031250e+00,1.000000000000000000e+00,-2.787129953503608704e-02,0.000000000000000000e+00
1.383129358291625977e+00,2.189396972656250000e+02,4.190497970581054688e+01,4.190497970581054688e+01,-8.808894753456115723e-01,-1.426696628332138062e-01,-3.215026855468750000e-01,2.025482368469238281e+01,9.059743583202362061e-02,3.290011954959481955e-04,2.635944604873657227e+00,-1.513372063636779785e+00,-3.403529059141874313e-03,1.003512382507324219e+01,-2.069752849638462067e-02,-4.860725402832031250e+00,1.000000000000000000e+00,-2.787129953503608704e-02,0.000000000000000000e+00
1.450951814651489258e+00,2.203877716064453125e+02,4.190778732299804688e+01,4.190778732299804688e+01,-8.814085721969604492e-01,-4.011230468750000000e-01,-1.044647336006164551e+00,2.044754028320312500e+01,-1.881103403866291046e-02,-1.735344994813203812e-04,2.841486692428588867e+00,-1.613159894943237305e+00,-7.409577257931232452e-03,1.004797172546386719e+01,-5.950080975890159607e-02,-3.135835170745849609e+00,1.000000000000000000e+00,-1.420871261507272720e-02,0.000000000000000000e+00
1.450951814651489258e+00,2.203877716064453125e+02,4.190778732299804688e+01,4.190778732299804688e+01,-8.814085721969604492e-01,-4.011230468750000000e-01,-1.044647336006164551e+00,2.044754028320312500e+01,-1.881103403866291046e-02,-1.735344994813203812e-04,2.841486692428588867e+00,-1.613159894943237305e+00,-7.409577257931232452e-03,1.004797172546386719e+01,-5.950080975890159607e-02,-3.135835170745849609e+00,1.000000000000000000e+00,-1.420871261507272720e-02,0.000000000000000000e+00
1.450951814651489258e+00,2.203877716064453125e+02,4.190778732299804688e+01,4.190778732299804688e+01,-8.814085721969604492e-01,-4.011230468750000000e-01,-1.044647336006164551e+00,2.044754028320312500e+01,-1.881103403866291046e-02,-1.735344994813203812e-04,2.841486692428588867e+00,-1.613159894943237305e+00,-7.409577257931232452e-03,1.004797172546386719e+01,-5.950080975890159607e-02,-3.135835170745849609e+00,1.000000000000000000e+00,-1.420871261507272720e-02,0.000000000000000000e+00
1.527701377868652344e+00,2.217820281982421875e+02,4.190496826171875000e+01,4.190496826171875000e+01,-8.809850811958312988e-01,-5.113829970359802246e-01,-1.664428830146789551e+00,2.062968444824218750e+01,-1.022454872727394104e-01,-6.901281303726136684e-04,2.373227357864379883e+00,-1.087100028991699219e+00,-6.730900146067142487e-03,8.357675552368164062e+00,-9.171494841575622559e-02,-9.675380587577819824e-01,1.000000000000000000e+00,-1.108681201003491879e-03,0.000000000000000000e+00
1.527701377868652344e+00,2.217820281982421875e+02,4.190496826171875000e+01,4.190496826171875000e+01,-8.809850811958312988e-01,-5.113829970359802246e-01,-1.664428830146789551e+00,2.062968444824218750e+01,-1.022454872727394104e-01,-6.901281303726136684e-04,2.373227357864379883e+00,-1.087100028991699219e+00,-6.730900146067142487e-03,8.357675552368164062e+00,-9.171494841575622559e-02,-9.675380587577819824e-01,1.000000000000000000e+00,-1.108681201003491879e-03,0.000000000000000000e+00
1.527701377868652344e+00,2.217820281982421875e+02,4.190496826171875000e+01,4.190496826171875000e+01,-8.809850811958312988e-01,-5.113829970359802246e-01,-1.664428830146789551e+00,2.062968444824218750e+01,-1.022454872727394104e-01,-6.901281303726136684e-04,2.373227357864379883e+00,-1.087100028991699219e+00,-6.730900146067142487e-03,8.357675552368164062e+00,-9.171494841575622559e-02,-9.675380587577819824e-01,1.000000000000000000e+00,-1.108681201003491879e-03,0.000000000000000000e+00
1.600134611129760742e+00,2.233748168945312500e+02,4.189673233032226562e+01,4.189673233032226562e+01,-8.780549168586730957e-01,-4.984435439109802246e-01,-2.159271001815795898e+00,2.083411026000976562e+01,-1.600860208272933960e-01,-9.472155361436307430e-04,2.822265386581420898e+00,-7.985358834266662598e-01,-3.549301763996481895e-03,4.934981346130371094e+00,-9.241913259029388428e-02,6.149212718009948730e-01,1.000000000000000000e+00,6.558020832017064095e-04,0.000000000000000000e+00
1.600134611129760742e+00,2.233748168945312500e+02,4.189673233032226562e+01,4.189673233032226562e+01,-8.780549168586730957e-01,-4.984435439109802246e-01,-2.159271001815795898e+00,2.083411026000976562e+01,-1.600860208272933960e-01,-9.472155361436307430e-04,2.822265386581420898e+00,-7.985358834266662598e-01,-3.549301763996481895e-03,4.934981346130371094e+00,-9.241913259029388428e-02,6.149212718009948730e-01,1.000000000000000000e+00,6.558020832017064095e-04,0.000000000000000000e+00
1.600134611129760742e+00,2.233748168945312500e+02,4.189673233032226562e+01,4.189673233032226562e+01,-8.780549168586730957e-01,-4.984435439109802246e-01,-2.159271001815795898e+00,2.083411026000976562e+01,-1.600860208272933960e-01,-9.472155361436307430e-04,2.822265386581420898e+00,-7.985358834266662598e-01,-3.549301763996481895e-03,4.934981346130371094e+00,-9.241913259029388428e-02,6.149212718009948730e-01,1.000000000000000000e+00,6.558020832017064095e-04,0.000000000000000000e+00
1.600134611129760742e+00,2.233748168945312500e+02,4.189673233032226562e+01,4.189673233032226562e+01,-8.780549168586730957e-01,-4.984435439109802246e-01,-2.159271001815795898e+00,2.083411026000976562e+01,-1.600860208272933960e-01,-9.472155361436307430e-04,2.822265386581420898e+00,-7.985358834266662598e-01,-3.549301763996481895e-03,4.934981346130371094e+00,-9.241913259029388428e-02,6.149212718009948730e-01,1.000000000000000000e+00,6.558020832017064095e-04,0.000000000000000000e+00
1.600134611129760742e+00,2.233748168945312500e+02,4.189673233032226562e+01,4.189673233032226562e+01,-8.780549168586730957e-01,-4.984435439109802246e-01,-2.159271001815795898e+00,2.083411026000976562e+01,-1.600860208272933960e-01,-9.472155361436307430e-04,2.822265386581420898e+00,-7.985358834266662598e-01,-3.549301763996481895e-03,4.934981346130371094e+00,-9.241913259029388428e-02,6.149212718009948730e-01,1.000000000000000000e+00,6.558020832017064095e-04,0.000000000000000000e+00
1.600134611129760742e+00,2.248922271728515625e+02,4.188631439208984375e+01,4.188631439208984375e+01,-8.740524053573608398e-01,-3.906555175781250000e-01,-2.331085681915283203e+00,2.102571487426757812e+01,-1.709343045949935913e-01,-6.537348381243646145e-04,1.660656213760375977e+00,-9.402314573526382446e-02,2.543626353144645691e-03,6.227263212203979492e-01,-5.981437116861343384e-02,1.873937606811523438e+00,1.000000000000000000e+00,9.091456420719623566e-03,0.000000000000000000e+00
1.715513467788696289e+00,2.248922271728515625e+02,4.188631439208984375e+01,4.188631439208984375e+01,-8.740524053573608398e-01,-3.906555175781250000e-01,-2.331085681915283203e+00,2.102571487426757812e+01,-1.709343045949935913e-01,-6.537348381243646145e-04,1.660656213760375977e+00,-9.402314573526382446e-02,2.543626353144645691e-03,6.227263212203979492e-01,-5.981437116861343384e-02,1.873937606811523438e+00,1.000000000000000000e+00,9.091456420719623566e-03,0.000000000000000000e+00
1.715513467788696289e+00,2.248922271728515625e+02,4.188631439208984375e+01,4.188631439208984375e+01,-8.740524053573608398e-01,-3.906555175781250000e-01,-2.331085681915283203e+00,2.102571487426757812e+01,-1.709343045949935913e-01,-6.537348381243646145e-04,1.660656213760375977e+00,-9.402314573526382446e-02,2.543626353144645691e-03,6.227263212203979492e-01,-5.981437116861343384e-02,1.873937606811523438e+00,1.000000000000000000e+00,9.091456420719623566e-03,0.000000000000000000e+00
1.715513467788696289e+00,2.248922271728515625e+02,4.188631439208984375e+01,4.188631439208984375e+01,-8.740524053573608398e-01,-3.906555175781250000e-01,-2.331085681915283203e+00,2.102571487426757812e+01,-1.709343045949935913e-01,-6.537348381243646145e-04,1.660656213760375977e+00,-9.402314573526382446e-02,2.543626353144645691e-03,6.227263212203979492e-01,-5.981437116861343384e-02,1.873937606811523438e+00,1.000000000000000000e+00,9.091456420719623566e-03,0.000000000000000000e+00
1.813115119934082031e+00,2.270101470947265625e+02,4.187204360961914062e+01,4.187204360961914062e+01,-8.700567483901977539e-01,-1.559142917394638062e-01,-2.046416997909545898e+00,2.128802871704101562e+01,-1.292419731616973877e-01,3.337113012094050646e-04,2.687596321105957031e+00,4.271683096885681152e-01,1.011710520833730698e-02,-5.181376457214355469e+00,-7.087799254804849625e-03,2.566499710083007812e+00,1.000000000000000000e+00,1.187216583639383316e-02,0.000000000000000000e+00
1.813115119934082031e+00,2.270101470947265625e+02,4.187204360961914062e+01,4.187204360961914062e+01,-8.700567483901977539e-01,-1.559142917394638062e-01,-2.046416997909545898e+00,2.128802871704101562e+01,-1.292419731616973877e-01,3.337113012094050646e-04,2.687596321105957031e+00,4.271683096885681152e-01,1.011710520833730698e-02,-5.181376457214355469e+00,-7.087799254804849625e-03,2.566499710083007812e+00,1.000000000000000000e+00,1.187216583639383316e-02,0.000000000000000000e+00
1.813115119934082031e+00,2.270101470947265625e+02,4.187204360961914062e+01,4.187204360961914062e+01,-8.700567483901977539e-01,-1.559142917394638062e-01,-2.046416997909545898e+00,2.128802871704101562e+01,-1.292419731616973877e-01,3.337113012094050646e-04,2.687596321105957031e+00,4.271683096885681152e-01,1.011710520833730698e-02,-5.181376457214355469e+00,-7.087799254804849625e-03,2.566499710083007812e+00,1.000000000000000000e+00,1.187216583639383316e-02,0.000000000000000000e+00
1.813115119934082031e+00,2.270101470947265625e+02,4.187204360961914062e+01,4.187204360961914062e+01,-8.700567483901977539e-01,-1.559142917394638062e-01,-2.046416997909545898e+00,2.128802871704101562e+01,-1.292419731616973877e-01,3.337113012094050646e-04,2.687596321105957031e+00,4.271683096885681152e-01,1.011710520833730698e-02,-5.181376457214355469e+00,-7.087799254804849625e-03,2.566499710083007812e+00,1.000000000000000000e+00,1.187216583639383316e-02,0.000000000000000000e+00
1.896134853363037109e+00,2.291022949218750000e+02,4.186220169067382812e+01,4.186220169067382812e+01,-8.701797127723693848e-01,6.727041304111480713e-02,-1.305603027343750000e+00,2.154101181030273438e+01,-5.140187591314315796e-02,1.065538614057004452e-03,3.047264575958251953e+00,9.376096129417419434e-01,8.815101347863674164e-03,-8.962401390075683594e+00,7.818819954991340637e-03,2.216903924942016602e+00,1.000000000000000000e+00,1.102836802601814270e-02,0.000000000000000000e+00
1.896134853363037109e+00,2.291022949218750000e+02,4.186220169067382812e+01,4.186220169067382812e+01,-8.701797127723693848e-01,6.727041304111480713e-02,-1.305603027343750000e+00,2.154101181030273438e+01,-5.140187591314315796e-02,1.065538614057004452e-03,3.047264575958251953e+00,9.376096129417419434e-01,8.815101347863674164e-03,-8.962401390075683594e+00,7.818819954991340637e-03,2.216903924942016602e+00,1.000000000000000000e+00,1.102836802601814270e-02,0.000000000000000000e+00
1.896134853363037109e+00,2.291022949218750000e+02,4.186220169067382812e+01,4.186220169067382812e+01,-8.701797127723693848e-01,6.727041304111480713e-02,-1.305603027343750000e+00,2.154101181030273438e+01,-5.140187591314315796e-02,1.065538614057004452e-03,3.047264575958251953e+00,9.376096129417419434e-01,8.815101347863674164e-03,-8.962401390075683594e+00,7.818819954991340637e-03,2.216903924942016602e+00,1.000000000000000000e+00,1.102836802601814270e-02,0.000000000000000000e+00
1.896134853363037109e+00,2.291022949218750000e+02,4.186220169067382812e+01,4.186220169067382812e+01,-8.701797127723693848e-01,6.727041304111480713e-02,-1.305603027343750000e+00,2.154101181030273438e+01,-5.140187591314315796e-02,1.065538614057004452e-03,3.047264575958251953e+00,9.376096129417419434e-01,8.815101347863674164e-03,-8.962401390075683594e+00,7.818819954991340637e-03,2.216903924942016602e+00,1.000000000000000000e+00,1.102836802601814270e-02,0.000000000000000000e+00
1.896134853363037109e+00,2.291022949218750000e+02,4.186220169067382812e+01,4.186220169067382812e+01,-8.701797127723693848e-01,6.727041304111480713e-02,-1.305603027343750000e+00,2.154101181030273438e+01,-5.140187591314315796e-02,1.065538614057004452e-03,3.047264575958251953e+00,9.376096129417419434e-01,8.815101347863674164e-03,-8.962401390075683594e+00,7.818819954991340637e-03,2.216903924942016602e+00,1.000000000000000000e+00,1.102836802601814270e-02,0.000000000000000000e+00
1.896134853363037109e+00,2.291022949218750000e+02,4.186220169067382812e+01,4.186220169067382812e+01,-8.701797127723693848e-01,6.727041304111480713e-02,-1.305603027343750000e+00,2.154101181030273438e+01,-5.140187591314315796e-02,1.065538614057004452e-03,3.047264575958251953e+00,9.376096129417419434e-01,8.815101347863674164e-03,-8.962401390075683594e+00,7.818819954991340637e-03,2.216903924942016602e+00,1.000000000000000000e+00,1.102836802601814270e-02,0.000000000000000000e+00
1.896134853363037109e+00,2.291022949218750000e+02,4.186220169067382812e+01,4.186220169067382812e+01,-8.701797127723693848e-01,6.727041304111480713e-02,-1.305603027343750000e+00,2.154101181030273438e+01,-5.140187591314315796e-02,1.065538614057004452e-03,3.047264575958251953e+00,9.376096129417419434e-01,8.815101347863674164e-03,-8.962401390075683594e+00,7.818819954991340637e-03,2.216903924942016602e+00,1.000000000000000000e+00,1.102836802601814270e-02,0.000000000000000000e+00
2.195794820785522461e+00,2.350227661132812500e+02,4.186315917968750000e+01,4.186315917968750000e+01,-8.077927827835083008e-01,1.013220325112342834e-01,9.360553026199340820e-01,2.198722076416015625e+01,7.941423356533050537e-02,-1.239595439983531833e-04,-3.533624112606048584e-01,9.758659452199935913e-02,-8.807840757071971893e-03,-4.395155906677246094e+00,-1.606870651245117188e+00,-1.919725298881530762e+00,1.000000000000000000e+00,-9.301966056227684021e-03,0.000000000000000000e+00
2.195794820785522461e+00,2.350227661132812500e+02,4.186315917968750000e+01,4.186315917968750000e+01,-8.077927827835083008e-01,1.013220325112342834e-01,9.360553026199340820e-01,2.198722076416015625e+01,7.941423356533050537e-02,-1.239595439983531833e-04,-3.533624112606048584e-01,9.758659452199935913e-02,-8.807840757071971893e-03,-4.395155906677246094e+00,-1.606870651245117188e+00,-1.919725298881530762e+00,1.000000000000000000e+00,-9.301966056227684021e-03,0.000000000000000000e+00
2.195794820785522461e+00,2.350227661132812500e+02,4.186315917968750000e+01,4.186315917968750000e+01,-8.077927827835083008e-01,1.013220325112342834e-01,9.360553026199340820e-01,2.198722076416015625e+01,7.941423356533050537e-02,-1.239595439983531833e-04,-3.533624112606048584e-01,9.758659452199935913e-02,-8.807840757071971893e-03,-4.395155906677246094e+00,-1.606870651245117188e+00,-1.919725298881530762e+00,1.000000000000000000e+00,-9.301966056227684021e-03,0.000000000000000000e+00
2.195794820785522461e+00,2.350227661132812500e+02,4.186315917968750000e+01,4.186315917968750000e+01,-8.077927827835083008e-01,1.013220325112342834e-01,9.360553026199340820e-01,2.198722076416015625e+01,7.941423356533050537e-02,-1.239595439983531833e-04,-3.533624112606048584e-01,9.758659452199935913e-02,-8.807840757071971893e-03,-4.395155906677246094e+00,-1.606870651245117188e+00,-1.919725298881530762e+00,1.000000000000000000e+00,-9.301966056227684021e-03,0.000000000000000000e+00
2.195794820785522461e+00,2.350227661132812500e+02,4.186315917968750000e+01,4.186315917968750000e+01,-8.077927827835083008e-01,1.013220325112342834e-01,9.360553026199340820e-01,2.198722076416015625e+01,7.941423356533050537e-02,-1.239595439983531833e-04,-3.533624112606048584e-01,9.758659452199935913e-02,-8.807840757071971893e-03,-4.395155906677246094e+00,-1.606870651245117188e+00,-1.919725298881530762e+00,1.000000000000000000e+00,-9.301966056227684021e-03,0.000000000000000000e+00
2.195794820785522461e+00,2.350227661132812500e+02,4.186315917968750000e+01,4.186315917968750000e+01,-8.077927827835083008e-01,1.013220325112342834e-01,9.360553026199340820e-01,2.198722076416015625e+01,7.941423356533050537e-02,-1.239595439983531833e-04,-3.533624112606048584e-01,9.758659452199935913e-02,-8.807840757071971893e-03,-4.395155906677246094e+00,-1.606870651245117188e+00,-1.919725298881530762e+00,1.000000000000000000e+00,-9.301966056227684021e-03,0.000000000000000000e+00
2.195794820785522461e+00,2.350227661132812500e+02,4.186315917968750000e+01,4.186315917968750000e+01,-8.077927827835083008e-01,1.013220325112342834e-01,9.360553026199340820e-01,2.198722076416015625e+01,7.941423356533050537e-02,-1.239595439983531833e-04,-3.533624112606048584e-01,9.758659452199935913e-02,-8.807840757071971893e-03,-4.395155906677246094e+00,-1.606870651245117188e+00,-1.919725298881530762e+00,1.000000000000000000e+00,-9.301966056227684021e-03,0.000000000000000000e+00
2.195794820785522461e+00,2.350227661132812500e+02,4.186315917968750000e+01,4.186315917968750000e+01,-8.077927827835083008e-01,1.013220325112342834e-01,9.360553026199340820e-01,2.198722076416015625e+01,7.941423356533050537e-02,-1.239595439983531833e-04,-3.533624112606048584e-01,9.758659452199935913e-02,-8.807840757071971893e-03,-4.395155906677246094e+00,-1.606870651245117188e+00,-1.919725298881530762e+00,1.000000000000000000e+00,-9.301966056227684021e-03,0.000000000000000000e+00
2.195794820785522461e+00,2.350227661132812500e+02,4.186315917968750000e+01,4.186315917968750000e+01,-8.077927827835083008e-01,1.013220325112342834e-01,9.360553026199340820e-01,2.198722076416015625e+01,7.941423356533050537e-02,-1.239595439983531833e-04,-3.533624112606048584e-01,9.758659452199935913e-02,-8.807840757071971893e-03,-4.395155906677246094e+00,-1.606870651245117188e+00,-1.919725298881530762e+00,1.000000000000000000e+00,-9.301966056227684021e-03,0.000000000000000000e+00
2.195794820785522461e+00,2.350227661132812500e+02,4.186315917968750000e+01,4.186315917968750000e+01,-8.077927827835083008e-01,1.013220325112342834e-01,9.360553026199340820e-01,2.198722076416015625e+01,7.941423356533050537e-02,-1.239595439983531833e-04,-3.533624112606048584e-01,9.758659452199935913e-02,-8.807840757071971893e-03,-4.395155906677246094e+00,-1.606870651245117188e+00,-1.919725298881530762e+00,1.000000000000000000e+00,-9.301966056227684021e-03,0.000000000000000000e+00
2.374083757400512695e+00,2.361867065429687500e+02,4.186479949951171875e+01,4.186479949951171875e+01,-6.945482492446899414e-01,-3.042602352797985077e-02,1.077487826347351074e+00,2.188237953186035156e+01,5.843422934412956238e-02,-2.024477289523929358e-04,-5.880411267280578613e-01,-1.176741793751716614e-01,-4.402302438393235207e-04,-1.613625526428222656e+00,-2.386306762695312500e+00,-2.739681720733642578e+00,1.000000000000000000e+00,-1.073509082198143005e-02,0.000000000000000000e+00
2.374083757400512695e+00,2.361867065429687500e+02,4.186479949951171875e+01,4.186479949951171875e+01,-6.945482492446899414e-01,-3.042602352797985077e-02,1.077487826347351074e+00,2.188237953186035156e+01,5.843422934412956238e-02,-2.024477289523929358e-04,-5.880411267280578613e-01,-1.176741793751716614e-01,-4.402302438393235207e-04,-1.613625526428222656e+00,-2.386306762695312500e+00,-2.739681720733642578e+00,1.000000000000000000e+00,-1.073509082198143005e-02,0.000000000000000000e+00
2.374083757400512695e+00,2.361867065429687500e+02,4.186479949951171875e+01,4.186479949951171875e+01,-6.945482492446899414e-01,-3.042602352797985077e-02,1.077487826347351074e+00,2.188237953186035156e+01,5.843422934412956238e-02,-2.024477289523929358e-04,-5.880411267280578613e-01,-1.176741793751716614e-01,-4.402302438393235207e-04,-1.613625526428222656e+00,-2.386306762695312500e+00,-2.739681720733642578e+00,1.000000000000000000e+00,-1.073509082198143005e-02,0.000000000000000000e+00
2.447860002517700195e+00,2.383648834228515625e+02,4.186462402343750000e+01,4.186462402343750000e+01,-4.269755780696868896e-01,-3.123168647289276123e-01,9.439188838005065918e-01,2.168694496154785156e+01,-1.630620658397674561e-02,-6.830984057160094380e-05,-2.649017572402954102e+00,-1.013069152832031250e+00,1.818171935155987740e-03,3.361062526702880859e+00,-2.663646221160888672e+00,-2.948211908340454102e+00,1.000000000000000000e+00,-5.914651323109865189e-03,0.000000000000000000e+00
2.447860002517700195e+00,2.383648834228515625e+02,4.186462402343750000e+01,4.186462402343750000e+01,-4.269755780696868896e-01,-3.123168647289276123e-01,9.439188838005065918e-01,2.168694496154785156e+01,-1.630620658397674561e-02,-6.830984057160094380e-05,-2.649017572402954102e+00,-1.013069152832031250e+00,1.818171935155987740e-03,3.361062526702880859e+00,-2.663646221160888672e+00,-2.948211908340454102e+00,1.000000000000000000e+00,-5.914651323109865189e-03,0.000000000000000000e+00
2.500878810882568359e+00,2.399594116210937500e+02,4.186097717285156250e+01,4.186097717285156250e+01,-2.503059208393096924e-01,-4.557189345359802246e-01,5.836542248725891113e-01,2.154460144042968750e+01,-8.068749308586120605e-02,-1.198019526782445610e-04,-2.684773921966552734e+00,-1.214310288429260254e+00,-9.712046012282371521e-04,5.727380752563476562e+00,-2.279881477355957031e+00,-1.459386587142944336e+00,1.000000000000000000e+00,4.790581297129392624e-03,0.000000000000000000e+00
2.500878810882568359e+00,2.399594116210937500e+02,4.186097717285156250e+01,4.186097717285156250e+01,-2.503059208393096924e-01,-4.557189345359802246e-01,5.836542248725891113e-01,2.154460144042968750e+01,-8.068749308586120605e-02,-1.198019526782445610e-04,-2.684773921966552734e+00,-1.214310288429260254e+00,-9.712046012282371521e-04,5.727380752563476562e+00,-2.279881477355957031e+00,-1.459386587142944336e+00,1.000000000000000000e+00,4.790581297129392624e-03,0.000000000000000000e+00
2.500878810882568359e+00,2.399594116210937500e+02,4.186097717285156250e+01,4.186097717285156250e+01,-2.503059208393096924e-01,-4.557189345359802246e-01,5.836542248725891113e-01,2.154460144042968750e+01,-8.068749308586120605e-02,-1.198019526782445610e-04,-2.684773921966552734e+00,-1.214310288429260254e+00,-9.712046012282371521e-04,5.727380752563476562e+00,-2.279881477355957031e+00,-1.459386587142944336e+00,1.000000000000000000e+00,4.790581297129392624e-03,0.000000000000000000e+00
2.560195446014404297e+00,2.411033020019531250e+02,4.185689926147460938e+01,4.185689926147460938e+01,-1.893055140972137451e-01,-4.691771268844604492e-01,2.597537636756896973e-01,2.161748504638671875e+01,-1.175190806388854980e-01,-2.729530679062008858e-04,1.228721141815185547e+00,-6.209318637847900391e-01,-2.581925131380558014e-03,6.233237266540527344e+00,-3.255635201930999756e-01,3.565106987953186035e-01,1.000000000000000000e+00,1.376508828252553940e-02,0.000000000000000000e+00
2.560195446014404297e+00,2.411033020019531250e+02,4.185689926147460938e+01,4.185689926147460938e+01,-1.893055140972137451e-01,-4.691771268844604492e-01,2.597537636756896973e-01,2.161748504638671875e+01,-1.175190806388854980e-01,-2.729530679062008858e-04,1.228721141815185547e+00,-6.209318637847900391e-01,-2.581925131380558014e-03,6.233237266540527344e+00,-3.255635201930999756e-01,3.565106987953186035e-01,1.000000000000000000e+00,1.376508828252553940e-02,0.000000000000000000e+00
2.618730545043945312e+00,2.423906250000000000e+02,4.185161590576171875e+01,4.185161590576171875e+01,-2.392546832561492920e-01,-3.788757026195526123e-01,-9.408568590879440308e-02,2.176117897033691406e+01,-1.389540582895278931e-01,-4.660677805077284575e-04,2.454833507537841797e+00,-3.661901652812957764e-01,-3.299126634374260902e-03,5.622376918792724609e+00,1.341679930686950684e+00,2.102283477783203125e+00,1.000000000000000000e+00,1.885383576154708862e-02,0.000000000000000000e+00
2.618730545043945312e+00,2.423906250000000000e+02,4.185161590576171875e+01,4.185161590576171875e+01,-2.392546832561492920e-01,-3.788757026195526123e-01,-9.408568590879440308e-02,2.176117897033691406e+01,-1.389540582895278931e-01,-4.660677805077284575e-04,2.454833507537841797e+00,-3.661901652812957764e-01,-3.299126634374260902e-03,5.622376918792724609e+00,1.341679930686950684e+00,2.102283477783203125e+00,1.000000000000000000e+00,1.885383576154708862e-02,0.000000000000000000e+00
2.677334070205688477e+00,2.436692504882812500e+02,4.184643936157226562e+01,4.184643936157226562e+01,-3.506140708923339844e-01,-2.144164741039276123e-01,-3.607787489891052246e-01,2.190882682800292969e+01,-1.333006322383880615e-01,-5.353048909455537796e-04,2.519436359405517578e+00,9.646904468536376953e-02,-1.181449624709784985e-03,3.812154293060302734e+00,2.111044883728027344e+00,3.115491867065429688e+00,1.000000000000000000e+00,1.842604950070381165e-02,0.000000000000000000e+00
2.677334070205688477e+00,2.436692504882812500e+02,4.184643936157226562e+01,4.184643936157226562e+01,-3.506140708923339844e-01,-2.144164741039276123e-01,-3.607787489891052246e-01,2.190882682800292969e+01,-1.333006322383880615e-01,-5.353048909455537796e-04,2.519436359405517578e+00,9.646904468536376953e-02,-1.181449624709784985e-03,3.812154293060302734e+00,2.111044883728027344e+00,3.115491867065429688e+00,1.000000000000000000e+00,1.842604950070381165e-02,0.000000000000000000e+00
2.677334070205688477e+00,2.436692504882812500e+02,4.184643936157226562e+01,4.184643936157226562e+01,-3.506140708923339844e-01,-2.144164741039276123e-01,-3.607787489891052246e-01,2.190882682800292969e+01,-1.333006322383880615e-01,-5.353048909455537796e-04,2.519436359405517578e+00,9.646904468536376953e-02,-1.181449624709784985e-03,3.812154293060302734e+00,2.111044883728027344e+00,3.115491867065429688e+00,1.000000000000000000e+00,1.842604950070381165e-02,0.000000000000000000e+00
2.677334070205688477e+00,2.436692504882812500e+02,4.184643936157226562e+01,4.184643936157226562e+01,-3.506140708923339844e-01,-2.144164741039276123e-01,-3.607787489891052246e-01,2.190882682800292969e+01,-1.333006322383880615e-01,-5.353048909455537796e-04,2.519436359405517578e+00,9.646904468536376953e-02,-1.181449624709784985e-03,3.812154293060302734e+00,2.111044883728027344e+00,3.115491867065429688e+00,1.000000000000000000e+00,1.842604950070381165e-02,0.000000000000000000e+00
2.755024909973144531e+00,2.449580535888671875e+02,4.184210205078125000e+01,4.184210205078125000e+01,-4.830036163330078125e-01,-2.389526367187500000e-02,-4.955139160156250000e-01,2.205978202819824219e+01,-1.033740043640136719e-01,-4.496392211876809597e-04,1.943024516105651855e+00,3.852015137672424316e-01,1.102648326195776463e-03,1.344486951828002930e+00,2.278019905090332031e+00,3.248911142349243164e+00,1.000000000000000000e+00,1.394273061305284500e-02,0.000000000000000000e+00
2.755024909973144531e+00,2.449580535888671875e+02,4.184210205078125000e+01,4.184210205078125000e+01,-4.830036163330078125e-01,-2.389526367187500000e-02,-4.955139160156250000e-01,2.205978202819824219e+01,-1.033740043640136719e-01,-4.496392211876809597e-04,1.943024516105651855e+00,3.852015137672424316e-01,1.102648326195776463e-03,1.344486951828002930e+00,2.278019905090332031e+00,3.248911142349243164e+00,1.000000000000000000e+00,1.394273061305284500e-02,0.000000000000000000e+00
2.755024909973144531e+00,2.449580535888671875e+02,4.184210205078125000e+01,4.184210205078125000e+01,-4.830036163330078125e-01,-2.389526367187500000e-02,-4.955139160156250000e-01,2.205978202819824219e+01,-1.033740043640136719e-01,-4.496392211876809597e-04,1.943024516105651855e+00,3.852015137672424316e-01,1.102648326195776463e-03,1.344486951828002930e+00,2.278019905090332031e+00,3.248911142349243164e+00,1.000000000000000000e+00,1.394273061305284500e-02,0.000000000000000000e+00
2.830169916152954102e+00,2.466804656982421875e+02,4.183901214599609375e+01,4.183901214599609375e+01,-6.485332846641540527e-01,2.118155062198638916e-01,-4.406738281250000000e-01,2.226070976257324219e+01,-3.690839186310768127e-02,-1.697943807812407613e-04,2.673866748809814453e+00,8.844980597496032715e-01,3.724064445123076439e-03,-2.027987957000732422e+00,1.956073403358459473e+00,2.846730947494506836e+00,1.000000000000000000e+00,1.342291850596666336e-02,0.000000000000000000e+00
2.830169916152954102e+00,2.466804656982421875e+02,4.183901214599609375e+01,4.183901214599609375e+01,-6.485332846641540527e-01,2.118155062198638916e-01,-4.406738281250000000e-01,2.226070976257324219e+01,-3.690839186310768127e-02,-1.697943807812407613e-04,2.673866748809814453e+00,8.844980597496032715e-01,3.724064445123076439e-03,-2.027987957000732422e+00,1.956073403358459473e+00,2.846730947494506836e+00,1.000000000000000000e+00,1.342291850596666336e-02,0.000000000000000000e+00
2.830169916152954102e+00,2.466804656982421875e+02,4.183901214599609375e+01,4.183901214599609375e+01,-6.485332846641540527e-01,2.118155062198638916e-01,-4.406738281250000000e-01,2.226070976257324219e+01,-3.690839186310768127e-02,-1.697943807812407613e-04,2.673866748809814453e+00,8.844980597496032715e-01,3.724064445123076439e-03,-2.027987957000732422e+00,1.956073403358459473e+00,2.846730947494506836e+00,1.000000000000000000e+00,1.342291850596666336e-02,0.000000000000000000e+00
2.830169916152954102e+00,2.466804656982421875e+02,4.183901214599609375e+01,4.183901214599609375e+01,-6.485332846641540527e-01,2.118155062198638916e-01,-4.406738281250000000e-01,2.226070976257324219e+01,-3.690839186310768127e-02,-1.697943807812407613e-04,2.673866748809814453e+00,8.844980597496032715e-01,3.724064445123076439e-03,-2.027987957000732422e+00,1.956073403358459473e+00,2.846730947494506836e+00,1.000000000000000000e+00,1.342291850596666336e-02,0.000000000000000000e+00
2.830169916152954102e+00,2.466804656982421875e+02,4.183901214599609375e+01,4.183901214599609375e+01,-6.485332846641540527e-01,2.118155062198638916e-01,-4.406738281250000000e-01,2.226070976257324219e+01,-3.690839186310768127e-02,-1.697943807812407613e-04,2.673866748809814453e+00,8.844980597496032715e-01,3.724064445123076439e-03,-2.027987957000732422e+00,1.956073403358459473e+00,2.846730947494506836e+00,1.000000000000000000e+00,1.342291850596666336e-02,0.000000000000000000e+00
2.917726278305053711e+00,2.483613586425781250e+02,4.183958053588867188e+01,4.183958053588867188e+01,-7.708687782287597656e-01,3.598836660385131836e-01,-1.792297065258026123e-01,2.245333290100097656e+01,3.430052101612091064e-02,1.549011067254468799e-04,2.199990034103393555e+00,8.132922053337097168e-01,3.708416596055030823e-03,-4.296748161315917969e+00,1.372435927391052246e+00,1.487049221992492676e+00,5.000000000000000000e-01,3.919334150850772858e-03,0.000000000000000000e+00
