# Time,X,Y,Z,Roll,Pitch,Yaw,Vx,Vy,Vz,Ax,Ay,Az,Wx,Wy,Wz,Throttle,Steer,Brake
0.000000000000000000e+00,-2.864429664611816406e+01,5.241075515747070312e+01,5.241075515747070312e+01,-9.562264312990009785e-05,-3.497314080595970154e-02,1.396888933413720224e-06,-8.735317180708079832e-08,5.195780161670882080e-08,4.071518196724355221e-04,-1.191568571812240407e-06,4.453932263004389824e-07,3.079503541812300682e-03,4.849497781833633780e-05,7.832190021872520447e-05,-2.347163352567349648e-08,0.000000000000000000e+00,5.794458556920289993e-04,1.000000000000000000e+00
1.045818328857421875e-01,-2.864429664611816406e+01,5.241075515747070312e+01,5.241075515747070312e+01,-9.562264312990009785e-05,-3.497314080595970154e-02,1.396888933413720224e-06,-8.735317180708079832e-08,5.195780161670882080e-08,4.071518196724355221e-04,-1.191568571812240407e-06,4.453932263004389824e-07,3.079503541812300682e-03,4.849497781833633780e-05,7.832190021872520447e-05,-2.347163352567349648e-08,0.000000000000000000e+00,5.794458556920289993e-04,1.000000000000000000e+00
1.045818328857421875e-01,-2.864429664611816406e+01,5.241075515747070312e+01,5.241075515747070312e+01,-9.562264312990009785e-05,-3.497314080595970154e-02,1.396888933413720224e-06,-8.735317180708079832e-08,5.195780161670882080e-08,4.071518196724355221e-04,-1.191568571812240407e-06,4.453932263004389824e-07,3.079503541812300682e-03,4.849497781833633780e-05,7.832190021872520447e-05,-2.347163352567349648e-08,0.000000000000000000e+00,5.794458556920289993e-04,1.000000000000000000e+00
1.045818328857421875e-01,-2.864429664611816406e+01,5.241075515747070312e+01,5.241075515747070312e+01,-9.562264312990009785e-05,-3.497314080595970154e-02,1.396888933413720224e-06,-8.735317180708079832e-08,5.195780161670882080e-08,4.071518196724355221e-04,-1.191568571812240407e-06,4.453932263004389824e-07,3.079503541812300682e-03,4.849497781833633780e-05,7.832190021872520447e-05,-2.347163352567349648e-08,0.000000000000000000e+00,5.794458556920289993e-04,1.000000000000000000e+00
1.045818328857421875e-01,-2.864429664611816406e+01,5.241075515747070312e+01,5.241075515747070312e+01,-9.562264312990009785e-05,-3.497314080595970154e-02,1.396888933413720224e-06,-8.735317180708079832e-08,5.195780161670882080e-08,4.071518196724355221e-04,-1.191568571812240407e-06,4.453932263004389824e-07,3.079503541812300682e-03,4.849497781833633780e-05,7.832190021872520447e-05,-2.347163352567349648e-08,0.000000000000000000e+00,5.794458556920289993e-04,1.000000000000000000e+00
1.045818328857421875e-01,-2.864429664611816406e+01,5.241075515747070312e+01,5.241075515747070312e+01,-9.562264312990009785e-05,-3.497314080595970154e-02,1.396888933413720224e-06,-8.735317180708079832e-08,5.195780161670882080e-08,4.071518196724355221e-04,-1.191568571812240407e-06,4.453932263004389824e-07,3.079503541812300682e-03,4.849497781833633780e-05,7.832190021872520447e-05,-2.347163352567349648e-08,0.000000000000000000e+00,5.794458556920289993e-04,1.000000000000000000e+00
1.045818328857421875e-01,-2.864429664611816406e+01,5.241075515747070312e+01,5.241075515747070312e+01,-9.562264312990009785e-05,-3.497314080595970154e-02,1.396888933413720224e-06,-1.939706884002134757e-08,1.060361753957295150e-08,-7.974820910021662712e-04,6.490001851489068940e-07,-3.949442657358304132e-07,-1.150459703058004379e-02,6.414097242668503895e-06,1.646024975343607366e-05,-8.134041773466549330e-10,0.000000000000000000e+00,5.794458556920289993e-04,1.000000000000000000e+00
2.092907428741455078e-01,-2.864429664611816406e+01,5.241075515747070312e+01,5.241075515747070312e+01,-9.562264312990009785e-05,-3.497314080595970154e-02,1.396888933413720224e-06,-1.939706884002134757e-08,1.060361753957295150e-08,-7.974820910021662712e-04,6.490001851489068940e-07,-3.949442657358304132e-07,-1.150459703058004379e-02,6.414097242668503895e-06,1.646024975343607366e-05,-8.134041773466549330e-10,0.000000000000000000e+00,5.794458556920289993e-04,1.000000000000000000e+00
2.092907428741455078e-01,-2.864429664611816406e+01,5.241075515747070312e+01,5.241075515747070312e+01,-9.562264312990009785e-05,-3.497314080595970154e-02,1.396888933413720224e-06,-1.939706884002134757e-08,1.060361753957295150e-08,-7.974820910021662712e-04,6.490001851489068940e-07,-3.949442657358304132e-07,-1.150459703058004379e-02,6.414097242668503895e-06,1.646024975343607366e-05,-8.134041773466549330e-10,0.000000000000000000e+00,5.794458556920289993e-04,1.000000000000000000e+00
2.092907428741455078e-01,-2.864429664611816406e+01,5.241075515747070312e+01,5.241075515747070312e+01,-9.562264312990009785e-05,-3.497314080595970154e-02,1.396888933413720224e-06,-1.939706884002134757e-08,1.060361753957295150e-08,-7.974820910021662712e-04,6.490001851489068940e-07,-3.949442657358304132e-07,-1.150459703058004379e-02,6.414097242668503895e-06,1.646024975343607366e-05,-8.134041773466549330e-10,0.000000000000000000e+00,5.794458556920289993e-04,1.000000000000000000e+00
2.092907428741455078e-01,-2.864429664611816406e+01,5.241075515747070312e+01,5.241075515747070312e+01,-9.562264312990009785e-05,-3.497314080595970154e-02,1.396888933413720224e-06,-1.939706884002134757e-08,1.060361753957295150e-08,-7.974820910021662712e-04,6.490001851489068940e-07,-3.949442657358304132e-07,-1.150459703058004379e-02,6.414097242668503895e-06,1.646024975343607366e-05,-8.134041773466549330e-10,0.000000000000000000e+00,5.794458556920289993e-04,1.000000000000000000e+00
2.092907428741455078e-01,-2.864429664611816406e+01,5.241075515747070312e+01,5.241075515747070312e+01,-9.562264312990009785e-05,-3.497314080595970154e-02,1.396888933413720224e-06,2.303856483365507302e-08,1.292010409770227852e-08,2.639711892697960138e-04,5.687006705556996167e-07,3.104436885337236163e-08,1.422505360096693039e-02,-9.517378202872350812e-06,-2.095042509608902037e-05,7.415165370616705331e-09,0.000000000000000000e+00,5.794458556920289993e-04,1.000000000000000000e+00
2.839093208312988281e-01,-2.864429664611816406e+01,5.241075515747070312e+01,5.241075515747070312e+01,-9.562264312990009785e-05,-3.497314080595970154e-02,1.396888933413720224e-06,2.303856483365507302e-08,1.292010409770227852e-08,2.639711892697960138e-04,5.687006705556996167e-07,3.104436885337236163e-08,1.422505360096693039e-02,-9.517378202872350812e-06,-2.095042509608902037e-05,7.415165370616705331e-09,0.000000000000000000e+00,5.794458556920289993e-04,1.000000000000000000e+00
2.839093208312988281e-01,-2.864429664611816406e+01,5.241075515747070312e+01,5.241075515747070312e+01,-9.562264312990009785e-05,-3.497314080595970154e-02,1.396888933413720224e-06,2.303856483365507302e-08,1.292010409770227852e-08,2.639711892697960138e-04,5.687006705556996167e-07,3.104436885337236163e-08,1.422505360096693039e-02,-9.517378202872350812e-06,-2.095042509608902037e-05,7.415165370616705331e-09,0.000000000000000000e+00,5.794458556920289993e-04,1.000000000000000000e+00
2.839093208312988281e-01,-2.864429664611816406e+01,5.241075515747070312e+01,5.241075515747070312e+01,-9.562264312990009785e-05,-3.497314080595970154e-02,1.396888933413720224e-06,2.303856483365507302e-08,1.292010409770227852e-08,2.639711892697960138e-04,5.687006705556996167e-07,3.104436885337236163e-08,1.422505360096693039e-02,-9.517378202872350812e-06,-2.095042509608902037e-05,7.415165370616705331e-09,0.000000000000000000e+00,5.794458556920289993e-04,1.000000000000000000e+00
2.839093208312988281e-01,-2.864429664611816406e+01,5.241075515747070312e+01,5.241075515747070312e+01,-9.562264312990009785e-05,-3.497314080595970154e-02,1.396888933413720224e-06,2.303856483365507302e-08,1.292010409770227852e-08,2.639711892697960138e-04,5.687006705556996167e-07,3.104436885337236163e-08,1.422505360096693039e-02,-9.517378202872350812e-06,-2.095042509608902037e-05,7.415165370616705331e-09,0.000000000000000000e+00,5.794458556920289993e-04,1.000000000000000000e+00
3.569011688232421875e-01,-2.864429664611816406e+01,5.241075515747070312e+01,5.241075515747070312e+01,-9.562264312990009785e-05,-3.497314080595970154e-02,1.396888933413720224e-06,3.067587428517981607e-08,9.800841915819091810e-09,1.673744176514446735e-03,1.046323632181156427e-07,-4.273439202506779111e-08,1.931411586701869965e-02,-1.216296186612453312e-05,-2.745981691987253726e-05,8.975356458051919617e-09,0.000000000000000000e+00,5.794458556920289993e-04,1.000000000000000000e+00
3.569011688232421875e-01,-2.864429664611816406e+01,5.241075515747070312e+01,5.241075515747070312e+01,-9.562264312990009785e-05,-3.497314080595970154e-02,1.396888933413720224e-06,3.067587428517981607e-08,9.800841915819091810e-09,1.673744176514446735e-03,1.046323632181156427e-07,-4.273439202506779111e-08,1.931411586701869965e-02,-1.216296186612453312e-05,-2.745981691987253726e-05,8.975356458051919617e-09,0.000000000000000000e+00,5.794458556920289993e-04,1.000000000000000000e+00
3.569011688232421875e-01,-2.864429664611816406e+01,5.241075515747070312e+01,5.241075515747070312e+01,-9.562264312990009785e-05,-3.497314080595970154e-02,1.396888933413720224e-06,3.067587428517981607e-08,9.800841915819091810e-09,1.673744176514446735e-03,1.046323632181156427e-07,-4.273439202506779111e-08,1.931411586701869965e-02,-1.216296186612453312e-05,-2.745981691987253726e-05,8.975356458051919617e-09,0.000000000000000000e+00,5.794458556920289993e-04,1.000000000000000000e+00
3.569011688232421875e-01,-2.864429664611816406e+01,5.241075515747070312e+01,5.241075515747070312e+01,-9.562264312990009785e-05,-3.497314080595970154e-02,1.396888933413720224e-06,3.067587428517981607e-08,9.800841915819091810e-09,1.673744176514446735e-03,1.046323632181156427e-07,-4.273439202506779111e-08,1.931411586701869965e-02,-1.216296186612453312e-05,-2.745981691987253726e-05,8.975356458051919617e-09,0.000000000000000000e+00,5.794458556920289993e-04,1.000000000000000000e+00
4.765405654907226562e-01,-2.864429664611816406e+01,5.241075515747070312e+01,5.241075515747070312e+01,-9.562264312990009785e-05,-3.497314080595970154e-02,1.396888933413720224e-06,4.205443815408216324e-08,-2.537994525653175515e-08,9.715950000099837780e-04,9.510716836302890442e-08,-2.940568606391025241e-07,-5.868879612535238266e-03,-1.533164868305902928e-05,-3.592683788156136870e-05,2.038947011229197415e-09,0.000000000000000000e+00,5.794458556920289993e-04,1.000000000000000000e+00
4.765405654907226562e-01,-2.864429664611816406e+01,5.241075515747070312e+01,5.241075515747070312e+01,-9.562264312990009785e-05,-3.497314080595970154e-02,1.396888933413720224e-06,4.205443815408216324e-08,-2.537994525653175515e-08,9.715950000099837780e-04,9.510716836302890442e-08,-2.940568606391025241e-07,-5.868879612535238266e-03,-1.533164868305902928e-05,-3.592683788156136870e-05,2.038947011229197415e-09,0.000000000000000000e+00,5.794458556920289993e-04,1.000000000000000000e+00
4.765405654907226562e-01,-2.864429664611816406e+01,5.241075515747070312e+01,5.241075515747070312e+01,-9.562264312990009785e-05,-3.497314080595970154e-02,1.396888933413720224e-06,4.205443815408216324e-08,-2.537994525653175515e-08,9.715950000099837780e-04,9.510716836302890442e-08,-2.940568606391025241e-07,-5.868879612535238266e-03,-1.533164868305902928e-05,-3.592683788156136870e-05,2.038947011229197415e-09,0.000000000000000000e+00,5.794458556920289993e-04,1.000000000000000000e+00
4.765405654907226562e-01,-2.864429664611816406e+01,5.241075515747070312e+01,5.241075515747070312e+01,-9.562264312990009785e-05,-3.497314080595970154e-02,1.396888933413720224e-06,4.205443815408216324e-08,-2.537994525653175515e-08,9.715950000099837780e-04,9.510716836302890442e-08,-2.940568606391025241e-07,-5.868879612535238266e-03,-1.533164868305902928e-05,-3.592683788156136870e-05,2.038947011229197415e-09,0.000000000000000000e+00,5.794458556920289993e-04,1.000000000000000000e+00
4.765405654907226562e-01,-2.864429664611816406e+01,5.241075515747070312e+01,5.241075515747070312e+01,-9.562264312990009785e-05,-3.497314080595970154e-02,1.396888933413720224e-06,4.205443815408216324e-08,-2.537994525653175515e-08,9.715950000099837780e-04,9.510716836302890442e-08,-2.940568606391025241e-07,-5.868879612535238266e-03,-1.533164868305902928e-05,-3.592683788156136870e-05,2.038947011229197415e-09,0.000000000000000000e+00,5.794458556920289993e-04,1.000000000000000000e+00
4.765405654907226562e-01,-2.864429664611816406e+01,5.241075515747070312e+01,5.241075515747070312e+01,-9.562264312990009785e-05,-3.497314080595970154e-02,1.396888933413720224e-06,4.205443815408216324e-08,-2.537994525653175515e-08,9.715950000099837780e-04,9.510716836302890442e-08,-2.940568606391025241e-07,-5.868879612535238266e-03,-1.533164868305902928e-05,-3.592683788156136870e-05,2.038947011229197415e-09,0.000000000000000000e+00,5.794458556920289993e-04,1.000000000000000000e+00
4.765405654907226562e-01,-2.864429664611816406e+01,5.241075515747070312e+01,5.241075515747070312e+01,-9.562264312990009785e-05,-3.497314080595970154e-02,1.396888933413720224e-06,4.205443815408216324e-08,-2.537994525653175515e-08,9.715950000099837780e-04,9.510716836302890442e-08,-2.940568606391025241e-07,-5.868879612535238266e-03,-1.533164868305902928e-05,-3.592683788156136870e-05,2.038947011229197415e-09,0.000000000000000000e+00,5.794458556920289993e-04,1.000000000000000000e+00
6.200885772705078125e-01,-2.864429664611816406e+01,5.241075515747070312e+01,5.241075515747070312e+01,-9.562264312990009785e-05,-3.497314080595970154e-02,1.396888933413720224e-06,3.533863690563521232e-08,-7.522515232949444908e-08,-1.792418188415467739e-04,-4.678435772120792535e-08,-3.472371759016823489e-07,-8.017086423933506012e-03,-4.844423165195621550e-05,-3.142822970403358340e-05,8.643044502321117761e-09,0.000000000000000000e+00,5.794458556920289993e-04,1.000000000000000000e+00
6.200885772705078125e-01,-2.864429664611816406e+01,5.241075515747070312e+01,5.241075515747070312e+01,-9.562264312990009785e-05,-3.497314080595970154e-02,1.396888933413720224e-06,3.533863690563521232e-08,-7.522515232949444908e-08,-1.792418188415467739e-04,-4.678435772120792535e-08,-3.472371759016823489e-07,-8.017086423933506012e-03,-4.844423165195621550e-05,-3.142822970403358340e-05,8.643044502321117761e-09,0.000000000000000000e+00,5.794458556920289993e-04,1.000000000000000000e+00
6.200885772705078125e-01,-2.864429664611816406e+01,5.241075515747070312e+01,5.241075515747070312e+01,-9.562264312990009785e-05,-3.497314080595970154e-02,1.396888933413720224e-06,3.533863690563521232e-08,-7.522515232949444908e-08,-1.792418188415467739e-04,-4.678435772120792535e-08,-3.472371759016823489e-07,-8.017086423933506012e-03,-4.844423165195621550e-05,-3.142822970403358340e-05,8.643044502321117761e-09,0.000000000000000000e+00,5.794458556920289993e-04,1.000000000000000000e+00
6.200885772705078125e-01,-2.864429664611816406e+01,5.241075515747070312e+01,5.241075515747070312e+01,-9.562264312990009785e-05,-3.497314080595970154e-02,1.396888933413720224e-06,3.533863690563521232e-08,-7.522515232949444908e-08,-1.792418188415467739e-04,-4.678435772120792535e-08,-3.472371759016823489e-07,-8.017086423933506012e-03,-4.844423165195621550e-05,-3.142822970403358340e-05,8.643044502321117761e-09,0.000000000000000000e+00,5.794458556920289993e-04,1.000000000000000000e+00
6.200885772705078125e-01,-2.864429664611816406e+01,5.241075515747070312e+01,5.241075515747070312e+01,-9.562264312990009785e-05,-3.497314080595970154e-02,1.396888933413720224e-06,3.533863690563521232e-08,-7.522515232949444908e-08,-1.792418188415467739e-04,-4.678435772120792535e-08,-3.472371759016823489e-07,-8.017086423933506012e-03,-4.844423165195621550e-05,-3.142822970403358340e-05,8.643044502321117761e-09,0.000000000000000000e+00,5.794458556920289993e-04,1.000000000000000000e+00
6.200885772705078125e-01,-2.864429664611816406e+01,5.241075515747070312e+01,5.241075515747070312e+01,-9.562264312990009785e-05,-3.497314080595970154e-02,1.396888933413720224e-06,3.533863690563521232e-08,-7.522515232949444908e-08,-1.792418188415467739e-04,-4.678435772120792535e-08,-3.472371759016823489e-07,-8.017086423933506012e-03,-4.844423165195621550e-05,-3.142822970403358340e-05,8.643044502321117761e-09,0.000000000000000000e+00,5.794458556920289993e-04,1.000000000000000000e+00
7.946169376373291016e-01,-2.864429664611816406e+01,5.241075515747070312e+01,5.241075515747070312e+01,-9.562264312990009785e-05,-3.497314080595970154e-02,1.396888933413720224e-06,4.124060026811093849e-08,-4.518769358696772542e-08,-6.520137685583904386e-05,3.381664370749604132e-08,1.721064677440153901e-07,6.534206913784146309e-04,-4.793169500771909952e-05,-3.768352326005697250e-05,1.625180523490143969e-08,0.000000000000000000e+00,5.794458556920289993e-04,1.000000000000000000e+00
7.946169376373291016e-01,-2.864429664611816406e+01,5.241075515747070312e+01,5.241075515747070312e+01,-9.562264312990009785e-05,-3.497314080595970154e-02,1.396888933413720224e-06,4.124060026811093849e-08,-4.518769358696772542e-08,-6.520137685583904386e-05,3.381664370749604132e-08,1.721064677440153901e-07,6.534206913784146309e-04,-4.793169500771909952e-05,-3.768352326005697250e-05,1.625180523490143969e-08,0.000000000000000000e+00,5.794458556920289993e-04,1.000000000000000000e+00
7.946169376373291016e-01,-2.864429664611816406e+01,5.241075515747070312e+01,5.241075515747070312e+01,-9.562264312990009785e-05,-3.497314080595970154e-02,1.396888933413720224e-06,4.124060026811093849e-08,-4.518769358696772542e-08,-6.520137685583904386e-05,3.381664370749604132e-08,1.721064677440153901e-07,6.534206913784146309e-04,-4.793169500771909952e-05,-3.768352326005697250e-05,1.625180523490143969e-08,0.000000000000000000e+00,5.794458556920289993e-04,1.000000000000000000e+00
8.783230781555175781e-01,-2.864429664611816406e+01,5.241075515747070312e+01,5.241075515747070312e+01,-9.562264312990009785e-05,-3.497314080595970154e-02,1.396888933413720224e-06,-4.329780978196140495e-08,7.909893184887550888e-09,-1.996661194425541908e-05,-1.009942820928699803e-06,6.343332756841846276e-07,5.403996328823268414e-04,4.616190835804445669e-06,3.942957118852064013e-05,-1.380621750257660096e-08,0.000000000000000000e+00,5.794458556920289993e-04,1.000000000000000000e+00
8.783230781555175781e-01,-2.864429664611816406e+01,5.241075515747070312e+01,5.241075515747070312e+01,-9.562264312990009785e-05,-3.497314080595970154e-02,1.396888933413720224e-06,-4.329780978196140495e-08,7.909893184887550888e-09,-1.996661194425541908e-05,-1.009942820928699803e-06,6.343332756841846276e-07,5.403996328823268414e-04,4.616190835804445669e-06,3.942957118852064013e-05,-1.380621750257660096e-08,0.000000000000000000e+00,5.794458556920289993e-04,1.000000000000000000e+00
8.783230781555175781e-01,-2.864429664611816406e+01,5.241075515747070312e+01,5.241075515747070312e+01,-9.562264312990009785e-05,-3.497314080595970154e-02,1.396888933413720224e-06,-4.329780978196140495e-08,7.909893184887550888e-09,-1.996661194425541908e-05,-1.009942820928699803e-06,6.343332756841846276e-07,5.403996328823268414e-04,4.616190835804445669e-06,3.942957118852064013e-05,-1.380621750257660096e-08,0.000000000000000000e+00,5.794458556920289993e-04,1.000000000000000000e+00
9.483780860900878906e-01,-2.864429664611816406e+01,5.241075515747070312e+01,5.241075515747070312e+01,-9.562264312990009785e-05,-3.497314080595970154e-02,1.396888933413720224e-06,-4.110571438786791987e-08,-5.461166452391807979e-08,1.571750617586076260e-03,3.129105863308723201e-08,-8.924637882046226878e-07,2.272096276283264160e-02,-3.079364978475496173e-05,3.777957681450061500e-05,-1.540528771215576853e-08,0.000000000000000000e+00,5.794458556920289993e-04,1.000000000000000000e+00
9.483780860900878906e-01,-2.864429664611816406e+01,5.241075515747070312e+01,5.241075515747070312e+01,-9.562264312990009785e-05,-3.497314080595970154e-02,1.396888933413720224e-06,-4.110571438786791987e-08,-5.461166452391807979e-08,1.571750617586076260e-03,3.129105863308723201e-08,-8.924637882046226878e-07,2.272096276283264160e-02,-3.079364978475496173e-05,3.777957681450061500e-05,-1.540528771215576853e-08,0.000000000000000000e+00,5.794458556920289993e-04,1.000000000000000000e+00
9.483780860900878906e-01,-2.864429664611816406e+01,5.241075515747070312e+01,5.241075515747070312e+01,-9.562264312990009785e-05,-3.497314080595970154e-02,1.396888933413720224e-06,-4.110571438786791987e-08,-5.461166452391807979e-08,1.571750617586076260e-03,3.129105863308723201e-08,-8.924637882046226878e-07,2.272096276283264160e-02,-3.079364978475496173e-05,3.777957681450061500e-05,-1.540528771215576853e-08,0.000000000000000000e+00,5.794458556920289993e-04,1.000000000000000000e+00
9.483780860900878906e-01,-2.864429664611816406e+01,5.241075515747070312e+01,5.241075515747070312e+01,-9.562264312990009785e-05,-3.497314080595970154e-02,1.396888933413720224e-06,-4.110571438786791987e-08,-5.461166452391807979e-08,1.571750617586076260e-03,3.129105863308723201e-08,-8.924637882046226878e-07,2.272096276283264160e-02,-3.079364978475496173e-05,3.777957681450061500e-05,-1.540528771215576853e-08,0.000000000000000000e+00,5.794458556920289993e-04,1.000000000000000000e+00
9.483780860900878906e-01,-2.864429664611816406e+01,5.241075515747070312e+01,5.241075515747070312e+01,-9.562264312990009785e-05,-3.497314080595970154e-02,1.396888933413720224e-06,-1.427507800855210007e-08,3.000270254460701835e-08,3.352935309521853924e-04,3.404945800866698846e-07,1.073799921869067475e-06,-1.569127663969993591e-02,2.285240225319284946e-05,1.076048283721320331e-05,4.390284580324532726e-09,0.000000000000000000e+00,5.794458556920289993e-04,1.000000000000000000e+00
1.027177095413208008e+00,-2.864429664611816406e+01,5.241075515747070312e+01,5.241075515747070312e+01,-9.562264312990009785e-05,-3.497314080595970154e-02,1.396888933413720224e-06,-1.427507800855210007e-08,3.000270254460701835e-08,3.352935309521853924e-04,3.404945800866698846e-07,1.073799921869067475e-06,-1.569127663969993591e-02,2.285240225319284946e-05,1.076048283721320331e-05,4.390284580324532726e-09,0.000000000000000000e+00,5.794458556920289993e-04,1.000000000000000000e+00
1.027177095413208008e+00,-2.864429664611816406e+01,5.241075515747070312e+01,5.241075515747070312e+01,-9.562264312990009785e-05,-3.497314080595970154e-02,1.396888933413720224e-06,-1.427507800855210007e-08,3.000270254460701835e-08,3.352935309521853924e-04,3.404945800866698846e-07,1.073799921869067475e-06,-1.569127663969993591e-02,2.285240225319284946e-05,1.076048283721320331e-05,4.390284580324532726e-09,0.000000000000000000e+00,5.794458556920289993e-04,1.000000000000000000e+00
1.095043420791625977e+00,-2.864429664611816406e+01,5.241075515747070312e+01,5.241075515747070312e+01,-9.562264312990009785e-05,-3.497314080595970154e-02,1.396888933413720224e-06,-2.586263647685882461e-08,1.570539431838824385e-08,-5.845674313604831696e-04,-1.707409182927221991e-07,-2.106686594061102369e-07,-1.355401147156953812e-02,1.517326018074527383e-05,2.326192952750716358e-05,-9.266723388634545699e-09,0.000000000000000000e+00,5.794458556920289993e-04,1.000000000000000000e+00
1.095043420791625977e+00,-2.864429664611816406e+01,5.241075515747070312e+01,5.241075515747070312e+01,-9.562264312990009785e-05,-3.497314080595970154e-02,1.396888933413720224e-06,-2.586263647685882461e-08,1.570539431838824385e-08,-5.845674313604831696e-04,-1.707409182927221991e-07,-2.106686594061102369e-07,-1.355401147156953812e-02,1.517326018074527383e-05,2.326192952750716358e-05,-9.266723388634545699e-09,0.000000000000000000e+00,5.794458556920289993e-04,1.000000000000000000e+00
1.095043420791625977e+00,-2.864429664611816406e+01,5.241075515747070312e+01,5.241075515747070312e+01,-9.562264312990009785e-05,-3.497314080595970154e-02,1.396888933413720224e-06,-2.586263647685882461e-08,1.570539431838824385e-08,-5.845674313604831696e-04,-1.707409182927221991e-07,-2.106686594061102369e-07,-1.355401147156953812e-02,1.517326018074527383e-05,2.326192952750716358e-05,-9.266723388634545699e-09,0.000000000000000000e+00,5.794458556920289993e-04,1.000000000000000000e+00
1.095043420791625977e+00,-2.864429664611816406e+01,5.241075515747070312e+01,5.241075515747070312e+01,-9.562264312990009785e-05,-3.497314080595970154e-02,1.396888933413720224e-06,-2.586263647685882461e-08,1.570539431838824385e-08,-5.845674313604831696e-04,-1.707409182927221991e-07,-2.106686594061102369e-07,-1.355401147156953812e-02,1.517326018074527383e-05,2.326192952750716358e-05,-9.266723388634545699e-09,0.000000000000000000e+00,5.794458556920289993e-04,1.000000000000000000e+00
1.168572425842285156e+00,-2.864429664611816406e+01,5.241075515747070312e+01,5.241075515747070312e+01,-9.562264312990009785e-05,-3.497314080595970154e-02,1.396888933413720224e-06,4.202438574907318980e-08,-7.507664179229323054e-08,9.451822843402624130e-04,9.232686011273472104e-07,-1.234642468261881731e-06,2.080471068620681763e-02,-4.478558912524022162e-05,-3.581127020879648626e-05,2.749735994456159460e-09,0.000000000000000000e+00,5.794458556920289993e-04,1.000000000000000000e+00
1.168572425842285156e+00,-2.864429664611816406e+01,5.241075515747070312e+01,5.241075515747070312e+01,-9.562264312990009785e-05,-3.497314080595970154e-02,1.396888933413720224e-06,4.202438574907318980e-08,-7.507664179229323054e-08,9.451822843402624130e-04,9.232686011273472104e-07,-1.234642468261881731e-06,2.080471068620681763e-02,-4.478558912524022162e-05,-3.581127020879648626e-05,2.749735994456159460e-09,0.000000000000000000e+00,5.794458556920289993e-04,1.000000000000000000e+00
1.168572425842285156e+00,-2.864429664611816406e+01,5.241075515747070312e+01,5.241075515747070312e+01,-9.562264312990009785e-05,-3.497314080595970154e-02,1.396888933413720224e-06,4.202438574907318980e-08,-7.507664179229323054e-08,9.451822843402624130e-04,9.232686011273472104e-07,-1.234642468261881731e-06,2.080471068620681763e-02,-4.478558912524022162e-05,-3.581127020879648626e-05,2.749735994456159460e-09,0.000000000000000000e+00,5.794458556920289993e-04,1.000000000000000000e+00
1.168572425842285156e+00,-2.864429664611816406e+01,5.241075515747070312e+01,5.241075515747070312e+01,-9.562264312990009785e-05,-3.497314080595970154e-02,1.396888933413720224e-06,4.202438574907318980e-08,-7.507664179229323054e-08,9.451822843402624130e-04,9.232686011273472104e-07,-1.234642468261881731e-06,2.080471068620681763e-02,-4.478558912524022162e-05,-3.581127020879648626e-05,2.749735994456159460e-09,0.000000000000000000e+00,5.794458556920289993e-04,1.000000000000000000e+00
1.168572425842285156e+00,-2.864429664611816406e+01,5.241075515747070312e+01,5.241075515747070312e+01,-9.562264312990009785e-05,-3.497314080595970154e-02,1.396888933413720224e-06,-1.659779336193878407e-08,1.168429442088836367e-08,-7.958195055834949017e-04,-7.811244699951203074e-07,1.156065650320670102e-06,-2.319837361574172974e-02,2.262949783471412957e-05,1.543556027172598988e-05,-6.918984052362020520e-09,0.000000000000000000e+00,5.794458556920289993e-04,1.000000000000000000e+00
1.243620872497558594e+00,-2.864429664611816406e+01,5.241075515747070312e+01,5.241075515747070312e+01,-9.562264312990009785e-05,-3.497314080595970154e-02,1.396888933413720224e-06,-1.659779336193878407e-08,1.168429442088836367e-08,-7.958195055834949017e-04,-7.811244699951203074e-07,1.156065650320670102e-06,-2.319837361574172974e-02,2.262949783471412957e-05,1.543556027172598988e-05,-6.918984052362020520e-09,0.000000000000000000e+00,5.794458556920289993e-04,1.000000000000000000e+00
1.243620872497558594e+00,-2.864429664611816406e+01,5.241075515747070312e+01,5.241075515747070312e+01,-9.562264312990009785e-05,-3.497314080595970154e-02,1.396888933413720224e-06,-1.659779336193878407e-08,1.168429442088836367e-08,-7.958195055834949017e-04,-7.811244699951203074e-07,1.156065650320670102e-06,-2.319837361574172974e-02,2.262949783471412957e-05,1.543556027172598988e-05,-6.918984052362020520e-09,0.000000000000000000e+00,5.794458556920289993e-04,1.000000000000000000e+00
1.243620872497558594e+00,-2.864429664611816406e+01,5.241075515747070312e+01,5.241075515747070312e+01,-9.562264312990009785e-05,-3.497314080595970154e-02,1.396888933413720224e-06,-1.609283906134351128e-08,-2.891989403508432588e-08,-8.258437737822532654e-04,7.379990840661321272e-09,-5.934369369242631365e-07,-4.388096567708998919e-04,-1.239840094058308750e-05,1.497939774708356708e-05,-7.316342642837980748e-09,0.000000000000000000e+00,5.794458556920289993e-04,1.000000000000000000e+00
1.312042951583862305e+00,-2.864429664611816406e+01,5.241075515747070312e+01,5.241075515747070312e+01,-9.562264312990009785e-05,-3.497314080595970154e-02,1.396888933413720224e-06,-1.609283906134351128e-08,-2.891989403508432588e-08,-8.258437737822532654e-04,7.379990840661321272e-09,-5.934369369242631365e-07,-4.388096567708998919e-04,-1.239840094058308750e-05,1.497939774708356708e-05,-7.316342642837980748e-09,0.000000000000000000e+00,5.794458556920289993e-04,1.000000000000000000e+00
1.312042951583862305e+00,-2.864429664611816406e+01,5.241075515747070312e+01,5.241075515747070312e+01,-9.562264312990009785e-05,-3.497314080595970154e-02,1.396888933413720224e-06,-1.609283906134351128e-08,-2.891989403508432588e-08,-8.258437737822532654e-04,7.379990840661321272e-09,-5.934369369242631365e-07,-4.388096567708998919e-04,-1.239840094058308750e-05,1.497939774708356708e-05,-7.316342642837980748e-09,0.000000000000000000e+00,5.794458556920289993e-04,1.000000000000000000e+00
1.383129358291625977e+00,-2.864429664611816406e+01,5.241075515747070312e+01,5.241075515747070312e+01,-9.562264312990009785e-05,-3.497314080595970154e-02,1.396888933413720224e-06,1.865809018397612817e-08,9.855875227060550969e-09,3.602679062169045210e-04,4.888547664450015873e-07,5.454737674881471321e-07,1.668549142777919769e-02,2.118721204169560224e-05,-1.459555733163142577e-05,-4.664050923253171277e-09,0.000000000000000000e+00,5.794458556920289993e-04,1.000000000000000000e+00
1.383129358291625977e+00,-2.864429664611816406e+01,5.241075515747070312e+01,5.241075515747070312e+01,-9.562264312990009785e-05,-3.497314080595970154e-02,1.396888933413720224e-06,1.865809018397612817e-08,9.855875227060550969e-09,3.602679062169045210e-04,4.888547664450015873e-07,5.454737674881471321e-07,1.668549142777919769e-02,2.118721204169560224e-05,-1.459555733163142577e-05,-4.664050923253171277e-09,0.000000000000000000e+00,5.794458556920289993e-04,1.000000000000000000e+00
1.383129358291625977e+00,-2.864429664611816406e+01,5.241075515747070312e+01,5.241075515747070312e+01,-9.562264312990009785e-05,-3.497314080595970154e-02,1.396888933413720224e-06,1.865809018397612817e-08,9.855875227060550969e-09,3.602679062169045210e-04,4.888547664450015873e-07,5.454737674881471321e-07,1.668549142777919769e-02,2.118721204169560224e-05,-1.459555733163142577e-05,-4.664050923253171277e-09,0.000000000000000000e+00,5.794458556920289993e-04,1.000000000000000000e+00
1.450951814651489258e+00,-2.864429664611816406e+01,5.241075515747070312e+01,5.241075515747070312e+01,-9.562264312990009785e-05,-3.497314080595970154e-02,1.396888933413720224e-06,0.000000000000000000e+00,0.000000000000000000e+00,0.000000000000000000e+00,-2.751019678726152051e-07,-1.453187650213294546e-07,-5.311926361173391342e-03,0.000000000000000000e+00,0.000000000000000000e+00,0.000000000000000000e+00,0.000000000000000000e+00,5.794458556920289993e-04,1.000000000000000000e+00
1.450951814651489258e+00,-2.864429664611816406e+01,5.241075515747070312e+01,5.241075515747070312e+01,-9.562264312990009785e-05,-3.497314080595970154e-02,1.396888933413720224e-06,0.000000000000000000e+00,0.000000000000000000e+00,0.000000000000000000e+00,-2.751019678726152051e-07,-1.453187650213294546e-07,-5.311926361173391342e-03,0.000000000000000000e+00,0.000000000000000000e+00,0.000000000000000000e+00,0.000000000000000000e+00,5.794458556920289993e-04,1.000000000000000000e+00
1.450951814651489258e+00,-2.864429664611816406e+01,5.241075515747070312e+01,5.241075515747070312e+01,-9.562264312990009785e-05,-3.497314080595970154e-02,1.396888933413720224e-06,0.000000000000000000e+00,0.000000000000000000e+00,0.000000000000000000e+00,-2.751019678726152051e-07,-1.453187650213294546e-07,-5.311926361173391342e-03,0.000000000000000000e+00,0.000000000000000000e+00,0.000000000000000000e+00,0.000000000000000000e+00,5.794458556920289993e-04,1.000000000000000000e+00
1.527701377868652344e+00,-2.864429664611816406e+01,5.241075515747070312e+01,5.241075515747070312e+01,-9.562264312990009785e-05,-3.497314080595970154e-02,1.396888933413720224e-06,-2.571426982456159749e-08,9.260508448960536043e-08,1.951143640326336026e-04,-3.350412498548394069e-07,1.206587739943643101e-06,2.542221220210194588e-03,5.182617678656242788e-05,2.045410656137391925e-05,4.056299296451015834e-09,0.000000000000000000e+00,5.794458556920289993e-04,1.000000000000000000e+00
1.527701377868652344e+00,-2.864429664611816406e+01,5.241075515747070312e+01,5.241075515747070312e+01,-9.562264312990009785e-05,-3.497314080595970154e-02,1.396888933413720224e-06,-2.571426982456159749e-08,9.260508448960536043e-08,1.951143640326336026e-04,-3.350412498548394069e-07,1.206587739943643101e-06,2.542221220210194588e-03,5.182617678656242788e-05,2.045410656137391925e-05,4.056299296451015834e-09,0.000000000000000000e+00,5.794458556920289993e-04,1.000000000000000000e+00
1.527701377868652344e+00,-2.864429664611816406e+01,5.241075515747070312e+01,5.241075515747070312e+01,-9.562264312990009785e-05,-3.497314080595970154e-02,1.396888933413720224e-06,-2.571426982456159749e-08,9.260508448960536043e-08,1.951143640326336026e-04,-3.350412498548394069e-07,1.206587739943643101e-06,2.542221220210194588e-03,5.182617678656242788e-05,2.045410656137391925e-05,4.056299296451015834e-09,0.000000000000000000e+00,5.794458556920289993e-04,1.000000000000000000e+00
1.600134611129760742e+00,-2.864429664611816406e+01,5.241075515747070312e+01,5.241075515747070312e+01,-9.562264312990009785e-05,-3.497314080595970154e-02,1.396888933413720224e-06,-1.378805070118005460e-08,6.422754239565620082e-08,-1.247920095920562744e-03,1.646512117758902605e-07,-3.917751598692120751e-07,-1.992227137088775635e-02,5.196194979362189770e-05,1.163056003861129284e-05,-2.767544415860356821e-09,0.000000000000000000e+00,5.794458556920289993e-04,1.000000000000000000e+00
1.600134611129760742e+00,-2.864429664611816406e+01,5.241075515747070312e+01,5.241075515747070312e+01,-9.562264312990009785e-05,-3.497314080595970154e-02,1.396888933413720224e-06,-1.378805070118005460e-08,6.422754239565620082e-08,-1.247920095920562744e-03,1.646512117758902605e-07,-3.917751598692120751e-07,-1.992227137088775635e-02,5.196194979362189770e-05,1.163056003861129284e-05,-2.767544415860356821e-09,0.000000000000000000e+00,5.794458556920289993e-04,1.000000000000000000e+00
1.600134611129760742e+00,-2.864429664611816406e+01,5.241075515747070312e+01,5.241075515747070312e+01,-9.562264312990009785e-05,-3.497314080595970154e-02,1.396888933413720224e-06,-1.378805070118005460e-08,6.422754239565620082e-08,-1.247920095920562744e-03,1.646512117758902605e-07,-3.917751598692120751e-07,-1.992227137088775635e-02,5.196194979362189770e-05,1.163056003861129284e-05,-2.767544415860356821e-09,0.000000000000000000e+00,5.794458556920289993e-04,1.000000000000000000e+00
1.600134611129760742e+00,-2.864429664611816406e+01,5.241075515747070312e+01,5.241075515747070312e+01,-9.562264312990009785e-05,-3.497314080595970154e-02,1.396888933413720224e-06,-1.378805070118005460e-08,6.422754239565620082e-08,-1.247920095920562744e-03,1.646512117758902605e-07,-3.917751598692120751e-07,-1.992227137088775635e-02,5.196194979362189770e-05,1.163056003861129284e-05,-2.767544415860356821e-09,0.000000000000000000e+00,5.794458556920289993e-04,1.000000000000000000e+00
1.600134611129760742e+00,-2.864429664611816406e+01,5.241075515747070312e+01,5.241075515747070312e+01,-9.562264312990009785e-05,-3.497314080595970154e-02,1.396888933413720224e-06,-1.378805070118005460e-08,6.422754239565620082e-08,-1.247920095920562744e-03,1.646512117758902605e-07,-3.917751598692120751e-07,-1.992227137088775635e-02,5.196194979362189770e-05,1.163056003861129284e-05,-2.767544415860356821e-09,0.000000000000000000e+00,5.794458556920289993e-04,1.000000000000000000e+00
1.600134611129760742e+00,-2.864429664611816406e+01,5.241075515747070312e+01,5.241075515747070312e+01,-9.562264312990009785e-05,-3.497314080595970154e-02,1.396888933413720224e-06,-4.296073274900891192e-09,5.070674191642865480e-08,5.603932004305534065e-05,8.226790271237405250e-08,-1.171861185866873711e-07,1.130154542624950409e-02,4.764549521496519446e-05,2.202752966695697978e-06,2.650061059483732606e-09,0.000000000000000000e+00,5.794458556920289993e-04,1.000000000000000000e+00
1.715513467788696289e+00,-2.864429664611816406e+01,5.241075515747070312e+01,5.241075515747070312e+01,-9.562264312990009785e-05,-3.497314080595970154e-02,1.396888933413720224e-06,-4.296073274900891192e-09,5.070674191642865480e-08,5.603932004305534065e-05,8.226790271237405250e-08,-1.171861185866873711e-07,1.130154542624950409e-02,4.764549521496519446e-05,2.202752966695697978e-06,2.650061059483732606e-09,0.000000000000000000e+00,5.794458556920289993e-04,1.000000000000000000e+00
1.715513467788696289e+00,-2.864429664611816406e+01,5.241075515747070312e+01,5.241075515747070312e+01,-9.562264312990009785e-05,-3.497314080595970154e-02,1.396888933413720224e-06,-4.296073274900891192e-09,5.070674191642865480e-08,5.603932004305534065e-05,8.226790271237405250e-08,-1.171861185866873711e-07,1.130154542624950409e-02,4.764549521496519446e-05,2.202752966695697978e-06,2.650061059483732606e-09,0.000000000000000000e+00,5.794458556920289993e-04,1.000000000000000000e+00
1.715513467788696289e+00,-2.864429664611816406e+01,5.241075515747070312e+01,5.241075515747070312e+01,-9.562264312990009785e-05,-3.497314080595970154e-02,1.396888933413720224e-06,-1.941034177832534624e-08,-1.456738996097328709e-08,-1.054416294209659100e-03,-1.548566928022410139e-07,-6.687810127914417535e-07,-1.137742679566144943e-02,-9.051424967765342444e-06,1.900115603348240256e-05,-1.133388050078565357e-08,0.000000000000000000e+00,5.794458556920289993e-04,1.000000000000000000e+00
1.813115119934082031e+00,-2.864429664611816406e+01,5.241075515747070312e+01,5.241075515747070312e+01,-9.562264312990009785e-05,-3.497314080595970154e-02,1.396888933413720224e-06,-1.941034177832534624e-08,-1.456738996097328709e-08,-1.054416294209659100e-03,-1.548566928022410139e-07,-6.687810127914417535e-07,-1.137742679566144943e-02,-9.051424967765342444e-06,1.900115603348240256e-05,-1.133388050078565357e-08,0.000000000000000000e+00,5.794458556920289993e-04,1.000000000000000000e+00
1.813115119934082031e+00,-2.864429664611816406e+01,5.241075515747070312e+01,5.241075515747070312e+01,-9.562264312990009785e-05,-3.497314080595970154e-02,1.396888933413720224e-06,-1.941034177832534624e-08,-1.456738996097328709e-08,-1.054416294209659100e-03,-1.548566928022410139e-07,-6.687810127914417535e-07,-1.137742679566144943e-02,-9.051424967765342444e-06,1.900115603348240256e-05,-1.133388050078565357e-08,0.000000000000000000e+00,5.794458556920289993e-04,1.000000000000000000e+00
1.813115119934082031e+00,-2.864429664611816406e+01,5.241075515747070312e+01,5.241075515747070312e+01,-9.562264312990009785e-05,-3.497314080595970154e-02,1.396888933413720224e-06,-1.941034177832534624e-08,-1.456738996097328709e-08,-1.054416294209659100e-03,-1.548566928022410139e-07,-6.687810127914417535e-07,-1.137742679566144943e-02,-9.051424967765342444e-06,1.900115603348240256e-05,-1.133388050078565357e-08,0.000000000000000000e+00,5.794458556920289993e-04,1.000000000000000000e+00
1.896134853363037109e+00,-2.864429664611816406e+01,5.241075515747070312e+01,5.241075515747070312e+01,-9.562264312990009785e-05,-3.497314080595970154e-02,1.396888933413720224e-06,5.025217930665348831e-08,-2.454646619298728183e-08,1.417883031535893679e-04,8.391079973080195487e-07,-1.202012640533212107e-07,1.440867781639099121e-02,-1.465668265154818073e-05,-4.288291529519483447e-05,2.157115597256620276e-09,0.000000000000000000e+00,5.794458556920289993e-04,1.000000000000000000e+00
1.896134853363037109e+00,-2.864429664611816406e+01,5.241075515747070312e+01,5.241075515747070312e+01,-9.562264312990009785e-05,-3.497314080595970154e-02,1.396888933413720224e-06,5.025217930665348831e-08,-2.454646619298728183e-08,1.417883031535893679e-04,8.391079973080195487e-07,-1.202012640533212107e-07,1.440867781639099121e-02,-1.465668265154818073e-05,-4.288291529519483447e-05,2.157115597256620276e-09,0.000000000000000000e+00,5.794458556920289993e-04,1.000000000000000000e+00
1.896134853363037109e+00,-2.864429664611816406e+01,5.241075515747070312e+01,5.241075515747070312e+01,-9.562264312990009785e-05,-3.497314080595970154e-02,1.396888933413720224e-06,5.025217930665348831e-08,-2.454646619298728183e-08,1.417883031535893679e-04,8.391079973080195487e-07,-1.202012640533212107e-07,1.440867781639099121e-02,-1.465668265154818073e-05,-4.288291529519483447e-05,2.157115597256620276e-09,0.000000000000000000e+00,5.794458556920289993e-04,1.000000000000000000e+00
1.896134853363037109e+00,-2.864429664611816406e+01,5.241075515747070312e+01,5.241075515747070312e+01,-9.562264312990009785e-05,-3.497314080595970154e-02,1.396888933413720224e-06,5.025217930665348831e-08,-2.454646619298728183e-08,1.417883031535893679e-04,8.391079973080195487e-07,-1.202012640533212107e-07,1.440867781639099121e-02,-1.465668265154818073e-05,-4.288291529519483447e-05,2.157115597256620276e-09,0.000000000000000000e+00,5.794458556920289993e-04,1.000000000000000000e+00
1.896134853363037109e+00,-2.864429664611816406e+01,5.241075515747070312e+01,5.241075515747070312e+01,-9.562264312990009785e-05,-3.497314080595970154e-02,1.396888933413720224e-06,5.025217930665348831e-08,-2.454646619298728183e-08,1.417883031535893679e-04,8.391079973080195487e-07,-1.202012640533212107e-07,1.440867781639099121e-02,-1.465668265154818073e-05,-4.288291529519483447e-05,2.157115597256620276e-09,0.000000000000000000e+00,5.794458556920289993e-04,1.000000000000000000e+00
1.896134853363037109e+00,-2.864429664611816406e+01,5.241075515747070312e+01,5.241075515747070312e+01,-9.562264312990009785e-05,-3.497314080595970154e-02,1.396888933413720224e-06,5.025217930665348831e-08,-2.454646619298728183e-08,1.417883031535893679e-04,8.391079973080195487e-07,-1.202012640533212107e-07,1.440867781639099121e-02,-1.465668265154818073e-05,-4.288291529519483447e-05,2.157115597256620276e-09,0.000000000000000000e+00,5.794458556920289993e-04,1.000000000000000000e+00
1.896134853363037109e+00,-2.864429664611816406e+01,5.241075515747070312e+01,5.241075515747070312e+01,-9.562264312990009785e-05,-3.497314080595970154e-02,1.396888933413720224e-06,5.025217930665348831e-08,-2.454646619298728183e-08,1.417883031535893679e-04,8.391079973080195487e-07,-1.202012640533212107e-07,1.440867781639099121e-02,-1.465668265154818073e-05,-4.288291529519483447e-05,2.157115597256620276e-09,0.000000000000000000e+00,5.794458556920289993e-04,1.000000000000000000e+00
1.896134853363037109e+00,-2.864429664611816406e+01,5.241075515747070312e+01,5.241075515747070312e+01,-9.562264312990009785e-05,-3.497314080595970154e-02,1.396888933413720224e-06,5.025217930665348831e-08,-2.454646619298728183e-08,1.417883031535893679e-04,8.391079973080195487e-07,-1.202012640533212107e-07,1.440867781639099121e-02,-1.465668265154818073e-05,-4.288291529519483447e-05,2.157115597256620276e-09,0.000000000000000000e+00,5.794458556920289993e-04,1.000000000000000000e+00
2.195794820785522461e+00,-2.864429664611816406e+01,5.241075515747070312e+01,5.241075515747070312e+01,-9.562264312990009785e-05,-3.497314080595970154e-02,1.396888933413720224e-06,-2.887048289323956851e-08,-2.256124354005351051e-08,1.290590618737041950e-03,-9.194810104418138508e-07,-2.088005288669592119e-07,2.202879078686237335e-02,-1.310502284468384460e-05,2.720549309742636979e-05,-1.189384057909137482e-08,0.000000000000000000e+00,5.794458556920289993e-04,1.000000000000000000e+00
2.195794820785522461e+00,-2.864429664611816406e+01,5.241075515747070312e+01,5.241075515747070312e+01,-9.562264312990009785e-05,-3.497314080595970154e-02,1.396888933413720224e-06,-2.887048289323956851e-08,-2.256124354005351051e-08,1.290590618737041950e-03,-9.194810104418138508e-07,-2.088005288669592119e-07,2.202879078686237335e-02,-1.310502284468384460e-05,2.720549309742636979e-05,-1.189384057909137482e-08,0.000000000000000000e+00,5.794458556920289993e-04,1.000000000000000000e+00
2.195794820785522461e+00,-2.864429664611816406e+01,5.241075515747070312e+01,5.241075515747070312e+01,-9.562264312990009785e-05,-3.497314080595970154e-02,1.396888933413720224e-06,-2.887048289323956851e-08,-2.256124354005351051e-08,1.290590618737041950e-03,-9.194810104418138508e-07,-2.088005288669592119e-07,2.202879078686237335e-02,-1.310502284468384460e-05,2.720549309742636979e-05,-1.189384057909137482e-08,0.000000000000000000e+00,5.794458556920289993e-04,1.000000000000000000e+00
2.195794820785522461e+00,-2.864429664611816406e+01,5.241075515747070312e+01,5.241075515747070312e+01,-9.562264312990009785e-05,-3.497314080595970154e-02,1.396888933413720224e-06,-2.887048289323956851e-08,-2.256124354005351051e-08,1.290590618737041950e-03,-9.194810104418138508e-07,-2.088005288669592119e-07,2.202879078686237335e-02,-1.310502284468384460e-05,2.720549309742636979e-05,-1.189384057909137482e-08,0.000000000000000000e+00,5.794458556920289993e-04,1.000000000000000000e+00
2.195794820785522461e+00,-2.864429664611816406e+01,5.241075515747070312e+01,5.241075515747070312e+01,-9.562264312990009785e-05,-3.497314080595970154e-02,1.396888933413720224e-06,-2.887048289323956851e-08,-2.256124354005351051e-08,1.290590618737041950e-03,-9.194810104418138508e-07,-2.088005288669592119e-07,2.202879078686237335e-02,-1.310502284468384460e-05,2.720549309742636979e-05,-1.189384057909137482e-08,0.000000000000000000e+00,5.794458556920289993e-04,1.000000000000000000e+00
2.195794820785522461e+00,-2.864429664611816406e+01,5.241075515747070312e+01,5.241075515747070312e+01,-9.562264312990009785e-05,-3.497314080595970154e-02,1.396888933413720224e-06,-2.887048289323956851e-08,-2.256124354005351051e-08,1.290590618737041950e-03,-9.194810104418138508e-07,-2.088005288669592119e-07,2.202879078686237335e-02,-1.310502284468384460e-05,2.720549309742636979e-05,-1.189384057909137482e-08,0.000000000000000000e+00,5.794458556920289993e-04,1.000000000000000000e+00
2.195794820785522461e+00,-2.864429664611816406e+01,5.241075515747070312e+01,5.241075515747070312e+01,-9.562264312990009785e-05,-3.497314080595970154e-02,1.396888933413720224e-06,-2.887048289323956851e-08,-2.256124354005351051e-08,1.290590618737041950e-03,-9.194810104418138508e-07,-2.088005288669592119e-07,2.202879078686237335e-02,-1.310502284468384460e-05,2.720549309742636979e-05,-1.189384057909137482e-08,0.000000000000000000e+00,5.794458556920289993e-04,1.000000000000000000e+00
2.195794820785522461e+00,-2.864429664611816406e+01,5.241075515747070312e+01,5.241075515747070312e+01,-9.562264312990009785e-05,-3.497314080595970154e-02,1.396888933413720224e-06,-2.887048289323956851e-08,-2.256124354005351051e-08,1.290590618737041950e-03,-9.194810104418138508e-07,-2.088005288669592119e-07,2.202879078686237335e-02,-1.310502284468384460e-05,2.720549309742636979e-05,-1.189384057909137482e-08,0.000000000000000000e+00,5.794458556920289993e-04,1.000000000000000000e+00
2.195794820785522461e+00,-2.864429664611816406e+01,5.241075515747070312e+01,5.241075515747070312e+01,-9.562264312990009785e-05,-3.497314080595970154e-02,1.396888933413720224e-06,-2.887048289323956851e-08,-2.256124354005351051e-08,1.290590618737041950e-03,-9.194810104418138508e-07,-2.088005288669592119e-07,2.202879078686237335e-02,-1.310502284468384460e-05,2.720549309742636979e-05,-1.189384057909137482e-08,0.000000000000000000e+00,5.794458556920289993e-04,1.000000000000000000e+00
2.195794820785522461e+00,-2.864429664611816406e+01,5.241075515747070312e+01,5.241075515747070312e+01,-9.562264312990009785e-05,-3.497314080595970154e-02,1.396888933413720224e-06,-2.887048289323956851e-08,-2.256124354005351051e-08,1.290590618737041950e-03,-9.194810104418138508e-07,-2.088005288669592119e-07,2.202879078686237335e-02,-1.310502284468384460e-05,2.720549309742636979e-05,-1.189384057909137482e-08,0.000000000000000000e+00,5.794458556920289993e-04,1.000000000000000000e+00
2.374083757400512695e+00,-2.864429664611816406e+01,5.241075515747070312e+01,5.241075515747070312e+01,-9.562264312990009785e-05,-3.497314080595970154e-02,1.396888933413720224e-06,6.441305266946528718e-09,2.766524609398857137e-08,1.616692519746720791e-03,1.980593395956020686e-07,2.817139943545043934e-07,1.829064101912081242e-03,3.506233406369574368e-05,-4.186150817986344919e-06,-1.018389639284578152e-08,0.000000000000000000e+00,5.794458556920289993e-04,1.000000000000000000e+00
2.374083757400512695e+00,-2.864429664611816406e+01,5.241075515747070312e+01,5.241075515747070312e+01,-9.562264312990009785e-05,-3.497314080595970154e-02,1.396888933413720224e-06,6.441305266946528718e-09,2.766524609398857137e-08,1.616692519746720791e-03,1.980593395956020686e-07,2.817139943545043934e-07,1.829064101912081242e-03,3.506233406369574368e-05,-4.186150817986344919e-06,-1.018389639284578152e-08,0.000000000000000000e+00,5.794458556920289993e-04,1.000000000000000000e+00
2.374083757400512695e+00,-2.864429664611816406e+01,5.241075515747070312e+01,5.241075515747070312e+01,-9.562264312990009785e-05,-3.497314080595970154e-02,1.396888933413720224e-06,6.441305266946528718e-09,2.766524609398857137e-08,1.616692519746720791e-03,1.980593395956020686e-07,2.817139943545043934e-07,1.829064101912081242e-03,3.506233406369574368e-05,-4.186150817986344919e-06,-1.018389639284578152e-08,0.000000000000000000e+00,5.794458556920289993e-04,1.000000000000000000e+00
2.447860002517700195e+00,-2.864429664611816406e+01,5.241075515747070312e+01,5.241075515747070312e+01,-9.562264312990009785e-05,-3.497314080595970154e-02,1.396888933413720224e-06,4.060110825321316952e-08,-6.070265179403122602e-09,-1.404928509145975113e-03,4.630190062471228885e-07,-4.572679301872994984e-07,-4.095656052231788635e-02,-2.011368997045792639e-05,-3.589580228435806930e-05,1.067766408624493124e-08,0.000000000000000000e+00,5.794458556920289993e-04,1.000000000000000000e+00
2.447860002517700195e+00,-2.864429664611816406e+01,5.241075515747070312e+01,5.241075515747070312e+01,-9.562264312990009785e-05,-3.497314080595970154e-02,1.396888933413720224e-06,4.060110825321316952e-08,-6.070265179403122602e-09,-1.404928509145975113e-03,4.630190062471228885e-07,-4.572679301872994984e-07,-4.095656052231788635e-02,-2.011368997045792639e-05,-3.589580228435806930e-05,1.067766408624493124e-08,0.000000000000000000e+00,5.794458556920289993e-04,1.000000000000000000e+00
2.500878810882568359e+00,-2.864429664611816406e+01,5.241075515747070312e+01,5.241075515747070312e+01,-9.562264312990009785e-05,-3.497314080595970154e-02,1.396888933413720224e-06,5.199392472121644460e-09,6.367726790301730944e-09,2.797762863337993622e-04,-6.677199166915670503e-07,2.345958307614637306e-07,3.177560493350028992e-02,-2.062978637695778161e-06,-5.849958597536897287e-06,9.518474008984867396e-09,0.000000000000000000e+00,5.794458556920289993e-04,1.000000000000000000e+00
2.500878810882568359e+00,-2.864429664611816406e+01,5.241075515747070312e+01,5.241075515747070312e+01,-9.562264312990009785e-05,-3.497314080595970154e-02,1.396888933413720224e-06,5.199392472121644460e-09,6.367726790301730944e-09,2.797762863337993622e-04,-6.677199166915670503e-07,2.345958307614637306e-07,3.177560493350028992e-02,-2.062978637695778161e-06,-5.849958597536897287e-06,9.518474008984867396e-09,0.000000000000000000e+00,5.794458556920289993e-04,1.000000000000000000e+00
2.560195446014404297e+00,-2.864429664611816406e+01,5.241075515747070312e+01,5.241075515747070312e+01,-9.562264312990009785e-05,-3.497314080595970154e-02,1.396888933413720224e-06,1.483688016890027939e-08,-9.102395281956887629e-09,1.469112117774784565e-03,1.624752883344626753e-07,-2.608057627639936982e-07,2.005062811076641083e-02,-5.731545570597518235e-06,-1.270687153009930626e-05,6.924035234057157595e-10,0.000000000000000000e+00,5.794458556920289993e-04,1.000000000000000000e+00
2.560195446014404297e+00,-2.864429664611816406e+01,5.241075515747070312e+01,5.241075515747070312e+01,-9.562264312990009785e-05,-3.497314080595970154e-02,1.396888933413720224e-06,1.483688016890027939e-08,-9.102395281956887629e-09,1.469112117774784565e-03,1.624752883344626753e-07,-2.608057627639936982e-07,2.005062811076641083e-02,-5.731545570597518235e-06,-1.270687153009930626e-05,6.924035234057157595e-10,0.000000000000000000e+00,5.794458556920289993e-04,1.000000000000000000e+00
2.560195446014404297e+00,-2.864429664611816406e+01,5.241075515747070312e+01,5.241075515747070312e+01,-9.562264312990009785e-05,-3.497314080595970154e-02,1.396888933413720224e-06,1.483688016890027939e-08,-9.102395281956887629e-09,1.469112117774784565e-03,1.624752883344626753e-07,-2.608057627639936982e-07,2.005062811076641083e-02,-5.731545570597518235e-06,-1.270687153009930626e-05,6.924035234057157595e-10,0.000000000000000000e+00,5.794458556920289993e-04,1.000000000000000000e+00
2.618730545043945312e+00,-2.864429664611816406e+01,5.241075515747070312e+01,5.241075515747070312e+01,-9.562264312990009785e-05,-3.497314080595970154e-02,1.396888933413720224e-06,-9.953740942592048668e-09,4.952895338306007034e-08,-5.022734403610229492e-04,-4.235172070821136003e-07,1.001644363896048162e-06,-3.367868810892105103e-02,4.172729677520692348e-05,8.377572157769463956e-06,-7.351476649652965989e-10,0.000000000000000000e+00,5.794458556920289993e-04,1.000000000000000000e+00
2.618730545043945312e+00,-2.864429664611816406e+01,5.241075515747070312e+01,5.241075515747070312e+01,-9.562264312990009785e-05,-3.497314080595970154e-02,1.396888933413720224e-06,-9.953740942592048668e-09,4.952895338306007034e-08,-5.022734403610229492e-04,-4.235172070821136003e-07,1.001644363896048162e-06,-3.367868810892105103e-02,4.172729677520692348e-05,8.377572157769463956e-06,-7.351476649652965989e-10,0.000000000000000000e+00,5.794458556920289993e-04,1.000000000000000000e+00
2.677334070205688477e+00,-2.864429664611816406e+01,5.241075515747070312e+01,5.241075515747070312e+01,-9.562264312990009785e-05,-3.497314080595970154e-02,1.396888933413720224e-06,2.596022596890179557e-08,-2.027473477994590212e-08,-3.787440073210746050e-05,6.128294671725598164e-07,-1.191117576126998756e-06,7.924421690404415131e-03,-1.224434072355506942e-05,-2.478698115737643093e-05,1.231818647084992335e-08,0.000000000000000000e+00,5.794458556920289993e-04,1.000000000000000000e+00
2.677334070205688477e+00,-2.864429664611816406e+01,5.241075515747070312e+01,5.241075515747070312e+01,-9.562264312990009785e-05,-3.497314080595970154e-02,1.396888933413720224e-06,2.596022596890179557e-08,-2.027473477994590212e-08,-3.787440073210746050e-05,6.128294671725598164e-07,-1.191117576126998756e-06,7.924421690404415131e-03,-1.224434072355506942e-05,-2.478698115737643093e-05,1.231818647084992335e-08,0.000000000000000000e+00,5.794458556920289993e-04,1.000000000000000000e+00
2.677334070205688477e+00,-2.864429664611816406e+01,5.241075515747070312e+01,5.241075515747070312e+01,-9.562264312990009785e-05,-3.497314080595970154e-02,1.396888933413720224e-06,2.596022596890179557e-08,-2.027473477994590212e-08,-3.787440073210746050e-05,6.128294671725598164e-07,-1.191117576126998756e-06,7.924421690404415131e-03,-1.224434072355506942e-05,-2.478698115737643093e-05,1.231818647084992335e-08,0.000000000000000000e+00,5.794458556920289993e-04,1.000000000000000000e+00
2.677334070205688477e+00,-2.864429664611816406e+01,5.241075515747070312e+01,5.241075515747070312e+01,-9.562264312990009785e-05,-3.497314080595970154e-02,1.396888933413720224e-06,-2.608553018035308924e-08,-2.689262146304827183e-08,9.859547390078660101e-06,-6.699085588479647413e-07,-8.518232874621389783e-08,6.144089857116341591e-04,-1.547567990201059729e-05,2.484573451511096209e-05,-1.198227561616249659e-08,0.000000000000000000e+00,5.794458556920289993e-04,1.000000000000000000e+00
2.755024909973144531e+00,-2.864429664611816406e+01,5.241075515747070312e+01,5.241075515747070312e+01,-9.562264312990009785e-05,-3.497314080595970154e-02,1.396888933413720224e-06,-2.608553018035308924e-08,-2.689262146304827183e-08,9.859547390078660101e-06,-6.699085588479647413e-07,-8.518232874621389783e-08,6.144089857116341591e-04,-1.547567990201059729e-05,2.484573451511096209e-05,-1.198227561616249659e-08,0.000000000000000000e+00,5.794458556920289993e-04,1.000000000000000000e+00
2.755024909973144531e+00,-2.864429664611816406e+01,5.241075515747070312e+01,5.241075515747070312e+01,-9.562264312990009785e-05,-3.497314080595970154e-02,1.396888933413720224e-06,-2.608553018035308924e-08,-2.689262146304827183e-08,9.859547390078660101e-06,-6.699085588479647413e-07,-8.518232874621389783e-08,6.144089857116341591e-04,-1.547567990201059729e-05,2.484573451511096209e-05,-1.198227561616249659e-08,0.000000000000000000e+00,5.794458556920289993e-04,1.000000000000000000e+00
2.755024909973144531e+00,-2.864429664611816406e+01,5.241075515747070312e+01,5.241075515747070312e+01,-9.562264312990009785e-05,-3.497314080595970154e-02,1.396888933413720224e-06,-2.608553018035308924e-08,-2.689262146304827183e-08,9.859547390078660101e-06,-6.699085588479647413e-07,-8.518232874621389783e-08,6.144089857116341591e-04,-1.547567990201059729e-05,2.484573451511096209e-05,-1.198227561616249659e-08,0.000000000000000000e+00,5.794458556920289993e-04,1.000000000000000000e+00
2.830169916152954102e+00,-2.864429664611816406e+01,5.241075515747070312e+01,5.241075515747070312e+01,-9.562264312990009785e-05,-3.497314080595970154e-02,1.396888933413720224e-06,3.867526032763635158e-08,-2.596585879643953376e-08,-5.127872573211789131e-04,8.618109177405131049e-07,1.233299062874948504e-08,-6.955177057534456253e-03,-1.969061850104480982e-05,-3.429540083743631840e-05,8.068266055261119618e-09,0.000000000000000000e+00,5.794458556920289993e-04,1.000000000000000000e+00
2.830169916152954102e+00,-2.864429664611816406e+01,5.241075515747070312e+01,5.241075515747070312e+01,-9.562264312990009785e-05,-3.497314080595970154e-02,1.396888933413720224e-06,3.867526032763635158e-08,-2.596585879643953376e-08,-5.127872573211789131e-04,8.618109177405131049e-07,1.233299062874948504e-08,-6.955177057534456253e-03,-1.969061850104480982e-05,-3.429540083743631840e-05,8.068266055261119618e-09,0.000000000000000000e+00,5.794458556920289993e-04,1.000000000000000000e+00
2.830169916152954102e+00,-2.864429664611816406e+01,5.241075515747070312e+01,5.241075515747070312e+01,-9.562264312990009785e-05,-3.497314080595970154e-02,1.396888933413720224e-06,3.867526032763635158e-08,-2.596585879643953376e-08,-5.127872573211789131e-04,8.618109177405131049e-07,1.233299062874948504e-08,-6.955177057534456253e-03,-1.969061850104480982e-05,-3.429540083743631840e-05,8.068266055261119618e-09,0.000000000000000000e+00,5.794458556920289993e-04,1.000000000000000000e+00
2.830169916152954102e+00,-2.864429664611816406e+01,5.241075515747070312e+01,5.241075515747070312e+01,-9.562264312990009785e-05,-3.497314080595970154e-02,1.396888933413720224e-06,3.867526032763635158e-08,-2.596585879643953376e-08,-5.127872573211789131e-04,8.618109177405131049e-07,1.233299062874948504e-08,-6.955177057534456253e-03,-1.969061850104480982e-05,-3.429540083743631840e-05,8.068266055261119618e-09,0.000000000000000000e+00,5.794458556920289993e-04,1.000000000000000000e+00
2.830169916152954102e+00,-2.864429664611816406e+01,5.241075515747070312e+01,5.241075515747070312e+01,-9.562264312990009785e-05,-3.497314080595970154e-02,1.396888933413720224e-06,3.867526032763635158e-08,-2.596585879643953376e-08,-5.127872573211789131e-04,8.618109177405131049e-07,1.233299062874948504e-08,-6.955177057534456253e-03,-1.969061850104480982e-05,-3.429540083743631840e-05,8.068266055261119618e-09,0.000000000000000000e+00,5.794458556920289993e-04,1.000000000000000000e+00
2.917726278305053711e+00,-2.864429664611816406e+01,5.241075515747070312e+01,5.241075515747070312e+01,-9.562264312990009785e-05,-3.497314080595970154e-02,1.396888933413720224e-06,3.206161380830963026e-08,-5.620909604431290063e-08,7.258277764776721597e-05,-7.553587266784234089e-08,-3.454144632542011095e-07,6.685636937618255615e-03,-5.156096449354663491e-05,-2.865177702915389091e-05,1.012184558391027167e-08,0.000000000000000000e+00,5.794458556920289993e-04,1.000000000000000000e+00
