# Time,X,Y,Z,Roll,Pitch,Yaw,Vx,Vy,Vz,Ax,Ay,Az,Wx,Wy,Wz,Throttle,Steer,Brake
0.000000000000000000e+00,1.638874969482421875e+02,-1.303422164916992188e+01,-1.303422164916992188e+01,-2.524096369743347168e-01,1.797801971435546875e+02,6.284148548729717731e-04,-4.904456615447998047e+00,1.798900775611400604e-02,-3.449734067544341087e-03,5.753588676452636719e-01,-2.250113757327198982e-03,-3.274291008710861206e-02,7.755429251119494438e-04,4.394390881061553955e-01,1.841683872044086456e-02,1.000000000000000000e+00,2.223423507530242205e-04,0.000000000000000000e+00
1.045818328857421875e-01,1.638874969482421875e+02,-1.303422164916992188e+01,-1.303422164916992188e+01,-2.524096369743347168e-01,1.797801971435546875e+02,6.284148548729717731e-04,-4.904456615447998047e+00,1.798900775611400604e-02,-3.449734067544341087e-03,5.753588676452636719e-01,-2.250113757327198982e-03,-3.274291008710861206e-02,7.755429251119494438e-04,4.394390881061553955e-01,1.841683872044086456e-02,1.000000000000000000e+00,2.223423507530242205e-04,0.000000000000000000e+00
1.045818328857421875e-01,1.638874969482421875e+02,-1.303422164916992188e+01,-1.303422164916992188e+01,-2.524096369743347168e-01,1.797801971435546875e+02,6.284148548729717731e-04,-4.904456615447998047e+00,1.798900775611400604e-02,-3.449734067544341087e-03,5.753588676452636719e-01,-2.250113757327198982e-03,-3.274291008710861206e-02,7.755429251119494438e-04,4.394390881061553955e-01,1.841683872044086456e-02,1.000000000000000000e+00,2.223423507530242205e-04,0.000000000000000000e+00
1.045818328857421875e-01,1.638874969482421875e+02,-1.303422164916992188e+01,-1.303422164916992188e+01,-2.524096369743347168e-01,1.797801971435546875e+02,6.284148548729717731e-04,-4.904456615447998047e+00,1.798900775611400604e-02,-3.449734067544341087e-03,5.753588676452636719e-01,-2.250113757327198982e-03,-3.274291008710861206e-02,7.755429251119494438e-04,4.394390881061553955e-01,1.841683872044086456e-02,1.000000000000000000e+00,2.223423507530242205e-04,0.000000000000000000e+00
1.045818328857421875e-01,1.638874969482421875e+02,-1.303422164916992188e+01,-1.303422164916992188e+01,-2.524096369743347168e-01,1.797801971435546875e+02,6.284148548729717731e-04,-4.904456615447998047e+00,1.798900775611400604e-02,-3.449734067544341087e-03,5.753588676452636719e-01,-2.250113757327198982e-03,-3.274291008710861206e-02,7.755429251119494438e-04,4.394390881061553955e-01,1.841683872044086456e-02,1.000000000000000000e+00,2.223423507530242205e-04,0.000000000000000000e+00
1.045818328857421875e-01,1.638874969482421875e+02,-1.303422164916992188e+01,-1.303422164916992188e+01,-2.524096369743347168e-01,1.797801971435546875e+02,6.284148548729717731e-04,-4.904456615447998047e+00,1.798900775611400604e-02,-3.449734067544341087e-03,5.753588676452636719e-01,-2.250113757327198982e-03,-3.274291008710861206e-02,7.755429251119494438e-04,4.394390881061553955e-01,1.841683872044086456e-02,1.000000000000000000e+00,2.223423507530242205e-04,0.000000000000000000e+00
1.045818328857421875e-01,1.633914947509765625e+02,-1.303238296508789062e+01,-1.303238296508789062e+01,-1.812117397785186768e-01,1.797827911376953125e+02,4.176491056568920612e-04,-5.012578487396240234e+00,1.823365315794944763e-02,-1.347507932223379612e-03,-1.032594680786132812e+00,2.336433390155434608e-03,2.007685787975788116e-02,4.019913030788302422e-04,8.488032817840576172e-01,3.042037598788738251e-02,1.000000000000000000e+00,2.175467379856854677e-04,0.000000000000000000e+00
2.092907428741455078e-01,1.633914947509765625e+02,-1.303238296508789062e+01,-1.303238296508789062e+01,-1.812117397785186768e-01,1.797827911376953125e+02,4.176491056568920612e-04,-5.012578487396240234e+00,1.823365315794944763e-02,-1.347507932223379612e-03,-1.032594680786132812e+00,2.336433390155434608e-03,2.007685787975788116e-02,4.019913030788302422e-04,8.488032817840576172e-01,3.042037598788738251e-02,1.000000000000000000e+00,2.175467379856854677e-04,0.000000000000000000e+00
2.092907428741455078e-01,1.633914947509765625e+02,-1.303238296508789062e+01,-1.303238296508789062e+01,-1.812117397785186768e-01,1.797827911376953125e+02,4.176491056568920612e-04,-5.012578487396240234e+00,1.823365315794944763e-02,-1.347507932223379612e-03,-1.032594680786132812e+00,2.336433390155434608e-03,2.007685787975788116e-02,4.019913030788302422e-04,8.488032817840576172e-01,3.042037598788738251e-02,1.000000000000000000e+00,2.175467379856854677e-04,0.000000000000000000e+00
2.092907428741455078e-01,1.633914947509765625e+02,-1.303238296508789062e+01,-1.303238296508789062e+01,-1.812117397785186768e-01,1.797827911376953125e+02,4.176491056568920612e-04,-5.012578487396240234e+00,1.823365315794944763e-02,-1.347507932223379612e-03,-1.032594680786132812e+00,2.336433390155434608e-03,2.007685787975788116e-02,4.019913030788302422e-04,8.488032817840576172e-01,3.042037598788738251e-02,1.000000000000000000e+00,2.175467379856854677e-04,0.000000000000000000e+00
2.092907428741455078e-01,1.633914947509765625e+02,-1.303238296508789062e+01,-1.303238296508789062e+01,-1.812117397785186768e-01,1.797827911376953125e+02,4.176491056568920612e-04,-5.012578487396240234e+00,1.823365315794944763e-02,-1.347507932223379612e-03,-1.032594680786132812e+00,2.336433390155434608e-03,2.007685787975788116e-02,4.019913030788302422e-04,8.488032817840576172e-01,3.042037598788738251e-02,1.000000000000000000e+00,2.175467379856854677e-04,0.000000000000000000e+00
2.092907428741455078e-01,1.628872985839843750e+02,-1.303052425384521484e+01,-1.303052425384521484e+01,-1.019269078969955444e-01,1.797853698730468750e+02,1.373670529574155807e-04,-4.964414119720458984e+00,1.794809661805629730e-02,4.386723972856998444e-03,6.454741954803466797e-01,-3.826882690191268921e-03,7.684724032878875732e-02,-1.090642996132373810e-03,4.356797039508819580e-01,2.460531145334243774e-02,0.000000000000000000e+00,1.828874810598790646e-04,1.000000000000000000e+00
2.839093208312988281e-01,1.628872985839843750e+02,-1.303052425384521484e+01,-1.303052425384521484e+01,-1.019269078969955444e-01,1.797853698730468750e+02,1.373670529574155807e-04,-4.964414119720458984e+00,1.794809661805629730e-02,4.386723972856998444e-03,6.454741954803466797e-01,-3.826882690191268921e-03,7.684724032878875732e-02,-1.090642996132373810e-03,4.356797039508819580e-01,2.460531145334243774e-02,0.000000000000000000e+00,1.828874810598790646e-04,1.000000000000000000e+00
2.839093208312988281e-01,1.628872985839843750e+02,-1.303052425384521484e+01,-1.303052425384521484e+01,-1.019269078969955444e-01,1.797853698730468750e+02,1.373670529574155807e-04,-4.964414119720458984e+00,1.794809661805629730e-02,4.386723972856998444e-03,6.454741954803466797e-01,-3.826882690191268921e-03,7.684724032878875732e-02,-1.090642996132373810e-03,4.356797039508819580e-01,2.460531145334243774e-02,0.000000000000000000e+00,1.828874810598790646e-04,1.000000000000000000e+00
2.839093208312988281e-01,1.628872985839843750e+02,-1.303052425384521484e+01,-1.303052425384521484e+01,-1.019269078969955444e-01,1.797853698730468750e+02,1.373670529574155807e-04,-4.964414119720458984e+00,1.794809661805629730e-02,4.386723972856998444e-03,6.454741954803466797e-01,-3.826882690191268921e-03,7.684724032878875732e-02,-1.090642996132373810e-03,4.356797039508819580e-01,2.460531145334243774e-02,0.000000000000000000e+00,1.828874810598790646e-04,1.000000000000000000e+00
2.839093208312988281e-01,1.628872985839843750e+02,-1.303052425384521484e+01,-1.303052425384521484e+01,-1.019269078969955444e-01,1.797853698730468750e+02,1.373670529574155807e-04,-4.964414119720458984e+00,1.794809661805629730e-02,4.386723972856998444e-03,6.454741954803466797e-01,-3.826882690191268921e-03,7.684724032878875732e-02,-1.090642996132373810e-03,4.356797039508819580e-01,2.460531145334243774e-02,0.000000000000000000e+00,1.828874810598790646e-04,1.000000000000000000e+00
3.569011688232421875e-01,1.625306396484375000e+02,-1.302923393249511719e+01,-1.302923393249511719e+01,-1.009570211172103882e-01,1.797855224609375000e+02,8.631482342025265098e-05,-4.602225780487060547e+00,1.662480644881725311e-02,-3.423036541789770126e-03,4.962038040161132812e+00,-1.812928728759288788e-02,-1.069949716329574585e-01,-1.083106268197298050e-03,-2.717027962207794189e-01,-7.038143463432788849e-03,0.000000000000000000e+00,1.456124446121975780e-04,1.000000000000000000e+00
3.569011688232421875e-01,1.625306396484375000e+02,-1.302923393249511719e+01,-1.302923393249511719e+01,-1.009570211172103882e-01,1.797855224609375000e+02,8.631482342025265098e-05,-4.602225780487060547e+00,1.662480644881725311e-02,-3.423036541789770126e-03,4.962038040161132812e+00,-1.812928728759288788e-02,-1.069949716329574585e-01,-1.083106268197298050e-03,-2.717027962207794189e-01,-7.038143463432788849e-03,0.000000000000000000e+00,1.456124446121975780e-04,1.000000000000000000e+00
3.569011688232421875e-01,1.625306396484375000e+02,-1.302923393249511719e+01,-1.302923393249511719e+01,-1.009570211172103882e-01,1.797855224609375000e+02,8.631482342025265098e-05,-4.602225780487060547e+00,1.662480644881725311e-02,-3.423036541789770126e-03,4.962038040161132812e+00,-1.812928728759288788e-02,-1.069949716329574585e-01,-1.083106268197298050e-03,-2.717027962207794189e-01,-7.038143463432788849e-03,0.000000000000000000e+00,1.456124446121975780e-04,1.000000000000000000e+00
3.569011688232421875e-01,1.625306396484375000e+02,-1.302923393249511719e+01,-1.302923393249511719e+01,-1.009570211172103882e-01,1.797855224609375000e+02,8.631482342025265098e-05,-4.602225780487060547e+00,1.662480644881725311e-02,-3.423036541789770126e-03,4.962038040161132812e+00,-1.812928728759288788e-02,-1.069949716329574585e-01,-1.083106268197298050e-03,-2.717027962207794189e-01,-7.038143463432788849e-03,0.000000000000000000e+00,1.456124446121975780e-04,1.000000000000000000e+00
4.765405654907226562e-01,1.622185211181640625e+02,-1.302811813354492188e+01,-1.302811813354492188e+01,-1.435227543115615845e-01,1.797839965820312500e+02,1.895046152640134096e-04,-4.057610034942626953e+00,1.471117790788412094e-02,-8.212797692976891994e-04,4.552144050598144531e+00,-1.599496975541114807e-02,2.174665592610836029e-02,-8.551600622013211250e-04,-7.378693819046020508e-01,-2.808612026274204254e-02,0.000000000000000000e+00,1.129150405176915228e-04,1.000000000000000000e+00
4.765405654907226562e-01,1.622185211181640625e+02,-1.302811813354492188e+01,-1.302811813354492188e+01,-1.435227543115615845e-01,1.797839965820312500e+02,1.895046152640134096e-04,-4.057610034942626953e+00,1.471117790788412094e-02,-8.212797692976891994e-04,4.552144050598144531e+00,-1.599496975541114807e-02,2.174665592610836029e-02,-8.551600622013211250e-04,-7.378693819046020508e-01,-2.808612026274204254e-02,0.000000000000000000e+00,1.129150405176915228e-04,1.000000000000000000e+00
4.765405654907226562e-01,1.622185211181640625e+02,-1.302811813354492188e+01,-1.302811813354492188e+01,-1.435227543115615845e-01,1.797839965820312500e+02,1.895046152640134096e-04,-4.057610034942626953e+00,1.471117790788412094e-02,-8.212797692976891994e-04,4.552144050598144531e+00,-1.599496975541114807e-02,2.174665592610836029e-02,-8.551600622013211250e-04,-7.378693819046020508e-01,-2.808612026274204254e-02,0.000000000000000000e+00,1.129150405176915228e-04,1.000000000000000000e+00
4.765405654907226562e-01,1.622185211181640625e+02,-1.302811813354492188e+01,-1.302811813354492188e+01,-1.435227543115615845e-01,1.797839965820312500e+02,1.895046152640134096e-04,-4.057610034942626953e+00,1.471117790788412094e-02,-8.212797692976891994e-04,4.552144050598144531e+00,-1.599496975541114807e-02,2.174665592610836029e-02,-8.551600622013211250e-04,-7.378693819046020508e-01,-2.808612026274204254e-02,0.000000000000000000e+00,1.129150405176915228e-04,1.000000000000000000e+00
4.765405654907226562e-01,1.622185211181640625e+02,-1.302811813354492188e+01,-1.302811813354492188e+01,-1.435227543115615845e-01,1.797839965820312500e+02,1.895046152640134096e-04,-4.057610034942626953e+00,1.471117790788412094e-02,-8.212797692976891994e-04,4.552144050598144531e+00,-1.599496975541114807e-02,2.174665592610836029e-02,-8.551600622013211250e-04,-7.378693819046020508e-01,-2.808612026274204254e-02,0.000000000000000000e+00,1.129150405176915228e-04,1.000000000000000000e+00
4.765405654907226562e-01,1.622185211181640625e+02,-1.302811813354492188e+01,-1.302811813354492188e+01,-1.435227543115615845e-01,1.797839965820312500e+02,1.895046152640134096e-04,-4.057610034942626953e+00,1.471117790788412094e-02,-8.212797692976891994e-04,4.552144050598144531e+00,-1.599496975541114807e-02,2.174665592610836029e-02,-8.551600622013211250e-04,-7.378693819046020508e-01,-2.808612026274204254e-02,0.000000000000000000e+00,1.129150405176915228e-04,1.000000000000000000e+00
4.765405654907226562e-01,1.622185211181640625e+02,-1.302811813354492188e+01,-1.302811813354492188e+01,-1.435227543115615845e-01,1.797839965820312500e+02,1.895046152640134096e-04,-4.057610034942626953e+00,1.471117790788412094e-02,-8.212797692976891994e-04,4.552144050598144531e+00,-1.599496975541114807e-02,2.174665592610836029e-02,-8.551600622013211250e-04,-7.378693819046020508e-01,-2.808612026274204254e-02,0.000000000000000000e+00,1.129150405176915228e-04,1.000000000000000000e+00
6.200885772705078125e-01,1.618605957031250000e+02,-1.302685642242431641e+01,-1.302685642242431641e+01,-2.294670194387435913e-01,1.797807922363281250e+02,4.270985955372452736e-04,-3.239773511886596680e+00,1.175034418702125549e-02,-7.668170146644115448e-04,5.697303295135498047e+00,-2.062608674168586731e-02,3.794044605456292629e-04,-4.965240368619561195e-04,-8.845655918121337891e-01,-3.387437388300895691e-02,0.000000000000000000e+00,1.403808564646169543e-04,1.000000000000000000e+00
6.200885772705078125e-01,1.618605957031250000e+02,-1.302685642242431641e+01,-1.302685642242431641e+01,-2.294670194387435913e-01,1.797807922363281250e+02,4.270985955372452736e-04,-3.239773511886596680e+00,1.175034418702125549e-02,-7.668170146644115448e-04,5.697303295135498047e+00,-2.062608674168586731e-02,3.794044605456292629e-04,-4.965240368619561195e-04,-8.845655918121337891e-01,-3.387437388300895691e-02,0.000000000000000000e+00,1.403808564646169543e-04,1.000000000000000000e+00
6.200885772705078125e-01,1.618605957031250000e+02,-1.302685642242431641e+01,-1.302685642242431641e+01,-2.294670194387435913e-01,1.797807922363281250e+02,4.270985955372452736e-04,-3.239773511886596680e+00,1.175034418702125549e-02,-7.668170146644115448e-04,5.697303295135498047e+00,-2.062608674168586731e-02,3.794044605456292629e-04,-4.965240368619561195e-04,-8.845655918121337891e-01,-3.387437388300895691e-02,0.000000000000000000e+00,1.403808564646169543e-04,1.000000000000000000e+00
6.200885772705078125e-01,1.618605957031250000e+02,-1.302685642242431641e+01,-1.302685642242431641e+01,-2.294670194387435913e-01,1.797807922363281250e+02,4.270985955372452736e-04,-3.239773511886596680e+00,1.175034418702125549e-02,-7.668170146644115448e-04,5.697303295135498047e+00,-2.062608674168586731e-02,3.794044605456292629e-04,-4.965240368619561195e-04,-8.845655918121337891e-01,-3.387437388300895691e-02,0.000000000000000000e+00,1.403808564646169543e-04,1.000000000000000000e+00
6.200885772705078125e-01,1.618605957031250000e+02,-1.302685642242431641e+01,-1.302685642242431641e+01,-2.294670194387435913e-01,1.797807922363281250e+02,4.270985955372452736e-04,-3.239773511886596680e+00,1.175034418702125549e-02,-7.668170146644115448e-04,5.697303295135498047e+00,-2.062608674168586731e-02,3.794044605456292629e-04,-4.965240368619561195e-04,-8.845655918121337891e-01,-3.387437388300895691e-02,0.000000000000000000e+00,1.403808564646169543e-04,1.000000000000000000e+00
6.200885772705078125e-01,1.618605957031250000e+02,-1.302685642242431641e+01,-1.302685642242431641e+01,-2.294670194387435913e-01,1.797807922363281250e+02,4.270985955372452736e-04,-3.239773511886596680e+00,1.175034418702125549e-02,-7.668170146644115448e-04,5.697303295135498047e+00,-2.062608674168586731e-02,3.794044605456292629e-04,-4.965240368619561195e-04,-8.845655918121337891e-01,-3.387437388300895691e-02,0.000000000000000000e+00,1.403808564646169543e-04,1.000000000000000000e+00
7.946169376373291016e-01,1.615868225097656250e+02,-1.302589893341064453e+01,-1.302589893341064453e+01,-3.108487129211425781e-01,1.797778015136718750e+02,6.564336363226175308e-04,-2.387806415557861328e+00,8.626217953860759735e-03,4.037375038024038076e-04,4.881539344787597656e+00,-1.790039241313934326e-02,6.706958636641502380e-03,-4.450758278835564852e-04,-7.386685609817504883e-01,-2.742862328886985779e-02,0.000000000000000000e+00,1.994541671592742205e-04,1.000000000000000000e+00
7.946169376373291016e-01,1.615868225097656250e+02,-1.302589893341064453e+01,-1.302589893341064453e+01,-3.108487129211425781e-01,1.797778015136718750e+02,6.564336363226175308e-04,-2.387806415557861328e+00,8.626217953860759735e-03,4.037375038024038076e-04,4.881539344787597656e+00,-1.790039241313934326e-02,6.706958636641502380e-03,-4.450758278835564852e-04,-7.386685609817504883e-01,-2.742862328886985779e-02,0.000000000000000000e+00,1.994541671592742205e-04,1.000000000000000000e+00
7.946169376373291016e-01,1.615868225097656250e+02,-1.302589893341064453e+01,-1.302589893341064453e+01,-3.108487129211425781e-01,1.797778015136718750e+02,6.564336363226175308e-04,-2.387806415557861328e+00,8.626217953860759735e-03,4.037375038024038076e-04,4.881539344787597656e+00,-1.790039241313934326e-02,6.706958636641502380e-03,-4.450758278835564852e-04,-7.386685609817504883e-01,-2.742862328886985779e-02,0.000000000000000000e+00,1.994541671592742205e-04,1.000000000000000000e+00
8.783230781555175781e-01,1.613785095214843750e+02,-1.302514839172363281e+01,-1.302514839172363281e+01,-3.384904861450195312e-01,1.797770538330078125e+02,8.261828334070742130e-04,-1.999329209327697754e+00,7.330161053687334061e-03,6.129578105174005032e-04,4.640964508056640625e+00,-1.548341475427150726e-02,2.499461872503161430e-03,1.576277893036603928e-03,2.110001593828201294e-01,6.880713626742362976e-03,1.000000000000000000e+00,2.570016076788306236e-04,0.000000000000000000e+00
8.783230781555175781e-01,1.613785095214843750e+02,-1.302514839172363281e+01,-1.302514839172363281e+01,-3.384904861450195312e-01,1.797770538330078125e+02,8.261828334070742130e-04,-1.999329209327697754e+00,7.330161053687334061e-03,6.129578105174005032e-04,4.640964508056640625e+00,-1.548341475427150726e-02,2.499461872503161430e-03,1.576277893036603928e-03,2.110001593828201294e-01,6.880713626742362976e-03,1.000000000000000000e+00,2.570016076788306236e-04,0.000000000000000000e+00
8.783230781555175781e-01,1.613785095214843750e+02,-1.302514839172363281e+01,-1.302514839172363281e+01,-3.384904861450195312e-01,1.797770538330078125e+02,8.261828334070742130e-04,-1.999329209327697754e+00,7.330161053687334061e-03,6.129578105174005032e-04,4.640964508056640625e+00,-1.548341475427150726e-02,2.499461872503161430e-03,1.576277893036603928e-03,2.110001593828201294e-01,6.880713626742362976e-03,1.000000000000000000e+00,2.570016076788306236e-04,0.000000000000000000e+00
9.483780860900878906e-01,1.612068481445312500e+02,-1.302451038360595703e+01,-1.302451038360595703e+01,-2.811647355556488037e-01,1.797783508300781250e+02,7.242697756737470627e-04,-2.099906921386718750e+00,7.649862207472324371e-03,2.141005126759409904e-03,-1.435696244239807129e+00,4.563573282212018967e-03,2.181210555136203766e-02,1.491659088060259819e-03,9.523213505744934082e-01,1.822098717093467712e-02,1.000000000000000000e+00,2.777099725790321827e-04,0.000000000000000000e+00
9.483780860900878906e-01,1.612068481445312500e+02,-1.302451038360595703e+01,-1.302451038360595703e+01,-2.811647355556488037e-01,1.797783508300781250e+02,7.242697756737470627e-04,-2.099906921386718750e+00,7.649862207472324371e-03,2.141005126759409904e-03,-1.435696244239807129e+00,4.563573282212018967e-03,2.181210555136203766e-02,1.491659088060259819e-03,9.523213505744934082e-01,1.822098717093467712e-02,1.000000000000000000e+00,2.777099725790321827e-04,0.000000000000000000e+00
9.483780860900878906e-01,1.612068481445312500e+02,-1.302451038360595703e+01,-1.302451038360595703e+01,-2.811647355556488037e-01,1.797783508300781250e+02,7.242697756737470627e-04,-2.099906921386718750e+00,7.649862207472324371e-03,2.141005126759409904e-03,-1.435696244239807129e+00,4.563573282212018967e-03,2.181210555136203766e-02,1.491659088060259819e-03,9.523213505744934082e-01,1.822098717093467712e-02,1.000000000000000000e+00,2.777099725790321827e-04,0.000000000000000000e+00
9.483780860900878906e-01,1.612068481445312500e+02,-1.302451038360595703e+01,-1.302451038360595703e+01,-2.811647355556488037e-01,1.797783508300781250e+02,7.242697756737470627e-04,-2.099906921386718750e+00,7.649862207472324371e-03,2.141005126759409904e-03,-1.435696244239807129e+00,4.563573282212018967e-03,2.181210555136203766e-02,1.491659088060259819e-03,9.523213505744934082e-01,1.822098717093467712e-02,1.000000000000000000e+00,2.777099725790321827e-04,0.000000000000000000e+00
9.483780860900878906e-01,1.610517883300781250e+02,-1.302393150329589844e+01,-1.302393150329589844e+01,-2.016886472702026367e-01,1.797797851562500000e+02,5.243486957624554634e-04,-2.283788919448852539e+00,8.305842056870460510e-03,8.106812019832432270e-04,-2.333557128906250000e+00,8.324721828103065491e-03,-1.688249595463275909e-02,1.372993690893054008e-03,1.216856002807617188e+00,2.185373939573764801e-02,1.000000000000000000e+00,2.589634386822581291e-04,0.000000000000000000e+00
1.027177095413208008e+00,1.610517883300781250e+02,-1.302393150329589844e+01,-1.302393150329589844e+01,-2.016886472702026367e-01,1.797797851562500000e+02,5.243486957624554634e-04,-2.283788919448852539e+00,8.305842056870460510e-03,8.106812019832432270e-04,-2.333557128906250000e+00,8.324721828103065491e-03,-1.688249595463275909e-02,1.372993690893054008e-03,1.216856002807617188e+00,2.185373939573764801e-02,1.000000000000000000e+00,2.589634386822581291e-04,0.000000000000000000e+00
1.027177095413208008e+00,1.610517883300781250e+02,-1.302393150329589844e+01,-1.302393150329589844e+01,-2.016886472702026367e-01,1.797797851562500000e+02,5.243486957624554634e-04,-2.283788919448852539e+00,8.305842056870460510e-03,8.106812019832432270e-04,-2.333557128906250000e+00,8.324721828103065491e-03,-1.688249595463275909e-02,1.372993690893054008e-03,1.216856002807617188e+00,2.185373939573764801e-02,1.000000000000000000e+00,2.589634386822581291e-04,0.000000000000000000e+00
1.095043420791625977e+00,1.608648834228515625e+02,-1.302323722839355469e+01,-1.302323722839355469e+01,-1.144124940037727356e-01,1.797812805175781250e+02,2.614700933918356895e-04,-2.378245830535888672e+00,8.631476201117038727e-03,-8.988775080069899559e-04,-1.391808271408081055e+00,4.798169713467359543e-03,-2.519008889794349670e-02,2.993872622027993202e-04,9.310768246650695801e-01,1.538741495460271835e-02,0.000000000000000000e+00,2.369471912970766425e-04,1.000000000000000000e+00
1.095043420791625977e+00,1.608648834228515625e+02,-1.302323722839355469e+01,-1.302323722839355469e+01,-1.144124940037727356e-01,1.797812805175781250e+02,2.614700933918356895e-04,-2.378245830535888672e+00,8.631476201117038727e-03,-8.988775080069899559e-04,-1.391808271408081055e+00,4.798169713467359543e-03,-2.519008889794349670e-02,2.993872622027993202e-04,9.310768246650695801e-01,1.538741495460271835e-02,0.000000000000000000e+00,2.369471912970766425e-04,1.000000000000000000e+00
1.095043420791625977e+00,1.608648834228515625e+02,-1.302323722839355469e+01,-1.302323722839355469e+01,-1.144124940037727356e-01,1.797812805175781250e+02,2.614700933918356895e-04,-2.378245830535888672e+00,8.631476201117038727e-03,-8.988775080069899559e-04,-1.391808271408081055e+00,4.798169713467359543e-03,-2.519008889794349670e-02,2.993872622027993202e-04,9.310768246650695801e-01,1.538741495460271835e-02,0.000000000000000000e+00,2.369471912970766425e-04,1.000000000000000000e+00
1.095043420791625977e+00,1.608648834228515625e+02,-1.302323722839355469e+01,-1.302323722839355469e+01,-1.144124940037727356e-01,1.797812805175781250e+02,2.614700933918356895e-04,-2.378245830535888672e+00,8.631476201117038727e-03,-8.988775080069899559e-04,-1.391808271408081055e+00,4.798169713467359543e-03,-2.519008889794349670e-02,2.993872622027993202e-04,9.310768246650695801e-01,1.538741495460271835e-02,0.000000000000000000e+00,2.369471912970766425e-04,1.000000000000000000e+00
1.168572425842285156e+00,1.607097778320312500e+02,-1.302267074584960938e+01,-1.302267074584960938e+01,-7.867011427879333496e-02,1.797817382812500000e+02,1.139994346885941923e-04,-2.178024530410766602e+00,7.890221662819385529e-03,1.176760182715952396e-03,2.723024606704711914e+00,-1.008111704140901566e-02,2.822882868349552155e-02,-7.392296683974564075e-04,2.258732467889785767e-01,1.558342715725302696e-03,0.000000000000000000e+00,2.134050591848790646e-04,1.000000000000000000e+00
1.168572425842285156e+00,1.607097778320312500e+02,-1.302267074584960938e+01,-1.302267074584960938e+01,-7.867011427879333496e-02,1.797817382812500000e+02,1.139994346885941923e-04,-2.178024530410766602e+00,7.890221662819385529e-03,1.176760182715952396e-03,2.723024606704711914e+00,-1.008111704140901566e-02,2.822882868349552155e-02,-7.392296683974564075e-04,2.258732467889785767e-01,1.558342715725302696e-03,0.000000000000000000e+00,2.134050591848790646e-04,1.000000000000000000e+00
1.168572425842285156e+00,1.607097778320312500e+02,-1.302267074584960938e+01,-1.302267074584960938e+01,-7.867011427879333496e-02,1.797817382812500000e+02,1.139994346885941923e-04,-2.178024530410766602e+00,7.890221662819385529e-03,1.176760182715952396e-03,2.723024606704711914e+00,-1.008111704140901566e-02,2.822882868349552155e-02,-7.392296683974564075e-04,2.258732467889785767e-01,1.558342715725302696e-03,0.000000000000000000e+00,2.134050591848790646e-04,1.000000000000000000e+00
1.168572425842285156e+00,1.607097778320312500e+02,-1.302267074584960938e+01,-1.302267074584960938e+01,-7.867011427879333496e-02,1.797817382812500000e+02,1.139994346885941923e-04,-2.178024530410766602e+00,7.890221662819385529e-03,1.176760182715952396e-03,2.723024606704711914e+00,-1.008111704140901566e-02,2.822882868349552155e-02,-7.392296683974564075e-04,2.258732467889785767e-01,1.558342715725302696e-03,0.000000000000000000e+00,2.134050591848790646e-04,1.000000000000000000e+00
1.168572425842285156e+00,1.605694274902343750e+02,-1.302216720581054688e+01,-1.302216720581054688e+01,-9.592317044734954834e-02,1.797811431884765625e+02,1.156619473476894200e-04,-1.719764351844787598e+00,6.226190831512212753e-03,-3.803075524047017097e-04,6.106191158294677734e+00,-2.217275463044643402e-02,-2.074750140309333801e-02,-1.126540242694318295e-03,-4.785736799240112305e-01,-1.211674790829420090e-02,0.000000000000000000e+00,1.711164222797378898e-04,1.000000000000000000e+00
1.243620872497558594e+00,1.605694274902343750e+02,-1.302216720581054688e+01,-1.302216720581054688e+01,-9.592317044734954834e-02,1.797811431884765625e+02,1.156619473476894200e-04,-1.719764351844787598e+00,6.226190831512212753e-03,-3.803075524047017097e-04,6.106191158294677734e+00,-2.217275463044643402e-02,-2.074750140309333801e-02,-1.126540242694318295e-03,-4.785736799240112305e-01,-1.211674790829420090e-02,0.000000000000000000e+00,1.711164222797378898e-04,1.000000000000000000e+00
1.243620872497558594e+00,1.605694274902343750e+02,-1.302216720581054688e+01,-1.302216720581054688e+01,-9.592317044734954834e-02,1.797811431884765625e+02,1.156619473476894200e-04,-1.719764351844787598e+00,6.226190831512212753e-03,-3.803075524047017097e-04,6.106191158294677734e+00,-2.217275463044643402e-02,-2.074750140309333801e-02,-1.126540242694318295e-03,-4.785736799240112305e-01,-1.211674790829420090e-02,0.000000000000000000e+00,1.711164222797378898e-04,1.000000000000000000e+00
1.243620872497558594e+00,1.605694274902343750e+02,-1.302216720581054688e+01,-1.302216720581054688e+01,-9.592317044734954834e-02,1.797811431884765625e+02,1.156619473476894200e-04,-1.719764351844787598e+00,6.226190831512212753e-03,-3.803075524047017097e-04,6.106191158294677734e+00,-2.217275463044643402e-02,-2.074750140309333801e-02,-1.126540242694318295e-03,-4.785736799240112305e-01,-1.211674790829420090e-02,0.000000000000000000e+00,1.711164222797378898e-04,1.000000000000000000e+00
1.312042951583862305e+00,1.604637451171875000e+02,-1.302172851562500000e+01,-1.302172851562500000e+01,-1.463982611894607544e-01,1.797868499755859375e+02,2.367280394537374377e-04,-1.200645446777343750e+00,3.875763854011893272e-03,-4.160638200119137764e-04,7.587008953094482422e+00,-3.435188159346580505e-02,-5.225837812758982182e-04,1.776816206984221935e-04,-7.661141157150268555e-01,5.769944190979003906e-01,0.000000000000000000e+00,1.824515202315524220e-04,1.000000000000000000e+00
1.312042951583862305e+00,1.604637451171875000e+02,-1.302172851562500000e+01,-1.302172851562500000e+01,-1.463982611894607544e-01,1.797868499755859375e+02,2.367280394537374377e-04,-1.200645446777343750e+00,3.875763854011893272e-03,-4.160638200119137764e-04,7.587008953094482422e+00,-3.435188159346580505e-02,-5.225837812758982182e-04,1.776816206984221935e-04,-7.661141157150268555e-01,5.769944190979003906e-01,0.000000000000000000e+00,1.824515202315524220e-04,1.000000000000000000e+00
1.312042951583862305e+00,1.604259338378906250e+02,-1.302150249481201172e+01,-1.302150249481201172e+01,-2.445412427186965942e-01,1.797935943603515625e+02,6.534538697451353073e-04,-1.928936988115310669e-01,6.845997995696961880e-04,6.865133764222264290e-04,1.417643260955810547e+01,-4.489133879542350769e-02,1.551037933677434921e-02,-3.497135126963257790e-03,-1.580804347991943359e+00,3.848792111966758966e-04,0.000000000000000000e+00,1.111711753765121102e-04,1.000000000000000000e+00
1.383129358291625977e+00,1.604259338378906250e+02,-1.302150249481201172e+01,-1.302150249481201172e+01,-2.445412427186965942e-01,1.797935943603515625e+02,6.534538697451353073e-04,-1.928936988115310669e-01,6.845997995696961880e-04,6.865133764222264290e-04,1.417643260955810547e+01,-4.489133879542350769e-02,1.551037933677434921e-02,-3.497135126963257790e-03,-1.580804347991943359e+00,3.848792111966758966e-04,0.000000000000000000e+00,1.111711753765121102e-04,1.000000000000000000e+00
1.383129358291625977e+00,1.604259338378906250e+02,-1.302150249481201172e+01,-1.302150249481201172e+01,-2.445412427186965942e-01,1.797935943603515625e+02,6.534538697451353073e-04,-1.928936988115310669e-01,6.845997995696961880e-04,6.865133764222264290e-04,1.417643260955810547e+01,-4.489133879542350769e-02,1.551037933677434921e-02,-3.497135126963257790e-03,-1.580804347991943359e+00,3.848792111966758966e-04,0.000000000000000000e+00,1.111711753765121102e-04,1.000000000000000000e+00
1.450951814651489258e+00,1.604262695312500000e+02,-1.302150821685791016e+01,-1.302150821685791016e+01,-3.099949359893798828e-01,1.797930603027343750e+02,8.085038280114531517e-04,-3.612268774304538965e-04,-1.290735508518991992e-05,-1.862833305494859815e-04,2.838771581649780273e+00,-1.028431020677089691e-02,-1.286884490400552750e-02,5.700124311260879040e-04,-3.033389449119567871e-01,-5.146153125679120421e-05,0.000000000000000000e+00,-3.138951069558970630e-05,1.000000000000000000e+00
1.450951814651489258e+00,1.604262695312500000e+02,-1.302150821685791016e+01,-1.302150821685791016e+01,-3.099949359893798828e-01,1.797930603027343750e+02,8.085038280114531517e-04,-3.612268774304538965e-04,-1.290735508518991992e-05,-1.862833305494859815e-04,2.838771581649780273e+00,-1.028431020677089691e-02,-1.286884490400552750e-02,5.700124311260879040e-04,-3.033389449119567871e-01,-5.146153125679120421e-05,0.000000000000000000e+00,-3.138951069558970630e-05,1.000000000000000000e+00
1.450951814651489258e+00,1.604262695312500000e+02,-1.302150821685791016e+01,-1.302150821685791016e+01,-3.099949359893798828e-01,1.797930603027343750e+02,8.085038280114531517e-04,-3.612268774304538965e-04,-1.290735508518991992e-05,-1.862833305494859815e-04,2.838771581649780273e+00,-1.028431020677089691e-02,-1.286884490400552750e-02,5.700124311260879040e-04,-3.033389449119567871e-01,-5.146153125679120421e-05,0.000000000000000000e+00,-3.138951069558970630e-05,1.000000000000000000e+00
1.527701377868652344e+00,1.604261932373046875e+02,-1.302150726318359375e+01,-1.302150726318359375e+01,-2.960203886032104492e-01,1.797930603027343750e+02,8.194753900170326233e-04,5.742852808907628059e-04,1.777135821612318978e-06,2.839370863512158394e-04,1.218915265053510666e-02,1.913299638545140624e-04,6.126685068011283875e-03,1.021799398586153984e-03,4.584189951419830322e-01,-2.359342761337757111e-05,0.000000000000000000e+00,-2.267020136059727520e-05,1.000000000000000000e+00
1.527701377868652344e+00,1.604261932373046875e+02,-1.302150726318359375e+01,-1.302150726318359375e+01,-2.960203886032104492e-01,1.797930603027343750e+02,8.194753900170326233e-04,5.742852808907628059e-04,1.777135821612318978e-06,2.839370863512158394e-04,1.218915265053510666e-02,1.913299638545140624e-04,6.126685068011283875e-03,1.021799398586153984e-03,4.584189951419830322e-01,-2.359342761337757111e-05,0.000000000000000000e+00,-2.267020136059727520e-05,1.000000000000000000e+00
1.527701377868652344e+00,1.604261932373046875e+02,-1.302150726318359375e+01,-1.302150726318359375e+01,-2.960203886032104492e-01,1.797930603027343750e+02,8.194753900170326233e-04,5.742852808907628059e-04,1.777135821612318978e-06,2.839370863512158394e-04,1.218915265053510666e-02,1.913299638545140624e-04,6.126685068011283875e-03,1.021799398586153984e-03,4.584189951419830322e-01,-2.359342761337757111e-05,0.000000000000000000e+00,-2.267020136059727520e-05,1.000000000000000000e+00
1.600134611129760742e+00,1.604258728027343750e+02,-1.302150726318359375e+01,-1.302150726318359375e+01,-2.449032515287399292e-01,1.797930603027343750e+02,6.921968306414783001e-04,9.340476244688034058e-04,1.250567493116250262e-05,-1.074969186447560787e-03,4.966813139617443085e-03,1.481162616983056068e-04,-1.876081153750419617e-02,5.857947398908436298e-04,7.446519136428833008e-01,3.700489105540327728e-05,0.000000000000000000e+00,-2.245221730845514685e-05,1.000000000000000000e+00
1.600134611129760742e+00,1.604258728027343750e+02,-1.302150726318359375e+01,-1.302150726318359375e+01,-2.449032515287399292e-01,1.797930603027343750e+02,6.921968306414783001e-04,9.340476244688034058e-04,1.250567493116250262e-05,-1.074969186447560787e-03,4.966813139617443085e-03,1.481162616983056068e-04,-1.876081153750419617e-02,5.857947398908436298e-04,7.446519136428833008e-01,3.700489105540327728e-05,0.000000000000000000e+00,-2.245221730845514685e-05,1.000000000000000000e+00
1.600134611129760742e+00,1.604258728027343750e+02,-1.302150726318359375e+01,-1.302150726318359375e+01,-2.449032515287399292e-01,1.797930603027343750e+02,6.921968306414783001e-04,9.340476244688034058e-04,1.250567493116250262e-05,-1.074969186447560787e-03,4.966813139617443085e-03,1.481162616983056068e-04,-1.876081153750419617e-02,5.857947398908436298e-04,7.446519136428833008e-01,3.700489105540327728e-05,0.000000000000000000e+00,-2.245221730845514685e-05,1.000000000000000000e+00
1.600134611129760742e+00,1.604258728027343750e+02,-1.302150726318359375e+01,-1.302150726318359375e+01,-2.449032515287399292e-01,1.797930603027343750e+02,6.921968306414783001e-04,9.340476244688034058e-04,1.250567493116250262e-05,-1.074969186447560787e-03,4.966813139617443085e-03,1.481162616983056068e-04,-1.876081153750419617e-02,5.857947398908436298e-04,7.446519136428833008e-01,3.700489105540327728e-05,0.000000000000000000e+00,-2.245221730845514685e-05,1.000000000000000000e+00
1.600134611129760742e+00,1.604258728027343750e+02,-1.302150726318359375e+01,-1.302150726318359375e+01,-2.449032515287399292e-01,1.797930603027343750e+02,6.921968306414783001e-04,9.340476244688034058e-04,1.250567493116250262e-05,-1.074969186447560787e-03,4.966813139617443085e-03,1.481162616983056068e-04,-1.876081153750419617e-02,5.857947398908436298e-04,7.446519136428833008e-01,3.700489105540327728e-05,0.000000000000000000e+00,-2.245221730845514685e-05,1.000000000000000000e+00
1.600134611129760742e+00,1.604255218505859375e+02,-1.302150726318359375e+01,-1.302150726318359375e+01,-1.902480721473693848e-01,1.797930603027343750e+02,5.260868347249925137e-04,9.476505802012979984e-04,1.532050919195171446e-05,2.349799324292689562e-04,1.178981619887053967e-04,2.439644777041394264e-05,1.135345827788114548e-02,3.971860860474407673e-04,7.420932650566101074e-01,1.623556818231008947e-05,0.000000000000000000e+00,-2.267020136059727520e-05,1.000000000000000000e+00
1.715513467788696289e+00,1.604255218505859375e+02,-1.302150726318359375e+01,-1.302150726318359375e+01,-1.902480721473693848e-01,1.797930603027343750e+02,5.260868347249925137e-04,9.476505802012979984e-04,1.532050919195171446e-05,2.349799324292689562e-04,1.178981619887053967e-04,2.439644777041394264e-05,1.135345827788114548e-02,3.971860860474407673e-04,7.420932650566101074e-01,1.623556818231008947e-05,0.000000000000000000e+00,-2.267020136059727520e-05,1.000000000000000000e+00
1.715513467788696289e+00,1.604255218505859375e+02,-1.302150726318359375e+01,-1.302150726318359375e+01,-1.902480721473693848e-01,1.797930603027343750e+02,5.260868347249925137e-04,9.476505802012979984e-04,1.532050919195171446e-05,2.349799324292689562e-04,1.178981619887053967e-04,2.439644777041394264e-05,1.135345827788114548e-02,3.971860860474407673e-04,7.420932650566101074e-01,1.623556818231008947e-05,0.000000000000000000e+00,-2.267020136059727520e-05,1.000000000000000000e+00
1.715513467788696289e+00,1.604255218505859375e+02,-1.302150726318359375e+01,-1.302150726318359375e+01,-1.902480721473693848e-01,1.797930603027343750e+02,5.260868347249925137e-04,9.476505802012979984e-04,1.532050919195171446e-05,2.349799324292689562e-04,1.178981619887053967e-04,2.439644777041394264e-05,1.135345827788114548e-02,3.971860860474407673e-04,7.420932650566101074e-01,1.623556818231008947e-05,0.000000000000000000e+00,-2.267020136059727520e-05,1.000000000000000000e+00
1.813115119934082031e+00,1.604251251220703125e+02,-1.302150630950927734e+01,-1.302150630950927734e+01,-1.239610984921455383e-01,1.797930755615234375e+02,3.060009912587702274e-04,7.656195666640996933e-04,1.263893773284507915e-05,-9.180064080283045769e-04,-1.865040394477546215e-03,-2.747465259744785726e-05,-1.181318424642086029e-02,1.261710422113537788e-04,5.896624922752380371e-01,3.876276605296880007e-05,0.000000000000000000e+00,-2.267020136059727520e-05,1.000000000000000000e+00
1.813115119934082031e+00,1.604251251220703125e+02,-1.302150630950927734e+01,-1.302150630950927734e+01,-1.239610984921455383e-01,1.797930755615234375e+02,3.060009912587702274e-04,7.656195666640996933e-04,1.263893773284507915e-05,-9.180064080283045769e-04,-1.865040394477546215e-03,-2.747465259744785726e-05,-1.181318424642086029e-02,1.261710422113537788e-04,5.896624922752380371e-01,3.876276605296880007e-05,0.000000000000000000e+00,-2.267020136059727520e-05,1.000000000000000000e+00
1.813115119934082031e+00,1.604251251220703125e+02,-1.302150630950927734e+01,-1.302150630950927734e+01,-1.239610984921455383e-01,1.797930755615234375e+02,3.060009912587702274e-04,7.656195666640996933e-04,1.263893773284507915e-05,-9.180064080283045769e-04,-1.865040394477546215e-03,-2.747465259744785726e-05,-1.181318424642086029e-02,1.261710422113537788e-04,5.896624922752380371e-01,3.876276605296880007e-05,0.000000000000000000e+00,-2.267020136059727520e-05,1.000000000000000000e+00
1.813115119934082031e+00,1.604248352050781250e+02,-1.302150630950927734e+01,-1.302150630950927734e+01,-7.677815109491348267e-02,1.797930755615234375e+02,1.453320292057469487e-04,5.418087821453809738e-04,9.176984349323902279e-06,2.334977762075141072e-04,-2.695874543860554695e-03,-4.170036845607683063e-05,1.387024763971567154e-02,1.287180493818596005e-04,4.105280637741088867e-01,1.784306914487387985e-05,0.000000000000000000e+00,-2.267020136059727520e-05,1.000000000000000000e+00
1.896134853363037109e+00,1.604248352050781250e+02,-1.302150630950927734e+01,-1.302150630950927734e+01,-7.677815109491348267e-02,1.797930755615234375e+02,1.453320292057469487e-04,5.418087821453809738e-04,9.176984349323902279e-06,2.334977762075141072e-04,-2.695874543860554695e-03,-4.170036845607683063e-05,1.387024763971567154e-02,1.287180493818596005e-04,4.105280637741088867e-01,1.784306914487387985e-05,0.000000000000000000e+00,-2.267020136059727520e-05,1.000000000000000000e+00
1.896134853363037109e+00,1.604248352050781250e+02,-1.302150630950927734e+01,-1.302150630950927734e+01,-7.677815109491348267e-02,1.797930755615234375e+02,1.453320292057469487e-04,5.418087821453809738e-04,9.176984349323902279e-06,2.334977762075141072e-04,-2.695874543860554695e-03,-4.170036845607683063e-05,1.387024763971567154e-02,1.287180493818596005e-04,4.105280637741088867e-01,1.784306914487387985e-05,0.000000000000000000e+00,-2.267020136059727520e-05,1.000000000000000000e+00
1.896134853363037109e+00,1.604248352050781250e+02,-1.302150630950927734e+01,-1.302150630950927734e+01,-7.677815109491348267e-02,1.797930755615234375e+02,1.453320292057469487e-04,5.418087821453809738e-04,9.176984349323902279e-06,2.334977762075141072e-04,-2.695874543860554695e-03,-4.170036845607683063e-05,1.387024763971567154e-02,1.287180493818596005e-04,4.105280637741088867e-01,1.784306914487387985e-05,0.000000000000000000e+00,-2.267020136059727520e-05,1.000000000000000000e+00
1.896134853363037109e+00,1.604248352050781250e+02,-1.302150630950927734e+01,-1.302150630950927734e+01,-7.677815109491348267e-02,1.797930755615234375e+02,1.453320292057469487e-04,5.418087821453809738e-04,9.176984349323902279e-06,2.334977762075141072e-04,-2.695874543860554695e-03,-4.170036845607683063e-05,1.387024763971567154e-02,1.287180493818596005e-04,4.105280637741088867e-01,1.784306914487387985e-05,0.000000000000000000e+00,-2.267020136059727520e-05,1.000000000000000000e+00
1.896134853363037109e+00,1.604248352050781250e+02,-1.302150630950927734e+01,-1.302150630950927734e+01,-7.677815109491348267e-02,1.797930755615234375e+02,1.453320292057469487e-04,5.418087821453809738e-04,9.176984349323902279e-06,2.334977762075141072e-04,-2.695874543860554695e-03,-4.170036845607683063e-05,1.387024763971567154e-02,1.287180493818596005e-04,4.105280637741088867e-01,1.784306914487387985e-05,0.000000000000000000e+00,-2.267020136059727520e-05,1.000000000000000000e+00
1.896134853363037109e+00,1.604248352050781250e+02,-1.302150630950927734e+01,-1.302150630950927734e+01,-7.677815109491348267e-02,1.797930755615234375e+02,1.453320292057469487e-04,5.418087821453809738e-04,9.176984349323902279e-06,2.334977762075141072e-04,-2.695874543860554695e-03,-4.170036845607683063e-05,1.387024763971567154e-02,1.287180493818596005e-04,4.105280637741088867e-01,1.784306914487387985e-05,0.000000000000000000e+00,-2.267020136059727520e-05,1.000000000000000000e+00
1.896134853363037109e+00,1.604248352050781250e+02,-1.302150630950927734e+01,-1.302150630950927734e+01,-7.677815109491348267e-02,1.797930755615234375e+02,1.453320292057469487e-04,5.418087821453809738e-04,9.176984349323902279e-06,2.334977762075141072e-04,-2.695874543860554695e-03,-4.170036845607683063e-05,1.387024763971567154e-02,1.287180493818596005e-04,4.105280637741088867e-01,1.784306914487387985e-05,0.000000000000000000e+00,-2.267020136059727520e-05,1.000000000000000000e+00
2.195794820785522461e+00,1.604245300292968750e+02,-1.302150630950927734e+01,-1.302150630950927734e+01,-2.279916964471340179e-02,1.797930908203125000e+02,-3.051757812500000000e-05,7.113316678442060947e-05,-1.685933881390155875e-07,4.446905804798007011e-04,-3.022420452907681465e-03,5.906820661039091647e-06,5.033813416957855225e-03,6.864444003440439701e-05,5.248862877488136292e-02,-2.926557840510213282e-07,0.000000000000000000e+00,-2.288818359375000000e-05,1.000000000000000000e+00
2.195794820785522461e+00,1.604245300292968750e+02,-1.302150630950927734e+01,-1.302150630950927734e+01,-2.279916964471340179e-02,1.797930908203125000e+02,-3.051757812500000000e-05,7.113316678442060947e-05,-1.685933881390155875e-07,4.446905804798007011e-04,-3.022420452907681465e-03,5.906820661039091647e-06,5.033813416957855225e-03,6.864444003440439701e-05,5.248862877488136292e-02,-2.926557840510213282e-07,0.000000000000000000e+00,-2.288818359375000000e-05,1.000000000000000000e+00
2.195794820785522461e+00,1.604245300292968750e+02,-1.302150630950927734e+01,-1.302150630950927734e+01,-2.279916964471340179e-02,1.797930908203125000e+02,-3.051757812500000000e-05,7.113316678442060947e-05,-1.685933881390155875e-07,4.446905804798007011e-04,-3.022420452907681465e-03,5.906820661039091647e-06,5.033813416957855225e-03,6.864444003440439701e-05,5.248862877488136292e-02,-2.926557840510213282e-07,0.000000000000000000e+00,-2.288818359375000000e-05,1.000000000000000000e+00
2.195794820785522461e+00,1.604245300292968750e+02,-1.302150630950927734e+01,-1.302150630950927734e+01,-2.279916964471340179e-02,1.797930908203125000e+02,-3.051757812500000000e-05,7.113316678442060947e-05,-1.685933881390155875e-07,4.446905804798007011e-04,-3.022420452907681465e-03,5.906820661039091647e-06,5.033813416957855225e-03,6.864444003440439701e-05,5.248862877488136292e-02,-2.926557840510213282e-07,0.000000000000000000e+00,-2.288818359375000000e-05,1.000000000000000000e+00
2.195794820785522461e+00,1.604245300292968750e+02,-1.302150630950927734e+01,-1.302150630950927734e+01,-2.279916964471340179e-02,1.797930908203125000e+02,-3.051757812500000000e-05,7.113316678442060947e-05,-1.685933881390155875e-07,4.446905804798007011e-04,-3.022420452907681465e-03,5.906820661039091647e-06,5.033813416957855225e-03,6.864444003440439701e-05,5.248862877488136292e-02,-2.926557840510213282e-07,0.000000000000000000e+00,-2.288818359375000000e-05,1.000000000000000000e+00
2.195794820785522461e+00,1.604245300292968750e+02,-1.302150630950927734e+01,-1.302150630950927734e+01,-2.279916964471340179e-02,1.797930908203125000e+02,-3.051757812500000000e-05,7.113316678442060947e-05,-1.685933881390155875e-07,4.446905804798007011e-04,-3.022420452907681465e-03,5.906820661039091647e-06,5.033813416957855225e-03,6.864444003440439701e-05,5.248862877488136292e-02,-2.926557840510213282e-07,0.000000000000000000e+00,-2.288818359375000000e-05,1.000000000000000000e+00
2.195794820785522461e+00,1.604245300292968750e+02,-1.302150630950927734e+01,-1.302150630950927734e+01,-2.279916964471340179e-02,1.797930908203125000e+02,-3.051757812500000000e-05,7.113316678442060947e-05,-1.685933881390155875e-07,4.446905804798007011e-04,-3.022420452907681465e-03,5.906820661039091647e-06,5.033813416957855225e-03,6.864444003440439701e-05,5.248862877488136292e-02,-2.926557840510213282e-07,0.000000000000000000e+00,-2.288818359375000000e-05,1.000000000000000000e+00
2.195794820785522461e+00,1.604245300292968750e+02,-1.302150630950927734e+01,-1.302150630950927734e+01,-2.279916964471340179e-02,1.797930908203125000e+02,-3.051757812500000000e-05,7.113316678442060947e-05,-1.685933881390155875e-07,4.446905804798007011e-04,-3.022420452907681465e-03,5.906820661039091647e-06,5.033813416957855225e-03,6.864444003440439701e-05,5.248862877488136292e-02,-2.926557840510213282e-07,0.000000000000000000e+00,-2.288818359375000000e-05,1.000000000000000000e+00
2.195794820785522461e+00,1.604245300292968750e+02,-1.302150630950927734e+01,-1.302150630950927734e+01,-2.279916964471340179e-02,1.797930908203125000e+02,-3.051757812500000000e-05,7.113316678442060947e-05,-1.685933881390155875e-07,4.446905804798007011e-04,-3.022420452907681465e-03,5.906820661039091647e-06,5.033813416957855225e-03,6.864444003440439701e-05,5.248862877488136292e-02,-2.926557840510213282e-07,0.000000000000000000e+00,-2.288818359375000000e-05,1.000000000000000000e+00
2.195794820785522461e+00,1.604245300292968750e+02,-1.302150630950927734e+01,-1.302150630950927734e+01,-2.279916964471340179e-02,1.797930908203125000e+02,-3.051757812500000000e-05,7.113316678442060947e-05,-1.685933881390155875e-07,4.446905804798007011e-04,-3.022420452907681465e-03,5.906820661039091647e-06,5.033813416957855225e-03,6.864444003440439701e-05,5.248862877488136292e-02,-2.926557840510213282e-07,0.000000000000000000e+00,-2.288818359375000000e-05,1.000000000000000000e+00
2.374083757400512695e+00,1.604244995117187500e+02,-1.302150630950927734e+01,-1.302150630950927734e+01,-1.965045370161533356e-02,1.797930908203125000e+02,-3.051757812500000000e-05,8.420276571996510029e-05,-1.278639132351599983e-07,1.479305443353950977e-03,7.330571679631248116e-05,2.284464528656826587e-07,5.803023464977741241e-03,1.768881338648498058e-05,6.225857883691787720e-02,1.311890116539871087e-07,0.000000000000000000e+00,-2.288818359375000000e-05,1.000000000000000000e+00
2.374083757400512695e+00,1.604244995117187500e+02,-1.302150630950927734e+01,-1.302150630950927734e+01,-1.965045370161533356e-02,1.797930908203125000e+02,-3.051757812500000000e-05,8.420276571996510029e-05,-1.278639132351599983e-07,1.479305443353950977e-03,7.330571679631248116e-05,2.284464528656826587e-07,5.803023464977741241e-03,1.768881338648498058e-05,6.225857883691787720e-02,1.311890116539871087e-07,0.000000000000000000e+00,-2.288818359375000000e-05,1.000000000000000000e+00
2.374083757400512695e+00,1.604244995117187500e+02,-1.302150630950927734e+01,-1.302150630950927734e+01,-1.965045370161533356e-02,1.797930908203125000e+02,-3.051757812500000000e-05,8.420276571996510029e-05,-1.278639132351599983e-07,1.479305443353950977e-03,7.330571679631248116e-05,2.284464528656826587e-07,5.803023464977741241e-03,1.768881338648498058e-05,6.225857883691787720e-02,1.311890116539871087e-07,0.000000000000000000e+00,-2.288818359375000000e-05,1.000000000000000000e+00
2.447860002517700195e+00,1.604244537353515625e+02,-1.302150630950927734e+01,-1.302150630950927734e+01,-1.348962262272834778e-02,1.797930908203125000e+02,-6.103514533606357872e-05,7.825215288903564215e-05,-3.327560307297972031e-07,-1.048275735229253769e-03,-8.065757720032706857e-05,-2.777209829218918458e-06,-3.426009416580200195e-02,1.150290336227044463e-04,5.791278928518295288e-02,3.677113795674813446e-07,0.000000000000000000e+00,-2.288818359375000000e-05,1.000000000000000000e+00
2.447860002517700195e+00,1.604244537353515625e+02,-1.302150630950927734e+01,-1.302150630950927734e+01,-1.348962262272834778e-02,1.797930908203125000e+02,-6.103514533606357872e-05,7.825215288903564215e-05,-3.327560307297972031e-07,-1.048275735229253769e-03,-8.065757720032706857e-05,-2.777209829218918458e-06,-3.426009416580200195e-02,1.150290336227044463e-04,5.791278928518295288e-02,3.677113795674813446e-07,0.000000000000000000e+00,-2.288818359375000000e-05,1.000000000000000000e+00
2.500878810882568359e+00,1.604244232177734375e+02,-1.302150630950927734e+01,-1.302150630950927734e+01,-9.678377769887447357e-03,1.797930908203125000e+02,-6.103514533606357872e-05,6.334384670481085777e-05,-1.375758102994950605e-07,1.254068338312208652e-03,-2.811890153679996729e-04,3.681339194372412749e-06,4.342504218220710754e-02,4.309669748181477189e-05,4.683246463537216187e-02,3.583533896289736731e-07,0.000000000000000000e+00,-2.288818359375000000e-05,1.000000000000000000e+00
2.500878810882568359e+00,1.604244232177734375e+02,-1.302150630950927734e+01,-1.302150630950927734e+01,-9.678377769887447357e-03,1.797930908203125000e+02,-6.103514533606357872e-05,6.334384670481085777e-05,-1.375758102994950605e-07,1.254068338312208652e-03,-2.811890153679996729e-04,3.681339194372412749e-06,4.342504218220710754e-02,4.309669748181477189e-05,4.683246463537216187e-02,3.583533896289736731e-07,0.000000000000000000e+00,-2.288818359375000000e-05,1.000000000000000000e+00
2.500878810882568359e+00,1.604244079589843750e+02,-1.302150630950927734e+01,-1.302150630950927734e+01,-7.506377529352903366e-03,1.797930908203125000e+02,-9.155272709904238582e-05,5.218477235757745802e-05,-8.135860696256713709e-08,1.964299008250236511e-03,-1.881272328319028020e-04,9.477476510255655739e-07,1.197354961186647415e-02,1.344760676147416234e-05,3.854992240667343140e-02,3.159930486162920715e-07,0.000000000000000000e+00,-2.288818359375000000e-05,1.000000000000000000e+00
2.560195446014404297e+00,1.604244079589843750e+02,-1.302150630950927734e+01,-1.302150630950927734e+01,-7.506377529352903366e-03,1.797930908203125000e+02,-9.155272709904238582e-05,5.218477235757745802e-05,-8.135860696256713709e-08,1.964299008250236511e-03,-1.881272328319028020e-04,9.477476510255655739e-07,1.197354961186647415e-02,1.344760676147416234e-05,3.854992240667343140e-02,3.159930486162920715e-07,0.000000000000000000e+00,-2.288818359375000000e-05,1.000000000000000000e+00
2.560195446014404297e+00,1.604244079589843750e+02,-1.302150630950927734e+01,-1.302150630950927734e+01,-7.506377529352903366e-03,1.797930908203125000e+02,-9.155272709904238582e-05,5.218477235757745802e-05,-8.135860696256713709e-08,1.964299008250236511e-03,-1.881272328319028020e-04,9.477476510255655739e-07,1.197354961186647415e-02,1.344760676147416234e-05,3.854992240667343140e-02,3.159930486162920715e-07,0.000000000000000000e+00,-2.288818359375000000e-05,1.000000000000000000e+00
2.618730545043945312e+00,1.604244079589843750e+02,-1.302150630950927734e+01,-1.302150630950927734e+01,-5.491471849381923676e-03,1.797930908203125000e+02,-9.155273437500000000e-05,4.113254180992953479e-05,-1.177514121764033916e-07,-3.029087965842336416e-04,-1.888137339847162366e-04,-6.217262011887214612e-07,-3.873244673013687134e-02,2.482237323420122266e-05,3.039084188640117645e-02,2.504324072560848435e-07,0.000000000000000000e+00,-2.288818359375000000e-05,1.000000000000000000e+00
2.618730545043945312e+00,1.604244079589843750e+02,-1.302150630950927734e+01,-1.302150630950927734e+01,-5.491471849381923676e-03,1.797930908203125000e+02,-9.155273437500000000e-05,4.113254180992953479e-05,-1.177514121764033916e-07,-3.029087965842336416e-04,-1.888137339847162366e-04,-6.217262011887214612e-07,-3.873244673013687134e-02,2.482237323420122266e-05,3.039084188640117645e-02,2.504324072560848435e-07,0.000000000000000000e+00,-2.288818359375000000e-05,1.000000000000000000e+00
2.677334070205688477e+00,1.604243927001953125e+02,-1.302150630950927734e+01,-1.302150630950927734e+01,-4.883585032075643539e-03,1.797930908203125000e+02,-9.155272709904238582e-05,1.076075841410784051e-05,-1.037466432762812474e-07,-1.792645321074815001e-06,-5.182586028240621090e-04,2.389748487985343672e-07,5.138191860169172287e-03,5.767798575107008219e-05,7.854249328374862671e-03,-2.118306525744628743e-07,0.000000000000000000e+00,-2.288818359375000000e-05,1.000000000000000000e+00
2.677334070205688477e+00,1.604243927001953125e+02,-1.302150630950927734e+01,-1.302150630950927734e+01,-4.883585032075643539e-03,1.797930908203125000e+02,-9.155272709904238582e-05,1.076075841410784051e-05,-1.037466432762812474e-07,-1.792645321074815001e-06,-5.182586028240621090e-04,2.389748487985343672e-07,5.138191860169172287e-03,5.767798575107008219e-05,7.854249328374862671e-03,-2.118306525744628743e-07,0.000000000000000000e+00,-2.288818359375000000e-05,1.000000000000000000e+00
2.677334070205688477e+00,1.604243927001953125e+02,-1.302150630950927734e+01,-1.302150630950927734e+01,-4.883585032075643539e-03,1.797930908203125000e+02,-9.155272709904238582e-05,1.076075841410784051e-05,-1.037466432762812474e-07,-1.792645321074815001e-06,-5.182586028240621090e-04,2.389748487985343672e-07,5.138191860169172287e-03,5.767798575107008219e-05,7.854249328374862671e-03,-2.118306525744628743e-07,0.000000000000000000e+00,-2.288818359375000000e-05,1.000000000000000000e+00
2.677334070205688477e+00,1.604243927001953125e+02,-1.302150630950927734e+01,-1.302150630950927734e+01,-4.883585032075643539e-03,1.797930908203125000e+02,-9.155272709904238582e-05,1.076075841410784051e-05,-1.037466432762812474e-07,-1.792645321074815001e-06,-5.182586028240621090e-04,2.389748487985343672e-07,5.138191860169172287e-03,5.767798575107008219e-05,7.854249328374862671e-03,-2.118306525744628743e-07,0.000000000000000000e+00,-2.288818359375000000e-05,1.000000000000000000e+00
2.755024909973144531e+00,1.604243927001953125e+02,-1.302150630950927734e+01,-1.302150630950927734e+01,-4.241547081619501114e-03,1.797930908203125000e+02,-9.155273437500000000e-05,1.625002005312126130e-05,-7.100225474232502165e-08,-2.042471169261261821e-05,7.065520185278728604e-05,4.214703892557736253e-07,-2.398232172708958387e-04,5.137929474585689604e-05,1.194613147526979446e-02,-4.999449032538905158e-08,0.000000000000000000e+00,-2.288818359375000000e-05,1.000000000000000000e+00
2.755024909973144531e+00,1.604243927001953125e+02,-1.302150630950927734e+01,-1.302150630950927734e+01,-4.241547081619501114e-03,1.797930908203125000e+02,-9.155273437500000000e-05,1.625002005312126130e-05,-7.100225474232502165e-08,-2.042471169261261821e-05,7.065520185278728604e-05,4.214703892557736253e-07,-2.398232172708958387e-04,5.137929474585689604e-05,1.194613147526979446e-02,-4.999449032538905158e-08,0.000000000000000000e+00,-2.288818359375000000e-05,1.000000000000000000e+00
2.755024909973144531e+00,1.604243927001953125e+02,-1.302150630950927734e+01,-1.302150630950927734e+01,-4.241547081619501114e-03,1.797930908203125000e+02,-9.155273437500000000e-05,1.625002005312126130e-05,-7.100225474232502165e-08,-2.042471169261261821e-05,7.065520185278728604e-05,4.214703892557736253e-07,-2.398232172708958387e-04,5.137929474585689604e-05,1.194613147526979446e-02,-4.999449032538905158e-08,0.000000000000000000e+00,-2.288818359375000000e-05,1.000000000000000000e+00
2.830169916152954102e+00,1.604243774414062500e+02,-1.302150630950927734e+01,-1.302150630950927734e+01,-3.264830214902758598e-03,1.797930908203125000e+02,-9.155272709904238582e-05,1.711956792860291898e-05,2.485114158901069459e-08,-5.730119301006197929e-04,1.157159840659005567e-05,1.275579052162356675e-06,-7.353611756116151810e-03,-1.445389352738857269e-05,1.261335983872413635e-02,3.270154635970357049e-08,0.000000000000000000e+00,-2.288818359375000000e-05,1.000000000000000000e+00
2.830169916152954102e+00,1.604243774414062500e+02,-1.302150630950927734e+01,-1.302150630950927734e+01,-3.264830214902758598e-03,1.797930908203125000e+02,-9.155272709904238582e-05,1.711956792860291898e-05,2.485114158901069459e-08,-5.730119301006197929e-04,1.157159840659005567e-05,1.275579052162356675e-06,-7.353611756116151810e-03,-1.445389352738857269e-05,1.261335983872413635e-02,3.270154635970357049e-08,0.000000000000000000e+00,-2.288818359375000000e-05,1.000000000000000000e+00
2.830169916152954102e+00,1.604243774414062500e+02,-1.302150630950927734e+01,-1.302150630950927734e+01,-3.264830214902758598e-03,1.797930908203125000e+02,-9.155272709904238582e-05,1.711956792860291898e-05,2.485114158901069459e-08,-5.730119301006197929e-04,1.157159840659005567e-05,1.275579052162356675e-06,-7.353611756116151810e-03,-1.445389352738857269e-05,1.261335983872413635e-02,3.270154635970357049e-08,0.000000000000000000e+00,-2.288818359375000000e-05,1.000000000000000000e+00
2.830169916152954102e+00,1.604243774414062500e+02,-1.302150630950927734e+01,-1.302150630950927734e+01,-3.264830214902758598e-03,1.797930908203125000e+02,-9.155272709904238582e-05,1.711956792860291898e-05,2.485114158901069459e-08,-5.730119301006197929e-04,1.157159840659005567e-05,1.275579052162356675e-06,-7.353611756116151810e-03,-1.445389352738857269e-05,1.261335983872413635e-02,3.270154635970357049e-08,0.000000000000000000e+00,-2.288818359375000000e-05,1.000000000000000000e+00
2.830169916152954102e+00,1.604243774414062500e+02,-1.302150630950927734e+01,-1.302150630950927734e+01,-3.264830214902758598e-03,1.797930908203125000e+02,-9.155272709904238582e-05,1.711956792860291898e-05,2.485114158901069459e-08,-5.730119301006197929e-04,1.157159840659005567e-05,1.275579052162356675e-06,-7.353611756116151810e-03,-1.445389352738857269e-05,1.261335983872413635e-02,3.270154635970357049e-08,0.000000000000000000e+00,-2.288818359375000000e-05,1.000000000000000000e+00
2.917726278305053711e+00,1.604243774414062500e+02,-1.302150630950927734e+01,-1.302150630950927734e+01,-2.383735962212085724e-03,1.797930908203125000e+02,-9.155272709904238582e-05,1.479388629377353936e-05,1.412984129700589619e-08,2.045896108029410243e-04,-2.656210745044518262e-05,-1.224502597096943646e-07,8.881153538823127747e-03,-2.284928268636576831e-05,1.090817525982856750e-02,5.390067769894812955e-08,0.000000000000000000e+00,-2.288818359375000000e-05,1.000000000000000000e+00
