# Time,X,Y,Z,Roll,Pitch,Yaw,Vx,Vy,Vz,Ax,Ay,Az,Wx,Wy,Wz,Throttle,Steer,Brake
0.000000000000000000e+00,-2.475102691650390625e+02,1.972595672607421875e+02,1.972595672607421875e+02,-1.431607548147439957e-02,9.000685882568359375e+01,-4.516601096838712692e-03,-1.232657860964536667e-02,5.576545238494873047e+00,-7.437608360305603128e-07,-8.851345628499984741e-03,1.458796143531799316e+00,4.558524778985884041e-06,2.717705965042114258e-01,-4.227026831358671188e-03,3.245730400085449219e-01,1.000000000000000000e+00,2.916172612458467484e-03,0.000000000000000000e+00
1.045818328857421875e-01,-2.475102691650390625e+02,1.972595672607421875e+02,1.972595672607421875e+02,-1.431607548147439957e-02,9.000685882568359375e+01,-4.516601096838712692e-03,-1.232657860964536667e-02,5.576545238494873047e+00,-7.437608360305603128e-07,-8.851345628499984741e-03,1.458796143531799316e+00,4.558524778985884041e-06,2.717705965042114258e-01,-4.227026831358671188e-03,3.245730400085449219e-01,1.000000000000000000e+00,2.916172612458467484e-03,0.000000000000000000e+00
1.045818328857421875e-01,-2.475102691650390625e+02,1.972595672607421875e+02,1.972595672607421875e+02,-1.431607548147439957e-02,9.000685882568359375e+01,-4.516601096838712692e-03,-1.232657860964536667e-02,5.576545238494873047e+00,-7.437608360305603128e-07,-8.851345628499984741e-03,1.458796143531799316e+00,4.558524778985884041e-06,2.717705965042114258e-01,-4.227026831358671188e-03,3.245730400085449219e-01,1.000000000000000000e+00,2.916172612458467484e-03,0.000000000000000000e+00
1.045818328857421875e-01,-2.475102691650390625e+02,1.972595672607421875e+02,1.972595672607421875e+02,-1.431607548147439957e-02,9.000685882568359375e+01,-4.516601096838712692e-03,-1.232657860964536667e-02,5.576545238494873047e+00,-7.437608360305603128e-07,-8.851345628499984741e-03,1.458796143531799316e+00,4.558524778985884041e-06,2.717705965042114258e-01,-4.227026831358671188e-03,3.245730400085449219e-01,1.000000000000000000e+00,2.916172612458467484e-03,0.000000000000000000e+00
1.045818328857421875e-01,-2.475102691650390625e+02,1.972595672607421875e+02,1.972595672607421875e+02,-1.431607548147439957e-02,9.000685882568359375e+01,-4.516601096838712692e-03,-1.232657860964536667e-02,5.576545238494873047e+00,-7.437608360305603128e-07,-8.851345628499984741e-03,1.458796143531799316e+00,4.558524778985884041e-06,2.717705965042114258e-01,-4.227026831358671188e-03,3.245730400085449219e-01,1.000000000000000000e+00,2.916172612458467484e-03,0.000000000000000000e+00
1.045818328857421875e-01,-2.475102691650390625e+02,1.972595672607421875e+02,1.972595672607421875e+02,-1.431607548147439957e-02,9.000685882568359375e+01,-4.516601096838712692e-03,-1.232657860964536667e-02,5.576545238494873047e+00,-7.437608360305603128e-07,-8.851345628499984741e-03,1.458796143531799316e+00,4.558524778985884041e-06,2.717705965042114258e-01,-4.227026831358671188e-03,3.245730400085449219e-01,1.000000000000000000e+00,2.916172612458467484e-03,0.000000000000000000e+00
1.045818328857421875e-01,-2.475110931396484375e+02,1.978330688476562500e+02,1.978330688476562500e+02,2.756664156913757324e-02,9.004032135009765625e+01,-3.417968051508069038e-03,-1.274831593036651611e-02,5.792941093444824219e+00,9.725856671138899401e-07,-4.027711693197488785e-03,2.066642045974731445e+00,1.639159927435684949e-05,3.287425935268402100e-01,-8.377740741707384586e-04,3.002762496471405029e-01,5.000000000000000000e-01,2.143096877261996269e-03,0.000000000000000000e+00
2.092907428741455078e-01,-2.475110931396484375e+02,1.978330688476562500e+02,1.978330688476562500e+02,2.756664156913757324e-02,9.004032135009765625e+01,-3.417968051508069038e-03,-1.274831593036651611e-02,5.792941093444824219e+00,9.725856671138899401e-07,-4.027711693197488785e-03,2.066642045974731445e+00,1.639159927435684949e-05,3.287425935268402100e-01,-8.377740741707384586e-04,3.002762496471405029e-01,5.000000000000000000e-01,2.143096877261996269e-03,0.000000000000000000e+00
2.092907428741455078e-01,-2.475110931396484375e+02,1.978330688476562500e+02,1.978330688476562500e+02,2.756664156913757324e-02,9.004032135009765625e+01,-3.417968051508069038e-03,-1.274831593036651611e-02,5.792941093444824219e+00,9.725856671138899401e-07,-4.027711693197488785e-03,2.066642045974731445e+00,1.639159927435684949e-05,3.287425935268402100e-01,-8.377740741707384586e-04,3.002762496471405029e-01,5.000000000000000000e-01,2.143096877261996269e-03,0.000000000000000000e+00
2.092907428741455078e-01,-2.475110931396484375e+02,1.978330688476562500e+02,1.978330688476562500e+02,2.756664156913757324e-02,9.004032135009765625e+01,-3.417968051508069038e-03,-1.274831593036651611e-02,5.792941093444824219e+00,9.725856671138899401e-07,-4.027711693197488785e-03,2.066642045974731445e+00,1.639159927435684949e-05,3.287425935268402100e-01,-8.377740741707384586e-04,3.002762496471405029e-01,5.000000000000000000e-01,2.143096877261996269e-03,0.000000000000000000e+00
2.092907428741455078e-01,-2.475110931396484375e+02,1.978330688476562500e+02,1.978330688476562500e+02,2.756664156913757324e-02,9.004032135009765625e+01,-3.417968051508069038e-03,-1.274831593036651611e-02,5.792941093444824219e+00,9.725856671138899401e-07,-4.027711693197488785e-03,2.066642045974731445e+00,1.639159927435684949e-05,3.287425935268402100e-01,-8.377740741707384586e-04,3.002762496471405029e-01,5.000000000000000000e-01,2.143096877261996269e-03,0.000000000000000000e+00
2.092907428741455078e-01,-2.475121307373046875e+02,1.984251251220703125e+02,1.984251251220703125e+02,5.830932036042213440e-02,9.006633758544921875e+01,-2.838136628270149231e-03,-1.359349116683006287e-02,5.948513507843017578e+00,-1.620976036065258086e-06,-1.132660638540983200e-02,2.084901809692382812e+00,-3.475758785498328507e-05,1.340852379798889160e-01,3.973361526732333004e-05,2.325648367404937744e-01,5.000000000000000000e-01,1.643807510845363140e-03,0.000000000000000000e+00
2.839093208312988281e-01,-2.475121307373046875e+02,1.984251251220703125e+02,1.984251251220703125e+02,5.830932036042213440e-02,9.006633758544921875e+01,-2.838136628270149231e-03,-1.359349116683006287e-02,5.948513507843017578e+00,-1.620976036065258086e-06,-1.132660638540983200e-02,2.084901809692382812e+00,-3.475758785498328507e-05,1.340852379798889160e-01,3.973361526732333004e-05,2.325648367404937744e-01,5.000000000000000000e-01,1.643807510845363140e-03,0.000000000000000000e+00
2.839093208312988281e-01,-2.475121307373046875e+02,1.984251251220703125e+02,1.984251251220703125e+02,5.830932036042213440e-02,9.006633758544921875e+01,-2.838136628270149231e-03,-1.359349116683006287e-02,5.948513507843017578e+00,-1.620976036065258086e-06,-1.132660638540983200e-02,2.084901809692382812e+00,-3.475758785498328507e-05,1.340852379798889160e-01,3.973361526732333004e-05,2.325648367404937744e-01,5.000000000000000000e-01,1.643807510845363140e-03,0.000000000000000000e+00
2.839093208312988281e-01,-2.475121307373046875e+02,1.984251251220703125e+02,1.984251251220703125e+02,5.830932036042213440e-02,9.006633758544921875e+01,-2.838136628270149231e-03,-1.359349116683006287e-02,5.948513507843017578e+00,-1.620976036065258086e-06,-1.132660638540983200e-02,2.084901809692382812e+00,-3.475758785498328507e-05,1.340852379798889160e-01,3.973361526732333004e-05,2.325648367404937744e-01,5.000000000000000000e-01,1.643807510845363140e-03,0.000000000000000000e+00
2.839093208312988281e-01,-2.475121307373046875e+02,1.984251251220703125e+02,1.984251251220703125e+02,5.830932036042213440e-02,9.006633758544921875e+01,-2.838136628270149231e-03,-1.359349116683006287e-02,5.948513507843017578e+00,-1.620976036065258086e-06,-1.132660638540983200e-02,2.084901809692382812e+00,-3.475758785498328507e-05,1.340852379798889160e-01,3.973361526732333004e-05,2.325648367404937744e-01,5.000000000000000000e-01,1.643807510845363140e-03,0.000000000000000000e+00
3.569011688232421875e-01,-2.475129394531250000e+02,1.988750152587890625e+02,1.988750152587890625e+02,6.857509911060333252e-02,9.008184051513671875e+01,-2.380372490733861923e-03,-1.391031593084335327e-02,6.068137168884277344e+00,-3.385038553460617550e-06,-4.340549930930137634e-03,1.638863325119018555e+00,-2.416793904558289796e-05,1.191722527146339417e-01,-2.697088057175278664e-03,1.998958587646484375e-01,5.000000000000000000e-01,1.252419664524495602e-03,0.000000000000000000e+00
3.569011688232421875e-01,-2.475129394531250000e+02,1.988750152587890625e+02,1.988750152587890625e+02,6.857509911060333252e-02,9.008184051513671875e+01,-2.380372490733861923e-03,-1.391031593084335327e-02,6.068137168884277344e+00,-3.385038553460617550e-06,-4.340549930930137634e-03,1.638863325119018555e+00,-2.416793904558289796e-05,1.191722527146339417e-01,-2.697088057175278664e-03,1.998958587646484375e-01,5.000000000000000000e-01,1.252419664524495602e-03,0.000000000000000000e+00
3.569011688232421875e-01,-2.475129394531250000e+02,1.988750152587890625e+02,1.988750152587890625e+02,6.857509911060333252e-02,9.008184051513671875e+01,-2.380372490733861923e-03,-1.391031593084335327e-02,6.068137168884277344e+00,-3.385038553460617550e-06,-4.340549930930137634e-03,1.638863325119018555e+00,-2.416793904558289796e-05,1.191722527146339417e-01,-2.697088057175278664e-03,1.998958587646484375e-01,5.000000000000000000e-01,1.252419664524495602e-03,0.000000000000000000e+00
3.569011688232421875e-01,-2.475129394531250000e+02,1.988750152587890625e+02,1.988750152587890625e+02,6.857509911060333252e-02,9.008184051513671875e+01,-2.380372490733861923e-03,-1.391031593084335327e-02,6.068137168884277344e+00,-3.385038553460617550e-06,-4.340549930930137634e-03,1.638863325119018555e+00,-2.416793904558289796e-05,1.191722527146339417e-01,-2.697088057175278664e-03,1.998958587646484375e-01,5.000000000000000000e-01,1.252419664524495602e-03,0.000000000000000000e+00
4.765405654907226562e-01,-2.475138244628906250e+02,1.993184661865234375e+02,1.993184661865234375e+02,6.767351180315017700e-02,9.009377288818359375e+01,-2.044675871729850769e-03,-1.426188275218009949e-02,6.078967571258544922e+00,3.623433428856515093e-07,-2.938553923740983009e-03,9.052538871765136719e-02,3.132230631308630109e-05,-8.803988993167877197e-02,-2.548873657360672951e-03,1.431917846202850342e-01,5.000000000000000000e-01,1.023973687551915646e-03,0.000000000000000000e+00
4.765405654907226562e-01,-2.475138244628906250e+02,1.993184661865234375e+02,1.993184661865234375e+02,6.767351180315017700e-02,9.009377288818359375e+01,-2.044675871729850769e-03,-1.426188275218009949e-02,6.078967571258544922e+00,3.623433428856515093e-07,-2.938553923740983009e-03,9.052538871765136719e-02,3.132230631308630109e-05,-8.803988993167877197e-02,-2.548873657360672951e-03,1.431917846202850342e-01,5.000000000000000000e-01,1.023973687551915646e-03,0.000000000000000000e+00
4.765405654907226562e-01,-2.475138244628906250e+02,1.993184661865234375e+02,1.993184661865234375e+02,6.767351180315017700e-02,9.009377288818359375e+01,-2.044675871729850769e-03,-1.426188275218009949e-02,6.078967571258544922e+00,3.623433428856515093e-07,-2.938553923740983009e-03,9.052538871765136719e-02,3.132230631308630109e-05,-8.803988993167877197e-02,-2.548873657360672951e-03,1.431917846202850342e-01,5.000000000000000000e-01,1.023973687551915646e-03,0.000000000000000000e+00
4.765405654907226562e-01,-2.475138244628906250e+02,1.993184661865234375e+02,1.993184661865234375e+02,6.767351180315017700e-02,9.009377288818359375e+01,-2.044675871729850769e-03,-1.426188275218009949e-02,6.078967571258544922e+00,3.623433428856515093e-07,-2.938553923740983009e-03,9.052538871765136719e-02,3.132230631308630109e-05,-8.803988993167877197e-02,-2.548873657360672951e-03,1.431917846202850342e-01,5.000000000000000000e-01,1.023973687551915646e-03,0.000000000000000000e+00
4.765405654907226562e-01,-2.475138244628906250e+02,1.993184661865234375e+02,1.993184661865234375e+02,6.767351180315017700e-02,9.009377288818359375e+01,-2.044675871729850769e-03,-1.426188275218009949e-02,6.078967571258544922e+00,3.623433428856515093e-07,-2.938553923740983009e-03,9.052538871765136719e-02,3.132230631308630109e-05,-8.803988993167877197e-02,-2.548873657360672951e-03,1.431917846202850342e-01,5.000000000000000000e-01,1.023973687551915646e-03,0.000000000000000000e+00
4.765405654907226562e-01,-2.475138244628906250e+02,1.993184661865234375e+02,1.993184661865234375e+02,6.767351180315017700e-02,9.009377288818359375e+01,-2.044675871729850769e-03,-1.426188275218009949e-02,6.078967571258544922e+00,3.623433428856515093e-07,-2.938553923740983009e-03,9.052538871765136719e-02,3.132230631308630109e-05,-8.803988993167877197e-02,-2.548873657360672951e-03,1.431917846202850342e-01,5.000000000000000000e-01,1.023973687551915646e-03,0.000000000000000000e+00
4.765405654907226562e-01,-2.475138244628906250e+02,1.993184661865234375e+02,1.993184661865234375e+02,6.767351180315017700e-02,9.009377288818359375e+01,-2.044675871729850769e-03,-1.426188275218009949e-02,6.078967571258544922e+00,3.623433428856515093e-07,-2.938553923740983009e-03,9.052538871765136719e-02,3.132230631308630109e-05,-8.803988993167877197e-02,-2.548873657360672951e-03,1.431917846202850342e-01,5.000000000000000000e-01,1.023973687551915646e-03,0.000000000000000000e+00
6.200885772705078125e-01,-2.475147857666015625e+02,1.999294281005859375e+02,1.999294281005859375e+02,5.706622824072837830e-02,9.009449005126953125e+01,4.401438345666974783e-04,-8.636862039566040039e-03,6.092681884765625000e+00,8.581638439864036627e-07,3.918563947081565857e-02,9.553816914558410645e-02,3.454039415373699740e-06,-2.098518162965774536e-01,-1.025559194386005402e-02,-1.482780426740646362e-01,5.000000000000000000e-01,-4.395621072035282850e-04,0.000000000000000000e+00
6.200885772705078125e-01,-2.475147857666015625e+02,1.999294281005859375e+02,1.999294281005859375e+02,5.706622824072837830e-02,9.009449005126953125e+01,4.401438345666974783e-04,-8.636862039566040039e-03,6.092681884765625000e+00,8.581638439864036627e-07,3.918563947081565857e-02,9.553816914558410645e-02,3.454039415373699740e-06,-2.098518162965774536e-01,-1.025559194386005402e-02,-1.482780426740646362e-01,5.000000000000000000e-01,-4.395621072035282850e-04,0.000000000000000000e+00
6.200885772705078125e-01,-2.475147857666015625e+02,1.999294281005859375e+02,1.999294281005859375e+02,5.706622824072837830e-02,9.009449005126953125e+01,4.401438345666974783e-04,-8.636862039566040039e-03,6.092681884765625000e+00,8.581638439864036627e-07,3.918563947081565857e-02,9.553816914558410645e-02,3.454039415373699740e-06,-2.098518162965774536e-01,-1.025559194386005402e-02,-1.482780426740646362e-01,5.000000000000000000e-01,-4.395621072035282850e-04,0.000000000000000000e+00
6.200885772705078125e-01,-2.475147857666015625e+02,1.999294281005859375e+02,1.999294281005859375e+02,5.706622824072837830e-02,9.009449005126953125e+01,4.401438345666974783e-04,-8.636862039566040039e-03,6.092681884765625000e+00,8.581638439864036627e-07,3.918563947081565857e-02,9.553816914558410645e-02,3.454039415373699740e-06,-2.098518162965774536e-01,-1.025559194386005402e-02,-1.482780426740646362e-01,5.000000000000000000e-01,-4.395621072035282850e-04,0.000000000000000000e+00
6.200885772705078125e-01,-2.475147857666015625e+02,1.999294281005859375e+02,1.999294281005859375e+02,5.706622824072837830e-02,9.009449005126953125e+01,4.401438345666974783e-04,-8.636862039566040039e-03,6.092681884765625000e+00,8.581638439864036627e-07,3.918563947081565857e-02,9.553816914558410645e-02,3.454039415373699740e-06,-2.098518162965774536e-01,-1.025559194386005402e-02,-1.482780426740646362e-01,5.000000000000000000e-01,-4.395621072035282850e-04,0.000000000000000000e+00
6.200885772705078125e-01,-2.475147857666015625e+02,1.999294281005859375e+02,1.999294281005859375e+02,5.706622824072837830e-02,9.009449005126953125e+01,4.401438345666974783e-04,-8.636862039566040039e-03,6.092681884765625000e+00,8.581638439864036627e-07,3.918563947081565857e-02,9.553816914558410645e-02,3.454039415373699740e-06,-2.098518162965774536e-01,-1.025559194386005402e-02,-1.482780426740646362e-01,5.000000000000000000e-01,-4.395621072035282850e-04,0.000000000000000000e+00
7.946169376373291016e-01,-2.475156707763671875e+02,2.005409698486328125e+02,2.005409698486328125e+02,4.129531979560852051e-02,9.008180999755859375e+01,9.094842243939638138e-04,-7.221063598990440369e-03,6.081484794616699219e+00,-7.628123199765468598e-08,8.112139999866485596e-03,-6.415627896785736084e-02,-5.354116183298174292e-06,-2.543857991695404053e-01,-4.145323764532804489e-03,-9.268960952758789062e-01,5.000000000000000000e-01,-5.789620336145162582e-04,0.000000000000000000e+00
7.946169376373291016e-01,-2.475156707763671875e+02,2.005409698486328125e+02,2.005409698486328125e+02,4.129531979560852051e-02,9.008180999755859375e+01,9.094842243939638138e-04,-7.221063598990440369e-03,6.081484794616699219e+00,-7.628123199765468598e-08,8.112139999866485596e-03,-6.415627896785736084e-02,-5.354116183298174292e-06,-2.543857991695404053e-01,-4.145323764532804489e-03,-9.268960952758789062e-01,5.000000000000000000e-01,-5.789620336145162582e-04,0.000000000000000000e+00
7.946169376373291016e-01,-2.475156707763671875e+02,2.005409698486328125e+02,2.005409698486328125e+02,4.129531979560852051e-02,9.008180999755859375e+01,9.094842243939638138e-04,-7.221063598990440369e-03,6.081484794616699219e+00,-7.628123199765468598e-08,8.112139999866485596e-03,-6.415627896785736084e-02,-5.354116183298174292e-06,-2.543857991695404053e-01,-4.145323764532804489e-03,-9.268960952758789062e-01,5.000000000000000000e-01,-5.789620336145162582e-04,0.000000000000000000e+00
8.783230781555175781e-01,-2.475164794921875000e+02,2.011476745605468750e+02,2.011476745605468750e+02,1.985535956919193268e-02,9.007206726074218750e+01,7.448699907399713993e-04,-6.931646261364221573e-03,6.009813308715820312e+00,8.963044706433720421e-07,3.457540180534124374e-03,-8.562273383140563965e-01,1.161904856417095289e-05,-3.066006302833557129e-01,1.725473121041432023e-04,-1.343773484230041504e+00,5.000000000000000000e-01,-4.678998666349798441e-04,0.000000000000000000e+00
8.783230781555175781e-01,-2.475164794921875000e+02,2.011476745605468750e+02,2.011476745605468750e+02,1.985535956919193268e-02,9.007206726074218750e+01,7.448699907399713993e-04,-6.931646261364221573e-03,6.009813308715820312e+00,8.963044706433720421e-07,3.457540180534124374e-03,-8.562273383140563965e-01,1.161904856417095289e-05,-3.066006302833557129e-01,1.725473121041432023e-04,-1.343773484230041504e+00,5.000000000000000000e-01,-4.678998666349798441e-04,0.000000000000000000e+00
8.783230781555175781e-01,-2.475164794921875000e+02,2.011476745605468750e+02,2.011476745605468750e+02,1.985535956919193268e-02,9.007206726074218750e+01,7.448699907399713993e-04,-6.931646261364221573e-03,6.009813308715820312e+00,8.963044706433720421e-07,3.457540180534124374e-03,-8.562273383140563965e-01,1.161904856417095289e-05,-3.066006302833557129e-01,1.725473121041432023e-04,-1.343773484230041504e+00,5.000000000000000000e-01,-4.678998666349798441e-04,0.000000000000000000e+00
9.483780860900878906e-01,-2.475132293701171875e+02,2.016509857177734375e+02,2.016509857177734375e+02,5.375358741730451584e-03,8.994889831542968750e+01,2.867709472775459290e-02,7.629583030939102173e-02,5.992094993591308594e+00,4.958414479006023612e-07,1.188030362129211426e+00,-2.529200315475463867e-01,-5.716408395528560504e-06,-1.684710830450057983e-01,-1.998769342899322510e-01,-2.641924142837524414e+00,5.000000000000000000e-01,-1.979653537273406982e-02,0.000000000000000000e+00
9.483780860900878906e-01,-2.475132293701171875e+02,2.016509857177734375e+02,2.016509857177734375e+02,5.375358741730451584e-03,8.994889831542968750e+01,2.867709472775459290e-02,7.629583030939102173e-02,5.992094993591308594e+00,4.958414479006023612e-07,1.188030362129211426e+00,-2.529200315475463867e-01,-5.716408395528560504e-06,-1.684710830450057983e-01,-1.998769342899322510e-01,-2.641924142837524414e+00,5.000000000000000000e-01,-1.979653537273406982e-02,0.000000000000000000e+00
9.483780860900878906e-01,-2.475132293701171875e+02,2.016509857177734375e+02,2.016509857177734375e+02,5.375358741730451584e-03,8.994889831542968750e+01,2.867709472775459290e-02,7.629583030939102173e-02,5.992094993591308594e+00,4.958414479006023612e-07,1.188030362129211426e+00,-2.529200315475463867e-01,-5.716408395528560504e-06,-1.684710830450057983e-01,-1.998769342899322510e-01,-2.641924142837524414e+00,5.000000000000000000e-01,-1.979653537273406982e-02,0.000000000000000000e+00
9.483780860900878906e-01,-2.475132293701171875e+02,2.016509857177734375e+02,2.016509857177734375e+02,5.375358741730451584e-03,8.994889831542968750e+01,2.867709472775459290e-02,7.629583030939102173e-02,5.992094993591308594e+00,4.958414479006023612e-07,1.188030362129211426e+00,-2.529200315475463867e-01,-5.716408395528560504e-06,-1.684710830450057983e-01,-1.998769342899322510e-01,-2.641924142837524414e+00,5.000000000000000000e-01,-1.979653537273406982e-02,0.000000000000000000e+00
9.483780860900878906e-01,-2.475084686279296875e+02,2.020709533691406250e+02,2.020709533691406250e+02,-1.099660410545766354e-03,8.978848266601562500e+01,3.453748300671577454e-02,1.013067141175270081e-01,5.997550487518310547e+00,-4.767703103425446898e-07,3.174009919166564941e-01,6.923302263021469116e-02,-1.234294450114248320e-05,-4.648584499955177307e-02,-3.508794680237770081e-02,-1.993199825286865234e+00,5.000000000000000000e-01,-1.990683376789093018e-02,0.000000000000000000e+00
1.027177095413208008e+00,-2.475084686279296875e+02,2.020709533691406250e+02,2.020709533691406250e+02,-1.099660410545766354e-03,8.978848266601562500e+01,3.453748300671577454e-02,1.013067141175270081e-01,5.997550487518310547e+00,-4.767703103425446898e-07,3.174009919166564941e-01,6.923302263021469116e-02,-1.234294450114248320e-05,-4.648584499955177307e-02,-3.508794680237770081e-02,-1.993199825286865234e+00,5.000000000000000000e-01,-1.990683376789093018e-02,0.000000000000000000e+00
1.027177095413208008e+00,-2.475084686279296875e+02,2.020709533691406250e+02,2.020709533691406250e+02,-1.099660410545766354e-03,8.978848266601562500e+01,3.453748300671577454e-02,1.013067141175270081e-01,5.997550487518310547e+00,-4.767703103425446898e-07,3.174009919166564941e-01,6.923302263021469116e-02,-1.234294450114248320e-05,-4.648584499955177307e-02,-3.508794680237770081e-02,-1.993199825286865234e+00,5.000000000000000000e-01,-1.990683376789093018e-02,0.000000000000000000e+00
1.095043420791625977e+00,-2.475021057128906250e+02,2.025406341552734375e+02,2.025406341552734375e+02,-7.806906010955572128e-03,8.958278656005859375e+01,3.263652697205543518e-02,1.155760958790779114e-01,5.924795627593994141e+00,8.391011192543373909e-07,2.102571725845336914e-01,-1.072031855583190918e+00,1.938916648214217275e-05,-1.420787423849105835e-01,2.574610710144042969e-02,-3.428530454635620117e+00,5.000000000000000000e-01,-1.825561560690402985e-02,0.000000000000000000e+00
1.095043420791625977e+00,-2.475021057128906250e+02,2.025406341552734375e+02,2.025406341552734375e+02,-7.806906010955572128e-03,8.958278656005859375e+01,3.263652697205543518e-02,1.155760958790779114e-01,5.924795627593994141e+00,8.391011192543373909e-07,2.102571725845336914e-01,-1.072031855583190918e+00,1.938916648214217275e-05,-1.420787423849105835e-01,2.574610710144042969e-02,-3.428530454635620117e+00,5.000000000000000000e-01,-1.825561560690402985e-02,0.000000000000000000e+00
1.095043420791625977e+00,-2.475021057128906250e+02,2.025406341552734375e+02,2.025406341552734375e+02,-7.806906010955572128e-03,8.958278656005859375e+01,3.263652697205543518e-02,1.155760958790779114e-01,5.924795627593994141e+00,8.391011192543373909e-07,2.102571725845336914e-01,-1.072031855583190918e+00,1.938916648214217275e-05,-1.420787423849105835e-01,2.574610710144042969e-02,-3.428530454635620117e+00,5.000000000000000000e-01,-1.825561560690402985e-02,0.000000000000000000e+00
1.095043420791625977e+00,-2.475021057128906250e+02,2.025406341552734375e+02,2.025406341552734375e+02,-7.806906010955572128e-03,8.958278656005859375e+01,3.263652697205543518e-02,1.155760958790779114e-01,5.924795627593994141e+00,8.391011192543373909e-07,2.102571725845336914e-01,-1.072031855583190918e+00,1.938916648214217275e-05,-1.420787423849105835e-01,2.574610710144042969e-02,-3.428530454635620117e+00,5.000000000000000000e-01,-1.825561560690402985e-02,0.000000000000000000e+00
1.168572425842285156e+00,-2.474956359863281250e+02,2.029431610107421875e+02,2.029431610107421875e+02,-1.150203775614500046e-02,8.944005584716796875e+01,2.883550338447093964e-02,1.227988228201866150e-01,5.931091308593750000e+00,1.401711074322520290e-06,9.822962433099746704e-02,8.562172949314117432e-02,7.651537089259363711e-06,-1.462628226727247238e-02,3.851342201232910156e-02,-1.648664951324462891e+00,5.000000000000000000e-01,-1.577028632164001465e-02,0.000000000000000000e+00
1.168572425842285156e+00,-2.474956359863281250e+02,2.029431610107421875e+02,2.029431610107421875e+02,-1.150203775614500046e-02,8.944005584716796875e+01,2.883550338447093964e-02,1.227988228201866150e-01,5.931091308593750000e+00,1.401711074322520290e-06,9.822962433099746704e-02,8.562172949314117432e-02,7.651537089259363711e-06,-1.462628226727247238e-02,3.851342201232910156e-02,-1.648664951324462891e+00,5.000000000000000000e-01,-1.577028632164001465e-02,0.000000000000000000e+00
1.168572425842285156e+00,-2.474956359863281250e+02,2.029431610107421875e+02,2.029431610107421875e+02,-1.150203775614500046e-02,8.944005584716796875e+01,2.883550338447093964e-02,1.227988228201866150e-01,5.931091308593750000e+00,1.401711074322520290e-06,9.822962433099746704e-02,8.562172949314117432e-02,7.651537089259363711e-06,-1.462628226727247238e-02,3.851342201232910156e-02,-1.648664951324462891e+00,5.000000000000000000e-01,-1.577028632164001465e-02,0.000000000000000000e+00
1.168572425842285156e+00,-2.474956359863281250e+02,2.029431610107421875e+02,2.029431610107421875e+02,-1.150203775614500046e-02,8.944005584716796875e+01,2.883550338447093964e-02,1.227988228201866150e-01,5.931091308593750000e+00,1.401711074322520290e-06,9.822962433099746704e-02,8.562172949314117432e-02,7.651537089259363711e-06,-1.462628226727247238e-02,3.851342201232910156e-02,-1.648664951324462891e+00,5.000000000000000000e-01,-1.577028632164001465e-02,0.000000000000000000e+00
1.168572425842285156e+00,-2.474827880859375000e+02,2.033766632080078125e+02,2.033766632080078125e+02,-1.510837767273187637e-02,8.911855316162109375e+01,6.771541386842727661e-02,2.558534443378448486e-01,5.867861747741699219e+00,3.814136277924262686e-07,1.772916316986083984e+00,-8.425166010856628418e-01,-1.359518319077324122e-05,-8.976941555738449097e-02,-3.484814167022705078e-01,-5.800903797149658203e+00,5.000000000000000000e-01,-4.619282484054565430e-02,0.000000000000000000e+00
1.243620872497558594e+00,-2.474827880859375000e+02,2.033766632080078125e+02,2.033766632080078125e+02,-1.510837767273187637e-02,8.911855316162109375e+01,6.771541386842727661e-02,2.558534443378448486e-01,5.867861747741699219e+00,3.814136277924262686e-07,1.772916316986083984e+00,-8.425166010856628418e-01,-1.359518319077324122e-05,-8.976941555738449097e-02,-3.484814167022705078e-01,-5.800903797149658203e+00,5.000000000000000000e-01,-4.619282484054565430e-02,0.000000000000000000e+00
1.243620872497558594e+00,-2.474827880859375000e+02,2.033766632080078125e+02,2.033766632080078125e+02,-1.510837767273187637e-02,8.911855316162109375e+01,6.771541386842727661e-02,2.558534443378448486e-01,5.867861747741699219e+00,3.814136277924262686e-07,1.772916316986083984e+00,-8.425166010856628418e-01,-1.359518319077324122e-05,-8.976941555738449097e-02,-3.484814167022705078e-01,-5.800903797149658203e+00,5.000000000000000000e-01,-4.619282484054565430e-02,0.000000000000000000e+00
1.243620872497558594e+00,-2.474827880859375000e+02,2.033766632080078125e+02,2.033766632080078125e+02,-1.510837767273187637e-02,8.911855316162109375e+01,6.771541386842727661e-02,2.558534443378448486e-01,5.867861747741699219e+00,3.814136277924262686e-07,1.772916316986083984e+00,-8.425166010856628418e-01,-1.359518319077324122e-05,-8.976941555738449097e-02,-3.484814167022705078e-01,-5.800903797149658203e+00,5.000000000000000000e-01,-4.619282484054565430e-02,0.000000000000000000e+00
1.312042951583862305e+00,-2.474656219482421875e+02,2.038167572021484375e+02,2.038167572021484375e+02,-1.733502000570297241e-02,8.872393035888671875e+01,7.490000873804092407e-02,3.031934797763824463e-01,5.861955642700195312e+00,-1.191913952425238676e-06,6.918824911117553711e-01,-8.631870150566101074e-02,-2.299444349773693830e-05,1.117817778140306473e-02,-2.166970632970333099e-02,-4.653616428375244141e+00,5.000000000000000000e-01,-4.428514838218688965e-02,0.000000000000000000e+00
1.312042951583862305e+00,-2.474656219482421875e+02,2.038167572021484375e+02,2.038167572021484375e+02,-1.733502000570297241e-02,8.872393035888671875e+01,7.490000873804092407e-02,3.031934797763824463e-01,5.861955642700195312e+00,-1.191913952425238676e-06,6.918824911117553711e-01,-8.631870150566101074e-02,-2.299444349773693830e-05,1.117817778140306473e-02,-2.166970632970333099e-02,-4.653616428375244141e+00,5.000000000000000000e-01,-4.428514838218688965e-02,0.000000000000000000e+00
1.312042951583862305e+00,-2.474481964111328125e+02,2.042151184082031250e+02,2.042151184082031250e+02,-1.995781250298023224e-02,8.835116577148437500e+01,6.924832612276077271e-02,3.248426616191864014e-01,5.801076412200927734e+00,-1.258677798432472628e-06,3.045473992824554443e-01,-8.564116954803466797e-01,-9.391928301738516893e-07,-5.189095810055732727e-02,6.891721487045288086e-02,-5.788379669189453125e+00,5.000000000000000000e-01,-3.984462097287178040e-02,0.000000000000000000e+00
1.383129358291625977e+00,-2.474481964111328125e+02,2.042151184082031250e+02,2.042151184082031250e+02,-1.995781250298023224e-02,8.835116577148437500e+01,6.924832612276077271e-02,3.248426616191864014e-01,5.801076412200927734e+00,-1.258677798432472628e-06,3.045473992824554443e-01,-8.564116954803466797e-01,-9.391928301738516893e-07,-5.189095810055732727e-02,6.891721487045288086e-02,-5.788379669189453125e+00,5.000000000000000000e-01,-3.984462097287178040e-02,0.000000000000000000e+00
1.383129358291625977e+00,-2.474481964111328125e+02,2.042151184082031250e+02,2.042151184082031250e+02,-1.995781250298023224e-02,8.835116577148437500e+01,6.924832612276077271e-02,3.248426616191864014e-01,5.801076412200927734e+00,-1.258677798432472628e-06,3.045473992824554443e-01,-8.564116954803466797e-01,-9.391928301738516893e-07,-5.189095810055732727e-02,6.891721487045288086e-02,-5.788379669189453125e+00,5.000000000000000000e-01,-3.984462097287178040e-02,0.000000000000000000e+00
1.450951814651489258e+00,-2.474282379150390625e+02,2.046275939941406250e+02,2.046275939941406250e+02,-1.993049122393131256e-02,8.801728057861328125e+01,6.082613393664360046e-02,3.420220911502838135e-01,5.802167415618896484e+00,3.909508734523114981e-07,2.533000111579895020e-01,1.608616858720779419e-02,2.432274959573987871e-05,4.077213257551193237e-02,7.640605419874191284e-02,-3.983551025390625000e+00,5.000000000000000000e-01,-3.527668491005897522e-02,0.000000000000000000e+00
1.450951814651489258e+00,-2.474282379150390625e+02,2.046275939941406250e+02,2.046275939941406250e+02,-1.993049122393131256e-02,8.801728057861328125e+01,6.082613393664360046e-02,3.420220911502838135e-01,5.802167415618896484e+00,3.909508734523114981e-07,2.533000111579895020e-01,1.608616858720779419e-02,2.432274959573987871e-05,4.077213257551193237e-02,7.640605419874191284e-02,-3.983551025390625000e+00,5.000000000000000000e-01,-3.527668491005897522e-02,0.000000000000000000e+00
1.450951814651489258e+00,-2.474282379150390625e+02,2.046275939941406250e+02,2.046275939941406250e+02,-1.993049122393131256e-02,8.801728057861328125e+01,6.082613393664360046e-02,3.420220911502838135e-01,5.802167415618896484e+00,3.909508734523114981e-07,2.533000111579895020e-01,1.608616858720779419e-02,2.432274959573987871e-05,4.077213257551193237e-02,7.640605419874191284e-02,-3.983551025390625000e+00,5.000000000000000000e-01,-3.527668491005897522e-02,0.000000000000000000e+00
1.527701377868652344e+00,-2.474080352783203125e+02,2.050189819335937500e+02,2.050189819335937500e+02,-2.034713327884674072e-02,8.771830749511718750e+01,5.295298248529434204e-02,3.527942597866058350e-01,5.750427246093750000e+00,8.295840530081477482e-07,1.403547972440719604e-01,-6.741428375244140625e-01,5.715122824767604470e-06,-2.534005977213382721e-02,8.029989153146743774e-02,-4.677469730377197266e+00,5.000000000000000000e-01,-3.102155402302742004e-02,0.000000000000000000e+00
1.527701377868652344e+00,-2.474080352783203125e+02,2.050189819335937500e+02,2.050189819335937500e+02,-2.034713327884674072e-02,8.771830749511718750e+01,5.295298248529434204e-02,3.527942597866058350e-01,5.750427246093750000e+00,8.295840530081477482e-07,1.403547972440719604e-01,-6.741428375244140625e-01,5.715122824767604470e-06,-2.534005977213382721e-02,8.029989153146743774e-02,-4.677469730377197266e+00,5.000000000000000000e-01,-3.102155402302742004e-02,0.000000000000000000e+00
1.527701377868652344e+00,-2.474080352783203125e+02,2.050189819335937500e+02,2.050189819335937500e+02,-2.034713327884674072e-02,8.771830749511718750e+01,5.295298248529434204e-02,3.527942597866058350e-01,5.750427246093750000e+00,8.295840530081477482e-07,1.403547972440719604e-01,-6.741428375244140625e-01,5.715122824767604470e-06,-2.534005977213382721e-02,8.029989153146743774e-02,-4.677469730377197266e+00,5.000000000000000000e-01,-3.102155402302742004e-02,0.000000000000000000e+00
1.600134611129760742e+00,-2.473768157958984375e+02,2.054592285156250000e+02,2.054592285156250000e+02,-2.069547213613986969e-02,8.722655487060546875e+01,9.799313545227050781e-02,5.198430418968200684e-01,5.729724407196044922e+00,-5.320685886545106769e-06,2.306245088577270508e+00,-2.858196198940277100e-01,-8.490950858686119318e-05,1.716460473835468292e-02,-3.607868552207946777e-01,-6.512377262115478516e+00,5.000000000000000000e-01,-6.729321926832199097e-02,0.000000000000000000e+00
1.600134611129760742e+00,-2.473768157958984375e+02,2.054592285156250000e+02,2.054592285156250000e+02,-2.069547213613986969e-02,8.722655487060546875e+01,9.799313545227050781e-02,5.198430418968200684e-01,5.729724407196044922e+00,-5.320685886545106769e-06,2.306245088577270508e+00,-2.858196198940277100e-01,-8.490950858686119318e-05,1.716460473835468292e-02,-3.607868552207946777e-01,-6.512377262115478516e+00,5.000000000000000000e-01,-6.729321926832199097e-02,0.000000000000000000e+00
1.600134611129760742e+00,-2.473768157958984375e+02,2.054592285156250000e+02,2.054592285156250000e+02,-2.069547213613986969e-02,8.722655487060546875e+01,9.799313545227050781e-02,5.198430418968200684e-01,5.729724407196044922e+00,-5.320685886545106769e-06,2.306245088577270508e+00,-2.858196198940277100e-01,-8.490950858686119318e-05,1.716460473835468292e-02,-3.607868552207946777e-01,-6.512377262115478516e+00,5.000000000000000000e-01,-6.729321926832199097e-02,0.000000000000000000e+00
1.600134611129760742e+00,-2.473768157958984375e+02,2.054592285156250000e+02,2.054592285156250000e+02,-2.069547213613986969e-02,8.722655487060546875e+01,9.799313545227050781e-02,5.198430418968200684e-01,5.729724407196044922e+00,-5.320685886545106769e-06,2.306245088577270508e+00,-2.858196198940277100e-01,-8.490950858686119318e-05,1.716460473835468292e-02,-3.607868552207946777e-01,-6.512377262115478516e+00,5.000000000000000000e-01,-6.729321926832199097e-02,0.000000000000000000e+00
1.600134611129760742e+00,-2.473768157958984375e+02,2.054592285156250000e+02,2.054592285156250000e+02,-2.069547213613986969e-02,8.722655487060546875e+01,9.799313545227050781e-02,5.198430418968200684e-01,5.729724407196044922e+00,-5.320685886545106769e-06,2.306245088577270508e+00,-2.858196198940277100e-01,-8.490950858686119318e-05,1.716460473835468292e-02,-3.607868552207946777e-01,-6.512377262115478516e+00,5.000000000000000000e-01,-6.729321926832199097e-02,0.000000000000000000e+00
1.600134611129760742e+00,-2.473430633544921875e+02,2.058705596923828125e+02,2.058705596923828125e+02,-2.371441572904586792e-02,8.665290832519531250e+01,1.027360707521438599e-01,5.721126198768615723e-01,5.643552303314208984e+00,-1.697294351288292091e-06,4.530256092548370361e-01,-7.468621730804443359e-01,3.140429180348291993e-05,-7.847632467746734619e-02,5.018474534153938293e-03,-8.685094833374023438e+00,5.000000000000000000e-01,-6.381618231534957886e-02,0.000000000000000000e+00
1.715513467788696289e+00,-2.473430633544921875e+02,2.058705596923828125e+02,2.058705596923828125e+02,-2.371441572904586792e-02,8.665290832519531250e+01,1.027360707521438599e-01,5.721126198768615723e-01,5.643552303314208984e+00,-1.697294351288292091e-06,4.530256092548370361e-01,-7.468621730804443359e-01,3.140429180348291993e-05,-7.847632467746734619e-02,5.018474534153938293e-03,-8.685094833374023438e+00,5.000000000000000000e-01,-6.381618231534957886e-02,0.000000000000000000e+00
1.715513467788696289e+00,-2.473430633544921875e+02,2.058705596923828125e+02,2.058705596923828125e+02,-2.371441572904586792e-02,8.665290832519531250e+01,1.027360707521438599e-01,5.721126198768615723e-01,5.643552303314208984e+00,-1.697294351288292091e-06,4.530256092548370361e-01,-7.468621730804443359e-01,3.140429180348291993e-05,-7.847632467746734619e-02,5.018474534153938293e-03,-8.685094833374023438e+00,5.000000000000000000e-01,-6.381618231534957886e-02,0.000000000000000000e+00
1.715513467788696289e+00,-2.472918548583984375e+02,2.064320678710937500e+02,2.064320678710937500e+02,-2.987524494528770447e-02,8.591313934326171875e+01,9.017242491245269775e-02,6.103047728538513184e-01,5.533698081970214844e+00,1.010726350614277180e-06,3.913064301013946533e-01,-1.125536561012268066e+00,2.774564563878811896e-05,-1.709926873445510864e-01,9.175610542297363281e-02,-8.724252700805664062e+00,5.000000000000000000e-01,-5.737261101603507996e-02,0.000000000000000000e+00
1.813115119934082031e+00,-2.472918548583984375e+02,2.064320678710937500e+02,2.064320678710937500e+02,-2.987524494528770447e-02,8.591313934326171875e+01,9.017242491245269775e-02,6.103047728538513184e-01,5.533698081970214844e+00,1.010726350614277180e-06,3.913064301013946533e-01,-1.125536561012268066e+00,2.774564563878811896e-05,-1.709926873445510864e-01,9.175610542297363281e-02,-8.724252700805664062e+00,5.000000000000000000e-01,-5.737261101603507996e-02,0.000000000000000000e+00
1.813115119934082031e+00,-2.472918548583984375e+02,2.064320678710937500e+02,2.064320678710937500e+02,-2.987524494528770447e-02,8.591313934326171875e+01,9.017242491245269775e-02,6.103047728538513184e-01,5.533698081970214844e+00,1.010726350614277180e-06,3.913064301013946533e-01,-1.125536561012268066e+00,2.774564563878811896e-05,-1.709926873445510864e-01,9.175610542297363281e-02,-8.724252700805664062e+00,5.000000000000000000e-01,-5.737261101603507996e-02,0.000000000000000000e+00
1.813115119934082031e+00,-2.472918548583984375e+02,2.064320678710937500e+02,2.064320678710937500e+02,-2.987524494528770447e-02,8.591313934326171875e+01,9.017242491245269775e-02,6.103047728538513184e-01,5.533698081970214844e+00,1.010726350614277180e-06,3.913064301013946533e-01,-1.125536561012268066e+00,2.774564563878811896e-05,-1.709926873445510864e-01,9.175610542297363281e-02,-8.724252700805664062e+00,5.000000000000000000e-01,-5.737261101603507996e-02,0.000000000000000000e+00
1.813115119934082031e+00,-2.472384490966796875e+02,2.069700317382812500e+02,2.069700317382812500e+02,-3.823539614677429199e-02,8.529533386230468750e+01,7.364573329687118530e-02,6.276957988739013672e-01,5.438299655914306641e+00,9.916599310599849559e-07,2.094806283712387085e-01,-1.149105429649353027e+00,-2.296612962027211324e-07,-1.497851610183715820e-01,9.669392555952072144e-02,-7.495683193206787109e+00,5.000000000000000000e-01,-4.822780191898345947e-02,0.000000000000000000e+00
1.896134853363037109e+00,-2.472384490966796875e+02,2.069700317382812500e+02,2.069700317382812500e+02,-3.823539614677429199e-02,8.529533386230468750e+01,7.364573329687118530e-02,6.276957988739013672e-01,5.438299655914306641e+00,9.916599310599849559e-07,2.094806283712387085e-01,-1.149105429649353027e+00,-2.296612962027211324e-07,-1.497851610183715820e-01,9.669392555952072144e-02,-7.495683193206787109e+00,5.000000000000000000e-01,-4.822780191898345947e-02,0.000000000000000000e+00
1.896134853363037109e+00,-2.472384490966796875e+02,2.069700317382812500e+02,2.069700317382812500e+02,-3.823539614677429199e-02,8.529533386230468750e+01,7.364573329687118530e-02,6.276957988739013672e-01,5.438299655914306641e+00,9.916599310599849559e-07,2.094806283712387085e-01,-1.149105429649353027e+00,-2.296612962027211324e-07,-1.497851610183715820e-01,9.669392555952072144e-02,-7.495683193206787109e+00,5.000000000000000000e-01,-4.822780191898345947e-02,0.000000000000000000e+00
1.896134853363037109e+00,-2.472384490966796875e+02,2.069700317382812500e+02,2.069700317382812500e+02,-3.823539614677429199e-02,8.529533386230468750e+01,7.364573329687118530e-02,6.276957988739013672e-01,5.438299655914306641e+00,9.916599310599849559e-07,2.094806283712387085e-01,-1.149105429649353027e+00,-2.296612962027211324e-07,-1.497851610183715820e-01,9.669392555952072144e-02,-7.495683193206787109e+00,5.000000000000000000e-01,-4.822780191898345947e-02,0.000000000000000000e+00
1.896134853363037109e+00,-2.472384490966796875e+02,2.069700317382812500e+02,2.069700317382812500e+02,-3.823539614677429199e-02,8.529533386230468750e+01,7.364573329687118530e-02,6.276957988739013672e-01,5.438299655914306641e+00,9.916599310599849559e-07,2.094806283712387085e-01,-1.149105429649353027e+00,-2.296612962027211324e-07,-1.497851610183715820e-01,9.669392555952072144e-02,-7.495683193206787109e+00,5.000000000000000000e-01,-4.822780191898345947e-02,0.000000000000000000e+00
1.896134853363037109e+00,-2.472384490966796875e+02,2.069700317382812500e+02,2.069700317382812500e+02,-3.823539614677429199e-02,8.529533386230468750e+01,7.364573329687118530e-02,6.276957988739013672e-01,5.438299655914306641e+00,9.916599310599849559e-07,2.094806283712387085e-01,-1.149105429649353027e+00,-2.296612962027211324e-07,-1.497851610183715820e-01,9.669392555952072144e-02,-7.495683193206787109e+00,5.000000000000000000e-01,-4.822780191898345947e-02,0.000000000000000000e+00
1.896134853363037109e+00,-2.472384490966796875e+02,2.069700317382812500e+02,2.069700317382812500e+02,-3.823539614677429199e-02,8.529533386230468750e+01,7.364573329687118530e-02,6.276957988739013672e-01,5.438299655914306641e+00,9.916599310599849559e-07,2.094806283712387085e-01,-1.149105429649353027e+00,-2.296612962027211324e-07,-1.497851610183715820e-01,9.669392555952072144e-02,-7.495683193206787109e+00,5.000000000000000000e-01,-4.822780191898345947e-02,0.000000000000000000e+00
1.896134853363037109e+00,-2.472384490966796875e+02,2.069700317382812500e+02,2.069700317382812500e+02,-3.823539614677429199e-02,8.529533386230468750e+01,7.364573329687118530e-02,6.276957988739013672e-01,5.438299655914306641e+00,9.916599310599849559e-07,2.094806283712387085e-01,-1.149105429649353027e+00,-2.296612962027211324e-07,-1.497851610183715820e-01,9.669392555952072144e-02,-7.495683193206787109e+00,5.000000000000000000e-01,-4.822780191898345947e-02,0.000000000000000000e+00
2.195794820785522461e+00,-2.470363159179687500e+02,2.084498138427734375e+02,2.084498138427734375e+02,6.884830072522163391e-03,8.295751190185546875e+01,1.036994680762290955e-01,9.635257720947265625e-01,5.690149784088134766e+00,2.469655555614735931e-06,1.396499395370483398e+00,4.167102813720703125e+00,7.420475594699382782e-05,5.804910063743591309e-01,-2.829169854521751404e-02,-8.425603866577148438e+00,1.000000000000000000e+00,-6.538522243499755859e-02,0.000000000000000000e+00
2.195794820785522461e+00,-2.470363159179687500e+02,2.084498138427734375e+02,2.084498138427734375e+02,6.884830072522163391e-03,8.295751190185546875e+01,1.036994680762290955e-01,9.635257720947265625e-01,5.690149784088134766e+00,2.469655555614735931e-06,1.396499395370483398e+00,4.167102813720703125e+00,7.420475594699382782e-05,5.804910063743591309e-01,-2.829169854521751404e-02,-8.425603866577148438e+00,1.000000000000000000e+00,-6.538522243499755859e-02,0.000000000000000000e+00
2.195794820785522461e+00,-2.470363159179687500e+02,2.084498138427734375e+02,2.084498138427734375e+02,6.884830072522163391e-03,8.295751190185546875e+01,1.036994680762290955e-01,9.635257720947265625e-01,5.690149784088134766e+00,2.469655555614735931e-06,1.396499395370483398e+00,4.167102813720703125e+00,7.420475594699382782e-05,5.804910063743591309e-01,-2.829169854521751404e-02,-8.425603866577148438e+00,1.000000000000000000e+00,-6.538522243499755859e-02,0.000000000000000000e+00
2.195794820785522461e+00,-2.470363159179687500e+02,2.084498138427734375e+02,2.084498138427734375e+02,6.884830072522163391e-03,8.295751190185546875e+01,1.036994680762290955e-01,9.635257720947265625e-01,5.690149784088134766e+00,2.469655555614735931e-06,1.396499395370483398e+00,4.167102813720703125e+00,7.420475594699382782e-05,5.804910063743591309e-01,-2.829169854521751404e-02,-8.425603866577148438e+00,1.000000000000000000e+00,-6.538522243499755859e-02,0.000000000000000000e+00
2.195794820785522461e+00,-2.470363159179687500e+02,2.084498138427734375e+02,2.084498138427734375e+02,6.884830072522163391e-03,8.295751190185546875e+01,1.036994680762290955e-01,9.635257720947265625e-01,5.690149784088134766e+00,2.469655555614735931e-06,1.396499395370483398e+00,4.167102813720703125e+00,7.420475594699382782e-05,5.804910063743591309e-01,-2.829169854521751404e-02,-8.425603866577148438e+00,1.000000000000000000e+00,-6.538522243499755859e-02,0.000000000000000000e+00
2.195794820785522461e+00,-2.470363159179687500e+02,2.084498138427734375e+02,2.084498138427734375e+02,6.884830072522163391e-03,8.295751190185546875e+01,1.036994680762290955e-01,9.635257720947265625e-01,5.690149784088134766e+00,2.469655555614735931e-06,1.396499395370483398e+00,4.167102813720703125e+00,7.420475594699382782e-05,5.804910063743591309e-01,-2.829169854521751404e-02,-8.425603866577148438e+00,1.000000000000000000e+00,-6.538522243499755859e-02,0.000000000000000000e+00
2.195794820785522461e+00,-2.470363159179687500e+02,2.084498138427734375e+02,2.084498138427734375e+02,6.884830072522163391e-03,8.295751190185546875e+01,1.036994680762290955e-01,9.635257720947265625e-01,5.690149784088134766e+00,2.469655555614735931e-06,1.396499395370483398e+00,4.167102813720703125e+00,7.420475594699382782e-05,5.804910063743591309e-01,-2.829169854521751404e-02,-8.425603866577148438e+00,1.000000000000000000e+00,-6.538522243499755859e-02,0.000000000000000000e+00
2.195794820785522461e+00,-2.470363159179687500e+02,2.084498138427734375e+02,2.084498138427734375e+02,6.884830072522163391e-03,8.295751190185546875e+01,1.036994680762290955e-01,9.635257720947265625e-01,5.690149784088134766e+00,2.469655555614735931e-06,1.396499395370483398e+00,4.167102813720703125e+00,7.420475594699382782e-05,5.804910063743591309e-01,-2.829169854521751404e-02,-8.425603866577148438e+00,1.000000000000000000e+00,-6.538522243499755859e-02,0.000000000000000000e+00
2.195794820785522461e+00,-2.470363159179687500e+02,2.084498138427734375e+02,2.084498138427734375e+02,6.884830072522163391e-03,8.295751190185546875e+01,1.036994680762290955e-01,9.635257720947265625e-01,5.690149784088134766e+00,2.469655555614735931e-06,1.396499395370483398e+00,4.167102813720703125e+00,7.420475594699382782e-05,5.804910063743591309e-01,-2.829169854521751404e-02,-8.425603866577148438e+00,1.000000000000000000e+00,-6.538522243499755859e-02,0.000000000000000000e+00
2.195794820785522461e+00,-2.470363159179687500e+02,2.084498138427734375e+02,2.084498138427734375e+02,6.884830072522163391e-03,8.295751190185546875e+01,1.036994680762290955e-01,9.635257720947265625e-01,5.690149784088134766e+00,2.469655555614735931e-06,1.396499395370483398e+00,4.167102813720703125e+00,7.420475594699382782e-05,5.804910063743591309e-01,-2.829169854521751404e-02,-8.425603866577148438e+00,1.000000000000000000e+00,-6.538522243499755859e-02,0.000000000000000000e+00
2.374083757400512695e+00,-2.469851684570312500e+02,2.087558135986328125e+02,2.087558135986328125e+02,3.447196260094642639e-02,8.242121124267578125e+01,1.324468404054641724e-01,1.120265126228332520e+00,5.810498714447021484e+00,-4.805880962521769106e-06,8.791311383247375488e-01,6.750218272209167480e-01,-4.080756116309203207e-05,4.810729920864105225e-01,-5.789865255355834961e-01,-1.078039646148681641e+01,5.000000000000000000e-01,-9.314084798097610474e-02,0.000000000000000000e+00
2.374083757400512695e+00,-2.469851684570312500e+02,2.087558135986328125e+02,2.087558135986328125e+02,3.447196260094642639e-02,8.242121124267578125e+01,1.324468404054641724e-01,1.120265126228332520e+00,5.810498714447021484e+00,-4.805880962521769106e-06,8.791311383247375488e-01,6.750218272209167480e-01,-4.080756116309203207e-05,4.810729920864105225e-01,-5.789865255355834961e-01,-1.078039646148681641e+01,5.000000000000000000e-01,-9.314084798097610474e-02,0.000000000000000000e+00
2.374083757400512695e+00,-2.469851684570312500e+02,2.087558135986328125e+02,2.087558135986328125e+02,3.447196260094642639e-02,8.242121124267578125e+01,1.324468404054641724e-01,1.120265126228332520e+00,5.810498714447021484e+00,-4.805880962521769106e-06,8.791311383247375488e-01,6.750218272209167480e-01,-4.080756116309203207e-05,4.810729920864105225e-01,-5.789865255355834961e-01,-1.078039646148681641e+01,5.000000000000000000e-01,-9.314084798097610474e-02,0.000000000000000000e+00
2.447860002517700195e+00,-2.468757934570312500e+02,2.093503875732421875e+02,2.093503875732421875e+02,7.778902351856231689e-02,8.127994537353515625e+01,1.478947550058364868e-01,1.284245371818542480e+00,6.028318881988525391e+00,-6.407623004633933306e-06,2.222670078277587891e+00,2.952443122863769531e+00,-2.171080996049568057e-05,3.884696066379547119e-01,-1.181896701455116272e-01,-1.164940738677978516e+01,5.000000000000000000e-01,-8.819863200187683105e-02,0.000000000000000000e+00
2.447860002517700195e+00,-2.468757934570312500e+02,2.093503875732421875e+02,2.093503875732421875e+02,7.778902351856231689e-02,8.127994537353515625e+01,1.478947550058364868e-01,1.284245371818542480e+00,6.028318881988525391e+00,-6.407623004633933306e-06,2.222670078277587891e+00,2.952443122863769531e+00,-2.171080996049568057e-05,3.884696066379547119e-01,-1.181896701455116272e-01,-1.164940738677978516e+01,5.000000000000000000e-01,-8.819863200187683105e-02,0.000000000000000000e+00
2.500878810882568359e+00,-2.467877655029296875e+02,2.097996826171875000e+02,2.097996826171875000e+02,9.220071882009506226e-02,8.047748565673828125e+01,1.332613527774810791e-01,1.339228153228759766e+00,6.098489284515380859e+00,-2.660358632056158967e-06,1.037042975425720215e+00,1.323500156402587891e+00,7.067801925586536527e-05,1.057778298854827881e-01,9.704973548650741577e-02,-1.059131240844726562e+01,5.000000000000000000e-01,-7.434310764074325562e-02,0.000000000000000000e+00
2.500878810882568359e+00,-2.467877655029296875e+02,2.097996826171875000e+02,2.097996826171875000e+02,9.220071882009506226e-02,8.047748565673828125e+01,1.332613527774810791e-01,1.339228153228759766e+00,6.098489284515380859e+00,-2.660358632056158967e-06,1.037042975425720215e+00,1.323500156402587891e+00,7.067801925586536527e-05,1.057778298854827881e-01,9.704973548650741577e-02,-1.059131240844726562e+01,5.000000000000000000e-01,-7.434310764074325562e-02,0.000000000000000000e+00
2.500878810882568359e+00,-2.467213745117187500e+02,2.101267700195312500e+02,2.101267700195312500e+02,9.555434435606002808e-02,7.995960235595703125e+01,1.205189228057861328e-01,1.371583700180053711e+00,6.162967205047607422e+00,-4.767739198996423511e-07,5.454717278480529785e-01,1.087012410163879395e+00,3.681234738905914128e-05,3.075566701591014862e-02,1.852271705865859985e-01,-9.478196144104003906e+00,5.000000000000000000e-01,-6.396898627281188965e-02,0.000000000000000000e+00
2.560195446014404297e+00,-2.467213745117187500e+02,2.101267700195312500e+02,2.101267700195312500e+02,9.555434435606002808e-02,7.995960235595703125e+01,1.205189228057861328e-01,1.371583700180053711e+00,6.162967205047607422e+00,-4.767739198996423511e-07,5.454717278480529785e-01,1.087012410163879395e+00,3.681234738905914128e-05,3.075566701591014862e-02,1.852271705865859985e-01,-9.478196144104003906e+00,5.000000000000000000e-01,-6.396898627281188965e-02,0.000000000000000000e+00
2.560195446014404297e+00,-2.467213745117187500e+02,2.101267700195312500e+02,2.101267700195312500e+02,9.555434435606002808e-02,7.995960235595703125e+01,1.205189228057861328e-01,1.371583700180053711e+00,6.162967205047607422e+00,-4.767739198996423511e-07,5.454717278480529785e-01,1.087012410163879395e+00,3.681234738905914128e-05,3.075566701591014862e-02,1.852271705865859985e-01,-9.478196144104003906e+00,5.000000000000000000e-01,-6.396898627281188965e-02,0.000000000000000000e+00
2.618730545043945312e+00,-2.466398925781250000e+02,2.104939270019531250e+02,2.104939270019531250e+02,9.168162196874618530e-02,7.929660797119140625e+01,1.524833589792251587e-01,1.539479136466979980e+00,6.161647319793701172e+00,-4.119262030144454911e-06,2.868286609649658203e+00,-2.254861220717430115e-02,-6.222741649253293872e-05,-2.226480990648269653e-01,-4.582558274269104004e-01,-1.195122146606445312e+01,5.000000000000000000e-01,-9.533909708261489868e-02,0.000000000000000000e+00
2.618730545043945312e+00,-2.466398925781250000e+02,2.104939270019531250e+02,2.104939270019531250e+02,9.168162196874618530e-02,7.929660797119140625e+01,1.524833589792251587e-01,1.539479136466979980e+00,6.161647319793701172e+00,-4.119262030144454911e-06,2.868286609649658203e+00,-2.254861220717430115e-02,-6.222741649253293872e-05,-2.226480990648269653e-01,-4.582558274269104004e-01,-1.195122146606445312e+01,5.000000000000000000e-01,-9.533909708261489868e-02,0.000000000000000000e+00
2.677334070205688477e+00,-2.465541687011718750e+02,2.108569946289062500e+02,2.108569946289062500e+02,8.347173780202865601e-02,7.858905792236328125e+01,1.609468162059783936e-01,1.619929790496826172e+00,6.170661926269531250e+00,-3.861815912387100980e-06,1.372795462608337402e+00,1.538236141204833984e-01,4.393014023662544787e-06,-2.033889144659042358e-01,-2.849462069571018219e-02,-1.223011493682861328e+01,5.000000000000000000e-01,-8.905868232250213623e-02,0.000000000000000000e+00
2.677334070205688477e+00,-2.465541687011718750e+02,2.108569946289062500e+02,2.108569946289062500e+02,8.347173780202865601e-02,7.858905792236328125e+01,1.609468162059783936e-01,1.619929790496826172e+00,6.170661926269531250e+00,-3.861815912387100980e-06,1.372795462608337402e+00,1.538236141204833984e-01,4.393014023662544787e-06,-2.033889144659042358e-01,-2.849462069571018219e-02,-1.223011493682861328e+01,5.000000000000000000e-01,-8.905868232250213623e-02,0.000000000000000000e+00
2.677334070205688477e+00,-2.465541687011718750e+02,2.108569946289062500e+02,2.108569946289062500e+02,8.347173780202865601e-02,7.858905792236328125e+01,1.609468162059783936e-01,1.619929790496826172e+00,6.170661926269531250e+00,-3.861815912387100980e-06,1.372795462608337402e+00,1.538236141204833984e-01,4.393014023662544787e-06,-2.033889144659042358e-01,-2.849462069571018219e-02,-1.223011493682861328e+01,5.000000000000000000e-01,-8.905868232250213623e-02,0.000000000000000000e+00
2.677334070205688477e+00,-2.465541687011718750e+02,2.108569946289062500e+02,2.108569946289062500e+02,8.347173780202865601e-02,7.858905792236328125e+01,1.609468162059783936e-01,1.619929790496826172e+00,6.170661926269531250e+00,-3.861815912387100980e-06,1.372795462608337402e+00,1.538236141204833984e-01,4.393014023662544787e-06,-2.033889144659042358e-01,-2.849462069571018219e-02,-1.223011493682861328e+01,5.000000000000000000e-01,-8.905868232250213623e-02,0.000000000000000000e+00
2.755024909973144531e+00,-2.464647064208984375e+02,2.112208709716796875e+02,2.112208709716796875e+02,7.289177179336547852e-02,7.790290832519531250e+01,1.536241471767425537e-01,1.671942234039306641e+00,6.173920631408691406e+00,7.818983362994913477e-07,6.694797277450561523e-01,4.194452241063117981e-02,5.977171167614869773e-05,-1.983718872070312500e-01,1.475954502820968628e-01,-1.159558296203613281e+01,5.000000000000000000e-01,-8.090613037347793579e-02,0.000000000000000000e+00
2.755024909973144531e+00,-2.464647064208984375e+02,2.112208709716796875e+02,2.112208709716796875e+02,7.289177179336547852e-02,7.790290832519531250e+01,1.536241471767425537e-01,1.671942234039306641e+00,6.173920631408691406e+00,7.818983362994913477e-07,6.694797277450561523e-01,4.194452241063117981e-02,5.977171167614869773e-05,-1.983718872070312500e-01,1.475954502820968628e-01,-1.159558296203613281e+01,5.000000000000000000e-01,-8.090613037347793579e-02,0.000000000000000000e+00
2.755024909973144531e+00,-2.464647064208984375e+02,2.112208709716796875e+02,2.112208709716796875e+02,7.289177179336547852e-02,7.790290832519531250e+01,1.536241471767425537e-01,1.671942234039306641e+00,6.173920631408691406e+00,7.818983362994913477e-07,6.694797277450561523e-01,4.194452241063117981e-02,5.977171167614869773e-05,-1.983718872070312500e-01,1.475954502820968628e-01,-1.159558296203613281e+01,5.000000000000000000e-01,-8.090613037347793579e-02,0.000000000000000000e+00
2.830169916152954102e+00,-2.463412628173828125e+02,2.117031250000000000e+02,2.117031250000000000e+02,5.768777430057525635e-02,7.707099151611328125e+01,1.388830244541168213e-01,1.733442783355712891e+00,6.189177036285400391e+00,5.368352049117675051e-06,8.184249401092529297e-01,2.030261904001235962e-01,6.103470514062792063e-05,-1.359005123376846313e-01,1.369673460721969604e-01,-1.029389286041259766e+01,5.000000000000000000e-01,-7.255161553621292114e-02,0.000000000000000000e+00
2.830169916152954102e+00,-2.463412628173828125e+02,2.117031250000000000e+02,2.117031250000000000e+02,5.768777430057525635e-02,7.707099151611328125e+01,1.388830244541168213e-01,1.733442783355712891e+00,6.189177036285400391e+00,5.368352049117675051e-06,8.184249401092529297e-01,2.030261904001235962e-01,6.103470514062792063e-05,-1.359005123376846313e-01,1.369673460721969604e-01,-1.029389286041259766e+01,5.000000000000000000e-01,-7.255161553621292114e-02,0.000000000000000000e+00
2.830169916152954102e+00,-2.463412628173828125e+02,2.117031250000000000e+02,2.117031250000000000e+02,5.768777430057525635e-02,7.707099151611328125e+01,1.388830244541168213e-01,1.733442783355712891e+00,6.189177036285400391e+00,5.368352049117675051e-06,8.184249401092529297e-01,2.030261904001235962e-01,6.103470514062792063e-05,-1.359005123376846313e-01,1.369673460721969604e-01,-1.029389286041259766e+01,5.000000000000000000e-01,-7.255161553621292114e-02,0.000000000000000000e+00
2.830169916152954102e+00,-2.463412628173828125e+02,2.117031250000000000e+02,2.117031250000000000e+02,5.768777430057525635e-02,7.707099151611328125e+01,1.388830244541168213e-01,1.733442783355712891e+00,6.189177036285400391e+00,5.368352049117675051e-06,8.184249401092529297e-01,2.030261904001235962e-01,6.103470514062792063e-05,-1.359005123376846313e-01,1.369673460721969604e-01,-1.029389286041259766e+01,5.000000000000000000e-01,-7.255161553621292114e-02,0.000000000000000000e+00
2.830169916152954102e+00,-2.463412628173828125e+02,2.117031250000000000e+02,2.117031250000000000e+02,5.768777430057525635e-02,7.707099151611328125e+01,1.388830244541168213e-01,1.733442783355712891e+00,6.189177036285400391e+00,5.368352049117675051e-06,8.184249401092529297e-01,2.030261904001235962e-01,6.103470514062792063e-05,-1.359005123376846313e-01,1.369673460721969604e-01,-1.029389286041259766e+01,5.000000000000000000e-01,-7.255161553621292114e-02,0.000000000000000000e+00
2.917726278305053711e+00,-2.462178039550781250e+02,2.121677856445312500e+02,2.121677856445312500e+02,4.188954830169677734e-02,7.635665893554687500e+01,1.220678687095642090e-01,1.761223673820495605e+00,6.141063213348388672e+00,4.348101356299594045e-06,3.172914981842041016e-01,-5.495182871818542480e-01,-1.165250159829156473e-05,-2.012312859296798706e-01,1.821957379579544067e-01,-9.304127693176269531e+00,5.000000000000000000e-01,-6.221574917435646057e-02,0.000000000000000000e+00
