# Time,X,Y,Z,Roll,Pitch,Yaw,Vx,Vy,Vz,Ax,Ay,Az,Wx,Wy,Wz,Throttle,Steer,Brake
0.000000000000000000e+00,6.421090698242187500e+02,3.229056119918823242e+00,3.229056119918823242e+00,9.047268331050872803e-02,-1.351595153808593750e+02,-6.568090438842773438e+00,-1.033419513702392578e+01,-1.126838016510009766e+01,1.566941733472049236e-03,-4.091399192810058594e+00,5.448706150054931641e+00,2.528592571616172791e-02,-4.716722011566162109e+00,-6.958591938018798828e-01,-1.697102928161621094e+01,5.000000000000000000e-01,-3.022511862218379974e-02,0.000000000000000000e+00
1.045818328857421875e-01,6.421090698242187500e+02,3.229056119918823242e+00,3.229056119918823242e+00,9.047268331050872803e-02,-1.351595153808593750e+02,-6.568090438842773438e+00,-1.033419513702392578e+01,-1.126838016510009766e+01,1.566941733472049236e-03,-4.091399192810058594e+00,5.448706150054931641e+00,2.528592571616172791e-02,-4.716722011566162109e+00,-6.958591938018798828e-01,-1.697102928161621094e+01,5.000000000000000000e-01,-3.022511862218379974e-02,0.000000000000000000e+00
1.045818328857421875e-01,6.421090698242187500e+02,3.229056119918823242e+00,3.229056119918823242e+00,9.047268331050872803e-02,-1.351595153808593750e+02,-6.568090438842773438e+00,-1.033419513702392578e+01,-1.126838016510009766e+01,1.566941733472049236e-03,-4.091399192810058594e+00,5.448706150054931641e+00,2.528592571616172791e-02,-4.716722011566162109e+00,-6.958591938018798828e-01,-1.697102928161621094e+01,5.000000000000000000e-01,-3.022511862218379974e-02,0.000000000000000000e+00
1.045818328857421875e-01,6.421090698242187500e+02,3.229056119918823242e+00,3.229056119918823242e+00,9.047268331050872803e-02,-1.351595153808593750e+02,-6.568090438842773438e+00,-1.033419513702392578e+01,-1.126838016510009766e+01,1.566941733472049236e-03,-4.091399192810058594e+00,5.448706150054931641e+00,2.528592571616172791e-02,-4.716722011566162109e+00,-6.958591938018798828e-01,-1.697102928161621094e+01,5.000000000000000000e-01,-3.022511862218379974e-02,0.000000000000000000e+00
1.045818328857421875e-01,6.421090698242187500e+02,3.229056119918823242e+00,3.229056119918823242e+00,9.047268331050872803e-02,-1.351595153808593750e+02,-6.568090438842773438e+00,-1.033419513702392578e+01,-1.126838016510009766e+01,1.566941733472049236e-03,-4.091399192810058594e+00,5.448706150054931641e+00,2.528592571616172791e-02,-4.716722011566162109e+00,-6.958591938018798828e-01,-1.697102928161621094e+01,5.000000000000000000e-01,-3.022511862218379974e-02,0.000000000000000000e+00
1.045818328857421875e-01,6.421090698242187500e+02,3.229056119918823242e+00,3.229056119918823242e+00,9.047268331050872803e-02,-1.351595153808593750e+02,-6.568090438842773438e+00,-1.033419513702392578e+01,-1.126838016510009766e+01,1.566941733472049236e-03,-4.091399192810058594e+00,5.448706150054931641e+00,2.528592571616172791e-02,-4.716722011566162109e+00,-6.958591938018798828e-01,-1.697102928161621094e+01,5.000000000000000000e-01,-3.022511862218379974e-02,0.000000000000000000e+00
1.045818328857421875e-01,6.410550537109375000e+02,2.135236978530883789e+00,2.135236978530883789e+00,4.779083281755447388e-02,-1.356163177490234375e+02,-6.204014778137207031e+00,-1.058349418640136719e+01,-1.080579090118408203e+01,-1.501700840890407562e-02,-2.380877017974853516e+00,4.417859554290771484e+00,-1.583814471960067749e-01,9.194827079772949219e+00,4.964932918548583984e+00,8.846028447151184082e-01,5.000000000000000000e-01,2.778879739344120026e-02,0.000000000000000000e+00
2.092907428741455078e-01,6.410550537109375000e+02,2.135236978530883789e+00,2.135236978530883789e+00,4.779083281755447388e-02,-1.356163177490234375e+02,-6.204014778137207031e+00,-1.058349418640136719e+01,-1.080579090118408203e+01,-1.501700840890407562e-02,-2.380877017974853516e+00,4.417859554290771484e+00,-1.583814471960067749e-01,9.194827079772949219e+00,4.964932918548583984e+00,8.846028447151184082e-01,5.000000000000000000e-01,2.778879739344120026e-02,0.000000000000000000e+00
2.092907428741455078e-01,6.410550537109375000e+02,2.135236978530883789e+00,2.135236978530883789e+00,4.779083281755447388e-02,-1.356163177490234375e+02,-6.204014778137207031e+00,-1.058349418640136719e+01,-1.080579090118408203e+01,-1.501700840890407562e-02,-2.380877017974853516e+00,4.417859554290771484e+00,-1.583814471960067749e-01,9.194827079772949219e+00,4.964932918548583984e+00,8.846028447151184082e-01,5.000000000000000000e-01,2.778879739344120026e-02,0.000000000000000000e+00
2.092907428741455078e-01,6.410550537109375000e+02,2.135236978530883789e+00,2.135236978530883789e+00,4.779083281755447388e-02,-1.356163177490234375e+02,-6.204014778137207031e+00,-1.058349418640136719e+01,-1.080579090118408203e+01,-1.501700840890407562e-02,-2.380877017974853516e+00,4.417859554290771484e+00,-1.583814471960067749e-01,9.194827079772949219e+00,4.964932918548583984e+00,8.846028447151184082e-01,5.000000000000000000e-01,2.778879739344120026e-02,0.000000000000000000e+00
2.092907428741455078e-01,6.410550537109375000e+02,2.135236978530883789e+00,2.135236978530883789e+00,4.779083281755447388e-02,-1.356163177490234375e+02,-6.204014778137207031e+00,-1.058349418640136719e+01,-1.080579090118408203e+01,-1.501700840890407562e-02,-2.380877017974853516e+00,4.417859554290771484e+00,-1.583814471960067749e-01,9.194827079772949219e+00,4.964932918548583984e+00,8.846028447151184082e-01,5.000000000000000000e-01,2.778879739344120026e-02,0.000000000000000000e+00
2.092907428741455078e-01,6.399915771484375000e+02,1.082173824310302734e+00,1.082173824310302734e+00,2.390566095709800720e-02,-1.358758087158203125e+02,-4.632570266723632812e+00,-1.049881839752197266e+01,-1.041748046875000000e+01,2.814395993482321501e-04,1.134781599044799805e+00,5.203937530517578125e+00,2.050219625234603882e-01,9.656784057617187500e+00,1.225235939025878906e+01,-4.086450099945068359e+00,5.000000000000000000e-01,-3.315887600183486938e-02,0.000000000000000000e+00
2.839093208312988281e-01,6.399915771484375000e+02,1.082173824310302734e+00,1.082173824310302734e+00,2.390566095709800720e-02,-1.358758087158203125e+02,-4.632570266723632812e+00,-1.049881839752197266e+01,-1.041748046875000000e+01,2.814395993482321501e-04,1.134781599044799805e+00,5.203937530517578125e+00,2.050219625234603882e-01,9.656784057617187500e+00,1.225235939025878906e+01,-4.086450099945068359e+00,5.000000000000000000e-01,-3.315887600183486938e-02,0.000000000000000000e+00
2.839093208312988281e-01,6.399915771484375000e+02,1.082173824310302734e+00,1.082173824310302734e+00,2.390566095709800720e-02,-1.358758087158203125e+02,-4.632570266723632812e+00,-1.049881839752197266e+01,-1.041748046875000000e+01,2.814395993482321501e-04,1.134781599044799805e+00,5.203937530517578125e+00,2.050219625234603882e-01,9.656784057617187500e+00,1.225235939025878906e+01,-4.086450099945068359e+00,5.000000000000000000e-01,-3.315887600183486938e-02,0.000000000000000000e+00
2.839093208312988281e-01,6.399915771484375000e+02,1.082173824310302734e+00,1.082173824310302734e+00,2.390566095709800720e-02,-1.358758087158203125e+02,-4.632570266723632812e+00,-1.049881839752197266e+01,-1.041748046875000000e+01,2.814395993482321501e-04,1.134781599044799805e+00,5.203937530517578125e+00,2.050219625234603882e-01,9.656784057617187500e+00,1.225235939025878906e+01,-4.086450099945068359e+00,5.000000000000000000e-01,-3.315887600183486938e-02,0.000000000000000000e+00
2.839093208312988281e-01,6.399915771484375000e+02,1.082173824310302734e+00,1.082173824310302734e+00,2.390566095709800720e-02,-1.358758087158203125e+02,-4.632570266723632812e+00,-1.049881839752197266e+01,-1.041748046875000000e+01,2.814395993482321501e-04,1.134781599044799805e+00,5.203937530517578125e+00,2.050219625234603882e-01,9.656784057617187500e+00,1.225235939025878906e+01,-4.086450099945068359e+00,5.000000000000000000e-01,-3.315887600183486938e-02,0.000000000000000000e+00
3.569011688232421875e-01,6.392042236328125000e+02,3.287477791309356689e-01,3.287477791309356689e-01,2.331826388835906982e-01,-1.368843231201171875e+02,-3.674896478652954102e+00,-1.038675022125244141e+01,-1.005288696289062500e+01,4.467001650482416153e-03,1.535351991653442383e+00,4.994989395141601562e+00,5.734286829829216003e-02,5.689752101898193359e+00,9.568346977233886719e+00,-1.867620277404785156e+01,5.000000000000000000e-01,-1.183634474873542786e-01,0.000000000000000000e+00
3.569011688232421875e-01,6.392042236328125000e+02,3.287477791309356689e-01,3.287477791309356689e-01,2.331826388835906982e-01,-1.368843231201171875e+02,-3.674896478652954102e+00,-1.038675022125244141e+01,-1.005288696289062500e+01,4.467001650482416153e-03,1.535351991653442383e+00,4.994989395141601562e+00,5.734286829829216003e-02,5.689752101898193359e+00,9.568346977233886719e+00,-1.867620277404785156e+01,5.000000000000000000e-01,-1.183634474873542786e-01,0.000000000000000000e+00
3.569011688232421875e-01,6.392042236328125000e+02,3.287477791309356689e-01,3.287477791309356689e-01,2.331826388835906982e-01,-1.368843231201171875e+02,-3.674896478652954102e+00,-1.038675022125244141e+01,-1.005288696289062500e+01,4.467001650482416153e-03,1.535351991653442383e+00,4.994989395141601562e+00,5.734286829829216003e-02,5.689752101898193359e+00,9.568346977233886719e+00,-1.867620277404785156e+01,5.000000000000000000e-01,-1.183634474873542786e-01,0.000000000000000000e+00
3.569011688232421875e-01,6.392042236328125000e+02,3.287477791309356689e-01,3.287477791309356689e-01,2.331826388835906982e-01,-1.368843231201171875e+02,-3.674896478652954102e+00,-1.038675022125244141e+01,-1.005288696289062500e+01,4.467001650482416153e-03,1.535351991653442383e+00,4.994989395141601562e+00,5.734286829829216003e-02,5.689752101898193359e+00,9.568346977233886719e+00,-1.867620277404785156e+01,5.000000000000000000e-01,-1.183634474873542786e-01,0.000000000000000000e+00
4.765405654907226562e-01,6.384369506835937500e+02,-3.763835132122039795e-01,-3.763835132122039795e-01,4.488526880741119385e-01,-1.385364685058593750e+02,-3.225128173828125000e+00,-1.035242271423339844e+01,-9.619986534118652344e+00,3.635781584307551384e-03,2.869247794151306152e-01,3.618376970291137695e+00,-6.947712041437625885e-03,2.671288847923278809e-01,3.974483966827392578e+00,-2.443729400634765625e+01,5.000000000000000000e-01,-1.247411072254180908e-01,0.000000000000000000e+00
4.765405654907226562e-01,6.384369506835937500e+02,-3.763835132122039795e-01,-3.763835132122039795e-01,4.488526880741119385e-01,-1.385364685058593750e+02,-3.225128173828125000e+00,-1.035242271423339844e+01,-9.619986534118652344e+00,3.635781584307551384e-03,2.869247794151306152e-01,3.618376970291137695e+00,-6.947712041437625885e-03,2.671288847923278809e-01,3.974483966827392578e+00,-2.443729400634765625e+01,5.000000000000000000e-01,-1.247411072254180908e-01,0.000000000000000000e+00
4.765405654907226562e-01,6.384369506835937500e+02,-3.763835132122039795e-01,-3.763835132122039795e-01,4.488526880741119385e-01,-1.385364685058593750e+02,-3.225128173828125000e+00,-1.035242271423339844e+01,-9.619986534118652344e+00,3.635781584307551384e-03,2.869247794151306152e-01,3.618376970291137695e+00,-6.947712041437625885e-03,2.671288847923278809e-01,3.974483966827392578e+00,-2.443729400634765625e+01,5.000000000000000000e-01,-1.247411072254180908e-01,0.000000000000000000e+00
4.765405654907226562e-01,6.384369506835937500e+02,-3.763835132122039795e-01,-3.763835132122039795e-01,4.488526880741119385e-01,-1.385364685058593750e+02,-3.225128173828125000e+00,-1.035242271423339844e+01,-9.619986534118652344e+00,3.635781584307551384e-03,2.869247794151306152e-01,3.618376970291137695e+00,-6.947712041437625885e-03,2.671288847923278809e-01,3.974483966827392578e+00,-2.443729400634765625e+01,5.000000000000000000e-01,-1.247411072254180908e-01,0.000000000000000000e+00
4.765405654907226562e-01,6.384369506835937500e+02,-3.763835132122039795e-01,-3.763835132122039795e-01,4.488526880741119385e-01,-1.385364685058593750e+02,-3.225128173828125000e+00,-1.035242271423339844e+01,-9.619986534118652344e+00,3.635781584307551384e-03,2.869247794151306152e-01,3.618376970291137695e+00,-6.947712041437625885e-03,2.671288847923278809e-01,3.974483966827392578e+00,-2.443729400634765625e+01,5.000000000000000000e-01,-1.247411072254180908e-01,0.000000000000000000e+00
4.765405654907226562e-01,6.384369506835937500e+02,-3.763835132122039795e-01,-3.763835132122039795e-01,4.488526880741119385e-01,-1.385364685058593750e+02,-3.225128173828125000e+00,-1.035242271423339844e+01,-9.619986534118652344e+00,3.635781584307551384e-03,2.869247794151306152e-01,3.618376970291137695e+00,-6.947712041437625885e-03,2.671288847923278809e-01,3.974483966827392578e+00,-2.443729400634765625e+01,5.000000000000000000e-01,-1.247411072254180908e-01,0.000000000000000000e+00
4.765405654907226562e-01,6.384369506835937500e+02,-3.763835132122039795e-01,-3.763835132122039795e-01,4.488526880741119385e-01,-1.385364685058593750e+02,-3.225128173828125000e+00,-1.035242271423339844e+01,-9.619986534118652344e+00,3.635781584307551384e-03,2.869247794151306152e-01,3.618376970291137695e+00,-6.947712041437625885e-03,2.671288847923278809e-01,3.974483966827392578e+00,-2.443729400634765625e+01,5.000000000000000000e-01,-1.247411072254180908e-01,0.000000000000000000e+00
6.200885772705078125e-01,6.373818359375000000e+02,-1.284814476966857910e+00,-1.284814476966857910e+00,3.059651255607604980e-01,-1.413374786376953125e+02,-3.438140869140625000e+00,-1.045666217803955078e+01,-8.941135406494140625e+00,-7.791917771100997925e-03,-7.261644601821899414e-01,4.729087829589843750e+00,-7.960890233516693115e-02,-5.261567592620849609e+00,-4.526652336120605469e+00,-3.036052322387695312e+01,5.000000000000000000e-01,-1.507929414510726929e-01,0.000000000000000000e+00
6.200885772705078125e-01,6.373818359375000000e+02,-1.284814476966857910e+00,-1.284814476966857910e+00,3.059651255607604980e-01,-1.413374786376953125e+02,-3.438140869140625000e+00,-1.045666217803955078e+01,-8.941135406494140625e+00,-7.791917771100997925e-03,-7.261644601821899414e-01,4.729087829589843750e+00,-7.960890233516693115e-02,-5.261567592620849609e+00,-4.526652336120605469e+00,-3.036052322387695312e+01,5.000000000000000000e-01,-1.507929414510726929e-01,0.000000000000000000e+00
6.200885772705078125e-01,6.373818359375000000e+02,-1.284814476966857910e+00,-1.284814476966857910e+00,3.059651255607604980e-01,-1.413374786376953125e+02,-3.438140869140625000e+00,-1.045666217803955078e+01,-8.941135406494140625e+00,-7.791917771100997925e-03,-7.261644601821899414e-01,4.729087829589843750e+00,-7.960890233516693115e-02,-5.261567592620849609e+00,-4.526652336120605469e+00,-3.036052322387695312e+01,5.000000000000000000e-01,-1.507929414510726929e-01,0.000000000000000000e+00
6.200885772705078125e-01,6.373818359375000000e+02,-1.284814476966857910e+00,-1.284814476966857910e+00,3.059651255607604980e-01,-1.413374786376953125e+02,-3.438140869140625000e+00,-1.045666217803955078e+01,-8.941135406494140625e+00,-7.791917771100997925e-03,-7.261644601821899414e-01,4.729087829589843750e+00,-7.960890233516693115e-02,-5.261567592620849609e+00,-4.526652336120605469e+00,-3.036052322387695312e+01,5.000000000000000000e-01,-1.507929414510726929e-01,0.000000000000000000e+00
6.200885772705078125e-01,6.373818359375000000e+02,-1.284814476966857910e+00,-1.284814476966857910e+00,3.059651255607604980e-01,-1.413374786376953125e+02,-3.438140869140625000e+00,-1.045666217803955078e+01,-8.941135406494140625e+00,-7.791917771100997925e-03,-7.261644601821899414e-01,4.729087829589843750e+00,-7.960890233516693115e-02,-5.261567592620849609e+00,-4.526652336120605469e+00,-3.036052322387695312e+01,5.000000000000000000e-01,-1.507929414510726929e-01,0.000000000000000000e+00
6.200885772705078125e-01,6.373818359375000000e+02,-1.284814476966857910e+00,-1.284814476966857910e+00,3.059651255607604980e-01,-1.413374786376953125e+02,-3.438140869140625000e+00,-1.045666217803955078e+01,-8.941135406494140625e+00,-7.791917771100997925e-03,-7.261644601821899414e-01,4.729087829589843750e+00,-7.960890233516693115e-02,-5.261567592620849609e+00,-4.526652336120605469e+00,-3.036052322387695312e+01,5.000000000000000000e-01,-1.507929414510726929e-01,0.000000000000000000e+00
7.946169376373291016e-01,6.363181762695312500e+02,-2.123383998870849609e+00,-2.123383998870849609e+00,2.193651795387268066e-01,-1.440434570312500000e+02,-4.593843460083007812e+00,-1.064272880554199219e+01,-8.247349739074707031e+00,-2.293205447494983673e-02,-1.066111087799072266e+00,3.975203037261962891e+00,-8.674886077642440796e-02,-5.835186004638671875e+00,-1.219267940521240234e+01,-2.403487396240234375e+01,1.000000000000000000e+00,-1.090098097920417786e-01,0.000000000000000000e+00
7.946169376373291016e-01,6.363181762695312500e+02,-2.123383998870849609e+00,-2.123383998870849609e+00,2.193651795387268066e-01,-1.440434570312500000e+02,-4.593843460083007812e+00,-1.064272880554199219e+01,-8.247349739074707031e+00,-2.293205447494983673e-02,-1.066111087799072266e+00,3.975203037261962891e+00,-8.674886077642440796e-02,-5.835186004638671875e+00,-1.219267940521240234e+01,-2.403487396240234375e+01,1.000000000000000000e+00,-1.090098097920417786e-01,0.000000000000000000e+00
7.946169376373291016e-01,6.363181762695312500e+02,-2.123383998870849609e+00,-2.123383998870849609e+00,2.193651795387268066e-01,-1.440434570312500000e+02,-4.593843460083007812e+00,-1.064272880554199219e+01,-8.247349739074707031e+00,-2.293205447494983673e-02,-1.066111087799072266e+00,3.975203037261962891e+00,-8.674886077642440796e-02,-5.835186004638671875e+00,-1.219267940521240234e+01,-2.403487396240234375e+01,1.000000000000000000e+00,-1.090098097920417786e-01,0.000000000000000000e+00
8.783230781555175781e-01,6.352130737304687500e+02,-2.909815311431884766e+00,-2.909815311431884766e+00,7.394362241029739380e-02,-1.467611694335937500e+02,-5.847476482391357422e+00,-1.120315265655517578e+01,-7.833026409149169922e+00,1.430222205817699432e-02,-6.695134639739990234e+00,4.949736595153808594e+00,4.448213279247283936e-01,-1.013211441040039062e+01,-5.784700393676757812e+00,-2.680237197875976562e+01,1.000000000000000000e+00,-9.080810844898223877e-02,0.000000000000000000e+00
8.783230781555175781e-01,6.352130737304687500e+02,-2.909815311431884766e+00,-2.909815311431884766e+00,7.394362241029739380e-02,-1.467611694335937500e+02,-5.847476482391357422e+00,-1.120315265655517578e+01,-7.833026409149169922e+00,1.430222205817699432e-02,-6.695134639739990234e+00,4.949736595153808594e+00,4.448213279247283936e-01,-1.013211441040039062e+01,-5.784700393676757812e+00,-2.680237197875976562e+01,1.000000000000000000e+00,-9.080810844898223877e-02,0.000000000000000000e+00
8.783230781555175781e-01,6.352130737304687500e+02,-2.909815311431884766e+00,-2.909815311431884766e+00,7.394362241029739380e-02,-1.467611694335937500e+02,-5.847476482391357422e+00,-1.120315265655517578e+01,-7.833026409149169922e+00,1.430222205817699432e-02,-6.695134639739990234e+00,4.949736595153808594e+00,4.448213279247283936e-01,-1.013211441040039062e+01,-5.784700393676757812e+00,-2.680237197875976562e+01,1.000000000000000000e+00,-9.080810844898223877e-02,0.000000000000000000e+00
9.483780860900878906e-01,6.342548828125000000e+02,-3.543154716491699219e+00,-3.543154716491699219e+00,5.738724768161773682e-02,-1.479693145751953125e+02,-6.044651985168457031e+00,-1.149731254577636719e+01,-7.534596920013427734e+00,-2.970748115330934525e-03,-4.198984622955322266e+00,4.259931087493896484e+00,-2.465629577636718750e-01,4.441470146179199219e+00,-7.229374647140502930e-01,-8.741306304931640625e+00,1.000000000000000000e+00,-6.493021547794342041e-02,0.000000000000000000e+00
9.483780860900878906e-01,6.342548828125000000e+02,-3.543154716491699219e+00,-3.543154716491699219e+00,5.738724768161773682e-02,-1.479693145751953125e+02,-6.044651985168457031e+00,-1.149731254577636719e+01,-7.534596920013427734e+00,-2.970748115330934525e-03,-4.198984622955322266e+00,4.259931087493896484e+00,-2.465629577636718750e-01,4.441470146179199219e+00,-7.229374647140502930e-01,-8.741306304931640625e+00,1.000000000000000000e+00,-6.493021547794342041e-02,0.000000000000000000e+00
9.483780860900878906e-01,6.342548828125000000e+02,-3.543154716491699219e+00,-3.543154716491699219e+00,5.738724768161773682e-02,-1.479693145751953125e+02,-6.044651985168457031e+00,-1.149731254577636719e+01,-7.534596920013427734e+00,-2.970748115330934525e-03,-4.198984622955322266e+00,4.259931087493896484e+00,-2.465629577636718750e-01,4.441470146179199219e+00,-7.229374647140502930e-01,-8.741306304931640625e+00,1.000000000000000000e+00,-6.493021547794342041e-02,0.000000000000000000e+00
9.483780860900878906e-01,6.342548828125000000e+02,-3.543154716491699219e+00,-3.543154716491699219e+00,5.738724768161773682e-02,-1.479693145751953125e+02,-6.044651985168457031e+00,-1.149731254577636719e+01,-7.534596920013427734e+00,-2.970748115330934525e-03,-4.198984622955322266e+00,4.259931087493896484e+00,-2.465629577636718750e-01,4.441470146179199219e+00,-7.229374647140502930e-01,-8.741306304931640625e+00,1.000000000000000000e+00,-6.493021547794342041e-02,0.000000000000000000e+00
9.483780860900878906e-01,6.334396972656250000e+02,-4.056224346160888672e+00,-4.056224346160888672e+00,-4.971011355519294739e-02,-1.486286163330078125e+02,-5.302553176879882812e+00,-1.163473224639892578e+01,-7.372305870056152344e+00,1.837520510889589787e-03,-1.743926763534545898e+00,2.059556961059570312e+00,6.101940199732780457e-02,1.111786651611328125e+01,4.166245460510253906e+00,-1.360295963287353516e+01,1.000000000000000000e+00,-4.769337922334671021e-02,0.000000000000000000e+00
1.027177095413208008e+00,6.334396972656250000e+02,-4.056224346160888672e+00,-4.056224346160888672e+00,-4.971011355519294739e-02,-1.486286163330078125e+02,-5.302553176879882812e+00,-1.163473224639892578e+01,-7.372305870056152344e+00,1.837520510889589787e-03,-1.743926763534545898e+00,2.059556961059570312e+00,6.101940199732780457e-02,1.111786651611328125e+01,4.166245460510253906e+00,-1.360295963287353516e+01,1.000000000000000000e+00,-4.769337922334671021e-02,0.000000000000000000e+00
1.027177095413208008e+00,6.334396972656250000e+02,-4.056224346160888672e+00,-4.056224346160888672e+00,-4.971011355519294739e-02,-1.486286163330078125e+02,-5.302553176879882812e+00,-1.163473224639892578e+01,-7.372305870056152344e+00,1.837520510889589787e-03,-1.743926763534545898e+00,2.059556961059570312e+00,6.101940199732780457e-02,1.111786651611328125e+01,4.166245460510253906e+00,-1.360295963287353516e+01,1.000000000000000000e+00,-4.769337922334671021e-02,0.000000000000000000e+00
1.095043420791625977e+00,6.325031738281250000e+02,-4.609684467315673828e+00,-4.609684467315673828e+00,-1.896675080060958862e-01,-1.506537475585937500e+02,-4.653384685516357422e+00,-1.182720661163330078e+01,-7.093398094177246094e+00,3.818815806880593300e-03,-2.836080551147460938e+00,4.109663486480712891e+00,2.919408306479454041e-02,4.846106052398681641e+00,1.961864113807678223e+00,-2.914818572998046875e+01,1.000000000000000000e+00,-9.996795654296875000e-02,0.000000000000000000e+00
1.095043420791625977e+00,6.325031738281250000e+02,-4.609684467315673828e+00,-4.609684467315673828e+00,-1.896675080060958862e-01,-1.506537475585937500e+02,-4.653384685516357422e+00,-1.182720661163330078e+01,-7.093398094177246094e+00,3.818815806880593300e-03,-2.836080551147460938e+00,4.109663486480712891e+00,2.919408306479454041e-02,4.846106052398681641e+00,1.961864113807678223e+00,-2.914818572998046875e+01,1.000000000000000000e+00,-9.996795654296875000e-02,0.000000000000000000e+00
1.095043420791625977e+00,6.325031738281250000e+02,-4.609684467315673828e+00,-4.609684467315673828e+00,-1.896675080060958862e-01,-1.506537475585937500e+02,-4.653384685516357422e+00,-1.182720661163330078e+01,-7.093398094177246094e+00,3.818815806880593300e-03,-2.836080551147460938e+00,4.109663486480712891e+00,2.919408306479454041e-02,4.846106052398681641e+00,1.961864113807678223e+00,-2.914818572998046875e+01,1.000000000000000000e+00,-9.996795654296875000e-02,0.000000000000000000e+00
1.095043420791625977e+00,6.325031738281250000e+02,-4.609684467315673828e+00,-4.609684467315673828e+00,-1.896675080060958862e-01,-1.506537475585937500e+02,-4.653384685516357422e+00,-1.182720661163330078e+01,-7.093398094177246094e+00,3.818815806880593300e-03,-2.836080551147460938e+00,4.109663486480712891e+00,2.919408306479454041e-02,4.846106052398681641e+00,1.961864113807678223e+00,-2.914818572998046875e+01,1.000000000000000000e+00,-9.996795654296875000e-02,0.000000000000000000e+00
1.168572425842285156e+00,6.316891479492187500e+02,-5.065828323364257812e+00,-5.065828323364257812e+00,-1.602498888969421387e-01,-1.522791137695312500e+02,-4.562257766723632812e+00,-1.193906688690185547e+01,-6.740862846374511719e+00,3.398233558982610703e-03,-1.521308064460754395e+00,4.794505596160888672e+00,-5.719949956983327866e-03,-1.419161081314086914e+00,1.696116179227828979e-01,-2.205086326599121094e+01,1.000000000000000000e+00,-5.713602527976036072e-02,0.000000000000000000e+00
1.168572425842285156e+00,6.316891479492187500e+02,-5.065828323364257812e+00,-5.065828323364257812e+00,-1.602498888969421387e-01,-1.522791137695312500e+02,-4.562257766723632812e+00,-1.193906688690185547e+01,-6.740862846374511719e+00,3.398233558982610703e-03,-1.521308064460754395e+00,4.794505596160888672e+00,-5.719949956983327866e-03,-1.419161081314086914e+00,1.696116179227828979e-01,-2.205086326599121094e+01,1.000000000000000000e+00,-5.713602527976036072e-02,0.000000000000000000e+00
1.168572425842285156e+00,6.316891479492187500e+02,-5.065828323364257812e+00,-5.065828323364257812e+00,-1.602498888969421387e-01,-1.522791137695312500e+02,-4.562257766723632812e+00,-1.193906688690185547e+01,-6.740862846374511719e+00,3.398233558982610703e-03,-1.521308064460754395e+00,4.794505596160888672e+00,-5.719949956983327866e-03,-1.419161081314086914e+00,1.696116179227828979e-01,-2.205086326599121094e+01,1.000000000000000000e+00,-5.713602527976036072e-02,0.000000000000000000e+00
1.168572425842285156e+00,6.316891479492187500e+02,-5.065828323364257812e+00,-5.065828323364257812e+00,-1.602498888969421387e-01,-1.522791137695312500e+02,-4.562257766723632812e+00,-1.193906688690185547e+01,-6.740862846374511719e+00,3.398233558982610703e-03,-1.521308064460754395e+00,4.794505596160888672e+00,-5.719949956983327866e-03,-1.419161081314086914e+00,1.696116179227828979e-01,-2.205086326599121094e+01,1.000000000000000000e+00,-5.713602527976036072e-02,0.000000000000000000e+00
1.168572425842285156e+00,6.307997436523437500e+02,-5.533556938171386719e+00,-5.533556938171386719e+00,-9.808833897113800049e-02,-1.539190368652343750e+02,-4.898104190826416016e+00,-1.206360530853271484e+01,-6.329245090484619141e+00,6.047694478183984756e-04,-1.659440398216247559e+00,5.484694004058837891e+00,-3.722214326262474060e-02,-6.080872058868408203e+00,-2.108539104461669922e+00,-2.234828948974609375e+01,1.000000000000000000e+00,-6.733754277229309082e-02,0.000000000000000000e+00
1.243620872497558594e+00,6.307997436523437500e+02,-5.533556938171386719e+00,-5.533556938171386719e+00,-9.808833897113800049e-02,-1.539190368652343750e+02,-4.898104190826416016e+00,-1.206360530853271484e+01,-6.329245090484619141e+00,6.047694478183984756e-04,-1.659440398216247559e+00,5.484694004058837891e+00,-3.722214326262474060e-02,-6.080872058868408203e+00,-2.108539104461669922e+00,-2.234828948974609375e+01,1.000000000000000000e+00,-6.733754277229309082e-02,0.000000000000000000e+00
1.243620872497558594e+00,6.307997436523437500e+02,-5.533556938171386719e+00,-5.533556938171386719e+00,-9.808833897113800049e-02,-1.539190368652343750e+02,-4.898104190826416016e+00,-1.206360530853271484e+01,-6.329245090484619141e+00,6.047694478183984756e-04,-1.659440398216247559e+00,5.484694004058837891e+00,-3.722214326262474060e-02,-6.080872058868408203e+00,-2.108539104461669922e+00,-2.234828948974609375e+01,1.000000000000000000e+00,-6.733754277229309082e-02,0.000000000000000000e+00
1.243620872497558594e+00,6.307997436523437500e+02,-5.533556938171386719e+00,-5.533556938171386719e+00,-9.808833897113800049e-02,-1.539190368652343750e+02,-4.898104190826416016e+00,-1.206360530853271484e+01,-6.329245090484619141e+00,6.047694478183984756e-04,-1.659440398216247559e+00,5.484694004058837891e+00,-3.722214326262474060e-02,-6.080872058868408203e+00,-2.108539104461669922e+00,-2.234828948974609375e+01,1.000000000000000000e+00,-6.733754277229309082e-02,0.000000000000000000e+00
1.312042951583862305e+00,6.298864135742187500e+02,-5.985532283782958984e+00,-5.985532283782958984e+00,-4.501777514815330505e-02,-1.551500549316406250e+02,-5.423618316650390625e+00,-1.215404891967773438e+01,-5.963438987731933594e+00,-1.731822267174720764e-03,-1.321848392486572266e+00,5.346316814422607422e+00,-3.414967656135559082e-02,-6.584714889526367188e+00,-2.369602918624877930e+00,-1.408995532989501953e+01,1.000000000000000000e+00,-2.949167974293231964e-02,0.000000000000000000e+00
1.312042951583862305e+00,6.298864135742187500e+02,-5.985532283782958984e+00,-5.985532283782958984e+00,-4.501777514815330505e-02,-1.551500549316406250e+02,-5.423618316650390625e+00,-1.215404891967773438e+01,-5.963438987731933594e+00,-1.731822267174720764e-03,-1.321848392486572266e+00,5.346316814422607422e+00,-3.414967656135559082e-02,-6.584714889526367188e+00,-2.369602918624877930e+00,-1.408995532989501953e+01,1.000000000000000000e+00,-2.949167974293231964e-02,0.000000000000000000e+00
1.383129358291625977e+00,6.290484619140625000e+02,-6.374398708343505859e+00,-6.374398708343505859e+00,2.991622779518365860e-03,-1.562776184082031250e+02,-5.813480377197265625e+00,-1.221818256378173828e+01,-5.656369686126708984e+00,-3.774129552766680717e-03,-9.021927714347839355e-01,4.319662570953369141e+00,-2.872992679476737976e-02,-2.910870313644409180e+00,-1.201921343803405762e+00,-1.630275535583496094e+01,1.000000000000000000e+00,-5.880737304687500000e-02,0.000000000000000000e+00
1.383129358291625977e+00,6.290484619140625000e+02,-6.374398708343505859e+00,-6.374398708343505859e+00,2.991622779518365860e-03,-1.562776184082031250e+02,-5.813480377197265625e+00,-1.221818256378173828e+01,-5.656369686126708984e+00,-3.774129552766680717e-03,-9.021927714347839355e-01,4.319662570953369141e+00,-2.872992679476737976e-02,-2.910870313644409180e+00,-1.201921343803405762e+00,-1.630275535583496094e+01,1.000000000000000000e+00,-5.880737304687500000e-02,0.000000000000000000e+00
1.383129358291625977e+00,6.290484619140625000e+02,-6.374398708343505859e+00,-6.374398708343505859e+00,2.991622779518365860e-03,-1.562776184082031250e+02,-5.813480377197265625e+00,-1.221818256378173828e+01,-5.656369686126708984e+00,-3.774129552766680717e-03,-9.021927714347839355e-01,4.319662570953369141e+00,-2.872992679476737976e-02,-2.910870313644409180e+00,-1.201921343803405762e+00,-1.630275535583496094e+01,1.000000000000000000e+00,-5.880737304687500000e-02,0.000000000000000000e+00
1.450951814651489258e+00,6.281748046875000000e+02,-6.758087158203125000e+00,-6.758087158203125000e+00,-1.452098134905099869e-02,-1.571934509277343750e+02,-5.536227226257324219e+00,-1.224714660644531250e+01,-5.406730651855468750e+00,-2.908540889620780945e-03,-4.270568192005157471e-01,3.680772542953491211e+00,1.276256702840328217e-02,5.158003807067871094e+00,1.869514465332031250e+00,-1.202197456359863281e+01,1.000000000000000000e+00,-3.732757642865180969e-02,0.000000000000000000e+00
1.450951814651489258e+00,6.281748046875000000e+02,-6.758087158203125000e+00,-6.758087158203125000e+00,-1.452098134905099869e-02,-1.571934509277343750e+02,-5.536227226257324219e+00,-1.224714660644531250e+01,-5.406730651855468750e+00,-2.908540889620780945e-03,-4.270568192005157471e-01,3.680772542953491211e+00,1.276256702840328217e-02,5.158003807067871094e+00,1.869514465332031250e+00,-1.202197456359863281e+01,1.000000000000000000e+00,-3.732757642865180969e-02,0.000000000000000000e+00
1.450951814651489258e+00,6.281748046875000000e+02,-6.758087158203125000e+00,-6.758087158203125000e+00,-1.452098134905099869e-02,-1.571934509277343750e+02,-5.536227226257324219e+00,-1.224714660644531250e+01,-5.406730651855468750e+00,-2.908540889620780945e-03,-4.270568192005157471e-01,3.680772542953491211e+00,1.276256702840328217e-02,5.158003807067871094e+00,1.869514465332031250e+00,-1.202197456359863281e+01,1.000000000000000000e+00,-3.732757642865180969e-02,0.000000000000000000e+00
1.527701377868652344e+00,6.273305053710937500e+02,-7.109127521514892578e+00,-7.109127521514892578e+00,-9.575925022363662720e-02,-1.582588958740234375e+02,-5.204256057739257812e+00,-1.253047943115234375e+01,-5.263088226318359375e+00,1.949813216924667358e-03,-3.691653966903686523e+00,1.871573209762573242e+00,6.330139189958572388e-02,5.019336700439453125e+00,-5.714569091796875000e-01,-1.631402206420898438e+01,1.000000000000000000e+00,-8.415628969669342041e-02,0.000000000000000000e+00
1.527701377868652344e+00,6.273305053710937500e+02,-7.109127521514892578e+00,-7.109127521514892578e+00,-9.575925022363662720e-02,-1.582588958740234375e+02,-5.204256057739257812e+00,-1.253047943115234375e+01,-5.263088226318359375e+00,1.949813216924667358e-03,-3.691653966903686523e+00,1.871573209762573242e+00,6.330139189958572388e-02,5.019336700439453125e+00,-5.714569091796875000e-01,-1.631402206420898438e+01,1.000000000000000000e+00,-8.415628969669342041e-02,0.000000000000000000e+00
1.527701377868652344e+00,6.273305053710937500e+02,-7.109127521514892578e+00,-7.109127521514892578e+00,-9.575925022363662720e-02,-1.582588958740234375e+02,-5.204256057739257812e+00,-1.253047943115234375e+01,-5.263088226318359375e+00,1.949813216924667358e-03,-3.691653966903686523e+00,1.871573209762573242e+00,6.330139189958572388e-02,5.019336700439453125e+00,-5.714569091796875000e-01,-1.631402206420898438e+01,1.000000000000000000e+00,-8.415628969669342041e-02,0.000000000000000000e+00
1.600134611129760742e+00,6.263472290039062500e+02,-7.496365070343017578e+00,-7.496365070343017578e+00,-2.021804153919219971e-01,-1.594550476074218750e+02,-4.853456974029541016e+00,-1.291127681732177734e+01,-5.120083332061767578e+00,2.455302514135837555e-03,-5.257219314575195312e+00,1.974299430847167969e+00,6.978692952543497086e-03,4.342845916748046875e+00,-1.890212655067443848e+00,-1.490217208862304688e+01,1.000000000000000000e+00,-7.391916960477828979e-02,0.000000000000000000e+00
1.600134611129760742e+00,6.263472290039062500e+02,-7.496365070343017578e+00,-7.496365070343017578e+00,-2.021804153919219971e-01,-1.594550476074218750e+02,-4.853456974029541016e+00,-1.291127681732177734e+01,-5.120083332061767578e+00,2.455302514135837555e-03,-5.257219314575195312e+00,1.974299430847167969e+00,6.978692952543497086e-03,4.342845916748046875e+00,-1.890212655067443848e+00,-1.490217208862304688e+01,1.000000000000000000e+00,-7.391916960477828979e-02,0.000000000000000000e+00
1.600134611129760742e+00,6.263472290039062500e+02,-7.496365070343017578e+00,-7.496365070343017578e+00,-2.021804153919219971e-01,-1.594550476074218750e+02,-4.853456974029541016e+00,-1.291127681732177734e+01,-5.120083332061767578e+00,2.455302514135837555e-03,-5.257219314575195312e+00,1.974299430847167969e+00,6.978692952543497086e-03,4.342845916748046875e+00,-1.890212655067443848e+00,-1.490217208862304688e+01,1.000000000000000000e+00,-7.391916960477828979e-02,0.000000000000000000e+00
1.600134611129760742e+00,6.263472290039062500e+02,-7.496365070343017578e+00,-7.496365070343017578e+00,-2.021804153919219971e-01,-1.594550476074218750e+02,-4.853456974029541016e+00,-1.291127681732177734e+01,-5.120083332061767578e+00,2.455302514135837555e-03,-5.257219314575195312e+00,1.974299430847167969e+00,6.978692952543497086e-03,4.342845916748046875e+00,-1.890212655067443848e+00,-1.490217208862304688e+01,1.000000000000000000e+00,-7.391916960477828979e-02,0.000000000000000000e+00
1.600134611129760742e+00,6.263472290039062500e+02,-7.496365070343017578e+00,-7.496365070343017578e+00,-2.021804153919219971e-01,-1.594550476074218750e+02,-4.853456974029541016e+00,-1.291127681732177734e+01,-5.120083332061767578e+00,2.455302514135837555e-03,-5.257219314575195312e+00,1.974299430847167969e+00,6.978692952543497086e-03,4.342845916748046875e+00,-1.890212655067443848e+00,-1.490217208862304688e+01,1.000000000000000000e+00,-7.391916960477828979e-02,0.000000000000000000e+00
1.600134611129760742e+00,6.253921508789062500e+02,-7.848641872406005859e+00,-7.848641872406005859e+00,-2.854540944099426270e-01,-1.608090820312500000e+02,-4.645204544067382812e+00,-1.327675724029541016e+01,-4.936964035034179688e+00,-2.321825828403234482e-03,-3.167654991149902344e+00,1.587113022804260254e+00,-4.140384495258331299e-02,1.986736297607421875e+00,-3.616419315338134766e+00,-2.006951713562011719e+01,1.000000000000000000e+00,-1.161809265613555908e-01,0.000000000000000000e+00
1.715513467788696289e+00,6.253921508789062500e+02,-7.848641872406005859e+00,-7.848641872406005859e+00,-2.854540944099426270e-01,-1.608090820312500000e+02,-4.645204544067382812e+00,-1.327675724029541016e+01,-4.936964035034179688e+00,-2.321825828403234482e-03,-3.167654991149902344e+00,1.587113022804260254e+00,-4.140384495258331299e-02,1.986736297607421875e+00,-3.616419315338134766e+00,-2.006951713562011719e+01,1.000000000000000000e+00,-1.161809265613555908e-01,0.000000000000000000e+00
1.715513467788696289e+00,6.253921508789062500e+02,-7.848641872406005859e+00,-7.848641872406005859e+00,-2.854540944099426270e-01,-1.608090820312500000e+02,-4.645204544067382812e+00,-1.327675724029541016e+01,-4.936964035034179688e+00,-2.321825828403234482e-03,-3.167654991149902344e+00,1.587113022804260254e+00,-4.140384495258331299e-02,1.986736297607421875e+00,-3.616419315338134766e+00,-2.006951713562011719e+01,1.000000000000000000e+00,-1.161809265613555908e-01,0.000000000000000000e+00
1.715513467788696289e+00,6.240289916992187500e+02,-8.308287620544433594e+00,-8.308287620544433594e+00,-3.413386940956115723e-01,-1.629393768310546875e+02,-4.668673992156982422e+00,-1.378715038299560547e+01,-4.608241081237792969e+00,-6.619448307901620865e-03,-5.229349613189697266e+00,3.368006229400634766e+00,-4.403227195143699646e-02,-2.035497665405273438e+00,-4.855053424835205078e+00,-2.153367614746093750e+01,5.000000000000000000e-01,-1.135386154055595398e-01,0.000000000000000000e+00
1.813115119934082031e+00,6.240289916992187500e+02,-8.308287620544433594e+00,-8.308287620544433594e+00,-3.413386940956115723e-01,-1.629393768310546875e+02,-4.668673992156982422e+00,-1.378715038299560547e+01,-4.608241081237792969e+00,-6.619448307901620865e-03,-5.229349613189697266e+00,3.368006229400634766e+00,-4.403227195143699646e-02,-2.035497665405273438e+00,-4.855053424835205078e+00,-2.153367614746093750e+01,5.000000000000000000e-01,-1.135386154055595398e-01,0.000000000000000000e+00
1.813115119934082031e+00,6.240289916992187500e+02,-8.308287620544433594e+00,-8.308287620544433594e+00,-3.413386940956115723e-01,-1.629393768310546875e+02,-4.668673992156982422e+00,-1.378715038299560547e+01,-4.608241081237792969e+00,-6.619448307901620865e-03,-5.229349613189697266e+00,3.368006229400634766e+00,-4.403227195143699646e-02,-2.035497665405273438e+00,-4.855053424835205078e+00,-2.153367614746093750e+01,5.000000000000000000e-01,-1.135386154055595398e-01,0.000000000000000000e+00
1.813115119934082031e+00,6.240289916992187500e+02,-8.308287620544433594e+00,-8.308287620544433594e+00,-3.413386940956115723e-01,-1.629393768310546875e+02,-4.668673992156982422e+00,-1.378715038299560547e+01,-4.608241081237792969e+00,-6.619448307901620865e-03,-5.229349613189697266e+00,3.368006229400634766e+00,-4.403227195143699646e-02,-2.035497665405273438e+00,-4.855053424835205078e+00,-2.153367614746093750e+01,5.000000000000000000e-01,-1.135386154055595398e-01,0.000000000000000000e+00
1.813115119934082031e+00,6.226491088867187500e+02,-8.717112541198730469e+00,-8.717112541198730469e+00,-3.073106706142425537e-01,-1.654351806640625000e+02,-5.073304653167724609e+00,-1.428332233428955078e+01,-4.169277191162109375e+00,-8.113336749374866486e-03,-5.976554393768310547e+00,5.287464618682861328e+00,-1.799437776207923889e-02,-6.316277980804443359e+00,-5.177715301513671875e+00,-2.739344215393066406e+01,5.000000000000000000e-01,-1.363932341337203979e-01,0.000000000000000000e+00
1.896134853363037109e+00,6.226491088867187500e+02,-8.717112541198730469e+00,-8.717112541198730469e+00,-3.073106706142425537e-01,-1.654351806640625000e+02,-5.073304653167724609e+00,-1.428332233428955078e+01,-4.169277191162109375e+00,-8.113336749374866486e-03,-5.976554393768310547e+00,5.287464618682861328e+00,-1.799437776207923889e-02,-6.316277980804443359e+00,-5.177715301513671875e+00,-2.739344215393066406e+01,5.000000000000000000e-01,-1.363932341337203979e-01,0.000000000000000000e+00
1.896134853363037109e+00,6.226491088867187500e+02,-8.717112541198730469e+00,-8.717112541198730469e+00,-3.073106706142425537e-01,-1.654351806640625000e+02,-5.073304653167724609e+00,-1.428332233428955078e+01,-4.169277191162109375e+00,-8.113336749374866486e-03,-5.976554393768310547e+00,5.287464618682861328e+00,-1.799437776207923889e-02,-6.316277980804443359e+00,-5.177715301513671875e+00,-2.739344215393066406e+01,5.000000000000000000e-01,-1.363932341337203979e-01,0.000000000000000000e+00
1.896134853363037109e+00,6.226491088867187500e+02,-8.717112541198730469e+00,-8.717112541198730469e+00,-3.073106706142425537e-01,-1.654351806640625000e+02,-5.073304653167724609e+00,-1.428332233428955078e+01,-4.169277191162109375e+00,-8.113336749374866486e-03,-5.976554393768310547e+00,5.287464618682861328e+00,-1.799437776207923889e-02,-6.316277980804443359e+00,-5.177715301513671875e+00,-2.739344215393066406e+01,5.000000000000000000e-01,-1.363932341337203979e-01,0.000000000000000000e+00
1.896134853363037109e+00,6.226491088867187500e+02,-8.717112541198730469e+00,-8.717112541198730469e+00,-3.073106706142425537e-01,-1.654351806640625000e+02,-5.073304653167724609e+00,-1.428332233428955078e+01,-4.169277191162109375e+00,-8.113336749374866486e-03,-5.976554393768310547e+00,5.287464618682861328e+00,-1.799437776207923889e-02,-6.316277980804443359e+00,-5.177715301513671875e+00,-2.739344215393066406e+01,5.000000000000000000e-01,-1.363932341337203979e-01,0.000000000000000000e+00
1.896134853363037109e+00,6.226491088867187500e+02,-8.717112541198730469e+00,-8.717112541198730469e+00,-3.073106706142425537e-01,-1.654351806640625000e+02,-5.073304653167724609e+00,-1.428332233428955078e+01,-4.169277191162109375e+00,-8.113336749374866486e-03,-5.976554393768310547e+00,5.287464618682861328e+00,-1.799437776207923889e-02,-6.316277980804443359e+00,-5.177715301513671875e+00,-2.739344215393066406e+01,5.000000000000000000e-01,-1.363932341337203979e-01,0.000000000000000000e+00
1.896134853363037109e+00,6.226491088867187500e+02,-8.717112541198730469e+00,-8.717112541198730469e+00,-3.073106706142425537e-01,-1.654351806640625000e+02,-5.073304653167724609e+00,-1.428332233428955078e+01,-4.169277191162109375e+00,-8.113336749374866486e-03,-5.976554393768310547e+00,5.287464618682861328e+00,-1.799437776207923889e-02,-6.316277980804443359e+00,-5.177715301513671875e+00,-2.739344215393066406e+01,5.000000000000000000e-01,-1.363932341337203979e-01,0.000000000000000000e+00
1.896134853363037109e+00,6.226491088867187500e+02,-8.717112541198730469e+00,-8.717112541198730469e+00,-3.073106706142425537e-01,-1.654351806640625000e+02,-5.073304653167724609e+00,-1.428332233428955078e+01,-4.169277191162109375e+00,-8.113336749374866486e-03,-5.976554393768310547e+00,5.287464618682861328e+00,-1.799437776207923889e-02,-6.316277980804443359e+00,-5.177715301513671875e+00,-2.739344215393066406e+01,5.000000000000000000e-01,-1.363932341337203979e-01,0.000000000000000000e+00
2.195794820785522461e+00,6.186275024414062500e+02,-9.554977416992187500e+00,-9.554977416992187500e+00,-8.718735724687576294e-02,-1.725729370117187500e+02,-5.946994781494140625e+00,-1.495211505889892578e+01,-2.466779708862304688e+00,-1.536792330443859100e-02,2.909345626831054688e-01,1.027612209320068359e+01,-9.927658736705780029e-02,7.966856002807617188e+00,-3.652769923210144043e-01,-2.005265808105468750e+01,5.000000000000000000e-01,-9.441222995519638062e-02,0.000000000000000000e+00
2.195794820785522461e+00,6.186275024414062500e+02,-9.554977416992187500e+00,-9.554977416992187500e+00,-8.718735724687576294e-02,-1.725729370117187500e+02,-5.946994781494140625e+00,-1.495211505889892578e+01,-2.466779708862304688e+00,-1.536792330443859100e-02,2.909345626831054688e-01,1.027612209320068359e+01,-9.927658736705780029e-02,7.966856002807617188e+00,-3.652769923210144043e-01,-2.005265808105468750e+01,5.000000000000000000e-01,-9.441222995519638062e-02,0.000000000000000000e+00
2.195794820785522461e+00,6.186275024414062500e+02,-9.554977416992187500e+00,-9.554977416992187500e+00,-8.718735724687576294e-02,-1.725729370117187500e+02,-5.946994781494140625e+00,-1.495211505889892578e+01,-2.466779708862304688e+00,-1.536792330443859100e-02,2.909345626831054688e-01,1.027612209320068359e+01,-9.927658736705780029e-02,7.966856002807617188e+00,-3.652769923210144043e-01,-2.005265808105468750e+01,5.000000000000000000e-01,-9.441222995519638062e-02,0.000000000000000000e+00
2.195794820785522461e+00,6.186275024414062500e+02,-9.554977416992187500e+00,-9.554977416992187500e+00,-8.718735724687576294e-02,-1.725729370117187500e+02,-5.946994781494140625e+00,-1.495211505889892578e+01,-2.466779708862304688e+00,-1.536792330443859100e-02,2.909345626831054688e-01,1.027612209320068359e+01,-9.927658736705780029e-02,7.966856002807617188e+00,-3.652769923210144043e-01,-2.005265808105468750e+01,5.000000000000000000e-01,-9.441222995519638062e-02,0.000000000000000000e+00
2.195794820785522461e+00,6.186275024414062500e+02,-9.554977416992187500e+00,-9.554977416992187500e+00,-8.718735724687576294e-02,-1.725729370117187500e+02,-5.946994781494140625e+00,-1.495211505889892578e+01,-2.466779708862304688e+00,-1.536792330443859100e-02,2.909345626831054688e-01,1.027612209320068359e+01,-9.927658736705780029e-02,7.966856002807617188e+00,-3.652769923210144043e-01,-2.005265808105468750e+01,5.000000000000000000e-01,-9.441222995519638062e-02,0.000000000000000000e+00
2.195794820785522461e+00,6.186275024414062500e+02,-9.554977416992187500e+00,-9.554977416992187500e+00,-8.718735724687576294e-02,-1.725729370117187500e+02,-5.946994781494140625e+00,-1.495211505889892578e+01,-2.466779708862304688e+00,-1.536792330443859100e-02,2.909345626831054688e-01,1.027612209320068359e+01,-9.927658736705780029e-02,7.966856002807617188e+00,-3.652769923210144043e-01,-2.005265808105468750e+01,5.000000000000000000e-01,-9.441222995519638062e-02,0.000000000000000000e+00
2.195794820785522461e+00,6.186275024414062500e+02,-9.554977416992187500e+00,-9.554977416992187500e+00,-8.718735724687576294e-02,-1.725729370117187500e+02,-5.946994781494140625e+00,-1.495211505889892578e+01,-2.466779708862304688e+00,-1.536792330443859100e-02,2.909345626831054688e-01,1.027612209320068359e+01,-9.927658736705780029e-02,7.966856002807617188e+00,-3.652769923210144043e-01,-2.005265808105468750e+01,5.000000000000000000e-01,-9.441222995519638062e-02,0.000000000000000000e+00
2.195794820785522461e+00,6.186275024414062500e+02,-9.554977416992187500e+00,-9.554977416992187500e+00,-8.718735724687576294e-02,-1.725729370117187500e+02,-5.946994781494140625e+00,-1.495211505889892578e+01,-2.466779708862304688e+00,-1.536792330443859100e-02,2.909345626831054688e-01,1.027612209320068359e+01,-9.927658736705780029e-02,7.966856002807617188e+00,-3.652769923210144043e-01,-2.005265808105468750e+01,5.000000000000000000e-01,-9.441222995519638062e-02,0.000000000000000000e+00
2.195794820785522461e+00,6.186275024414062500e+02,-9.554977416992187500e+00,-9.554977416992187500e+00,-8.718735724687576294e-02,-1.725729370117187500e+02,-5.946994781494140625e+00,-1.495211505889892578e+01,-2.466779708862304688e+00,-1.536792330443859100e-02,2.909345626831054688e-01,1.027612209320068359e+01,-9.927658736705780029e-02,7.966856002807617188e+00,-3.652769923210144043e-01,-2.005265808105468750e+01,5.000000000000000000e-01,-9.441222995519638062e-02,0.000000000000000000e+00
2.195794820785522461e+00,6.186275024414062500e+02,-9.554977416992187500e+00,-9.554977416992187500e+00,-8.718735724687576294e-02,-1.725729370117187500e+02,-5.946994781494140625e+00,-1.495211505889892578e+01,-2.466779708862304688e+00,-1.536792330443859100e-02,2.909345626831054688e-01,1.027612209320068359e+01,-9.927658736705780029e-02,7.966856002807617188e+00,-3.652769923210144043e-01,-2.005265808105468750e+01,5.000000000000000000e-01,-9.441222995519638062e-02,0.000000000000000000e+00
2.374083757400512695e+00,6.178319091796875000e+02,-9.663885116577148438e+00,-9.663885116577148438e+00,-1.477028280496597290e-01,-1.738067016601562500e+02,-5.474338054656982422e+00,-1.499339294433593750e+01,-2.153442621231079102e+00,-1.352759078145027161e-02,-2.315224111080169678e-01,1.757467865943908691e+00,1.032219082117080688e-02,6.790365219116210938e+00,-1.974575161933898926e+00,-2.753429222106933594e+01,5.000000000000000000e-01,-1.048863753676414490e-01,0.000000000000000000e+00
2.374083757400512695e+00,6.178319091796875000e+02,-9.663885116577148438e+00,-9.663885116577148438e+00,-1.477028280496597290e-01,-1.738067016601562500e+02,-5.474338054656982422e+00,-1.499339294433593750e+01,-2.153442621231079102e+00,-1.352759078145027161e-02,-2.315224111080169678e-01,1.757467865943908691e+00,1.032219082117080688e-02,6.790365219116210938e+00,-1.974575161933898926e+00,-2.753429222106933594e+01,5.000000000000000000e-01,-1.048863753676414490e-01,0.000000000000000000e+00
2.374083757400512695e+00,6.178319091796875000e+02,-9.663885116577148438e+00,-9.663885116577148438e+00,-1.477028280496597290e-01,-1.738067016601562500e+02,-5.474338054656982422e+00,-1.499339294433593750e+01,-2.153442621231079102e+00,-1.352759078145027161e-02,-2.315224111080169678e-01,1.757467865943908691e+00,1.032219082117080688e-02,6.790365219116210938e+00,-1.974575161933898926e+00,-2.753429222106933594e+01,5.000000000000000000e-01,-1.048863753676414490e-01,0.000000000000000000e+00
2.447860002517700195e+00,6.163127441406250000e+02,-9.812240600585937500e+00,-9.812240600585937500e+00,-1.748323440551757812e-01,-1.772671203613281250e+02,-5.458986759185791016e+00,-1.526985931396484375e+01,-1.436852812767028809e+00,-4.458368755877017975e-03,-3.747363090515136719e+00,9.713015556335449219e+00,1.229287609457969666e-01,-5.888856887817382812e+00,-2.471729278564453125e+00,-3.712617111206054688e+01,5.000000000000000000e-01,-1.055852249264717102e-01,0.000000000000000000e+00
2.447860002517700195e+00,6.163127441406250000e+02,-9.812240600585937500e+00,-9.812240600585937500e+00,-1.748323440551757812e-01,-1.772671203613281250e+02,-5.458986759185791016e+00,-1.526985931396484375e+01,-1.436852812767028809e+00,-4.458368755877017975e-03,-3.747363090515136719e+00,9.713015556335449219e+00,1.229287609457969666e-01,-5.888856887817382812e+00,-2.471729278564453125e+00,-3.712617111206054688e+01,5.000000000000000000e-01,-1.055852249264717102e-01,0.000000000000000000e+00
2.500878810882568359e+00,6.151795654296875000e+02,-9.879343032836914062e+00,-9.879343032836914062e+00,-6.332951039075851440e-02,-1.792874908447265625e+02,-5.954195499420166016e+00,-1.534444999694824219e+01,-8.689232468605041504e-01,6.067991125746630132e-05,-1.406872034072875977e+00,1.071185111999511719e+01,8.523482084274291992e-02,-5.632259368896484375e+00,7.839090824127197266e-01,-2.021636390686035156e+01,5.000000000000000000e-01,-4.146321490406990051e-02,0.000000000000000000e+00
2.500878810882568359e+00,6.151795654296875000e+02,-9.879343032836914062e+00,-9.879343032836914062e+00,-6.332951039075851440e-02,-1.792874908447265625e+02,-5.954195499420166016e+00,-1.534444999694824219e+01,-8.689232468605041504e-01,6.067991125746630132e-05,-1.406872034072875977e+00,1.071185111999511719e+01,8.523482084274291992e-02,-5.632259368896484375e+00,7.839090824127197266e-01,-2.021636390686035156e+01,5.000000000000000000e-01,-4.146321490406990051e-02,0.000000000000000000e+00
2.500878810882568359e+00,6.143670654296875000e+02,-9.909214019775390625e+00,-9.909214019775390625e+00,-3.182867914438247681e-02,-1.799499206542968750e+02,-6.035708427429199219e+00,-1.529670619964599609e+01,-5.358801484107971191e-01,-4.706014413386583328e-03,8.048972487449645996e-01,5.614665985107421875e+00,-8.036015927791595459e-02,1.226179003715515137e+00,7.427967190742492676e-01,-9.017732620239257812e+00,5.000000000000000000e-01,-3.552246140316128731e-03,0.000000000000000000e+00
2.560195446014404297e+00,6.143670654296875000e+02,-9.909214019775390625e+00,-9.909214019775390625e+00,-3.182867914438247681e-02,-1.799499206542968750e+02,-6.035708427429199219e+00,-1.529670619964599609e+01,-5.358801484107971191e-01,-4.706014413386583328e-03,8.048972487449645996e-01,5.614665985107421875e+00,-8.036015927791595459e-02,1.226179003715515137e+00,7.427967190742492676e-01,-9.017732620239257812e+00,5.000000000000000000e-01,-3.552246140316128731e-03,0.000000000000000000e+00
2.560195446014404297e+00,6.143670654296875000e+02,-9.909214019775390625e+00,-9.909214019775390625e+00,-3.182867914438247681e-02,-1.799499206542968750e+02,-6.035708427429199219e+00,-1.529670619964599609e+01,-5.358801484107971191e-01,-4.706014413386583328e-03,8.048972487449645996e-01,5.614665985107421875e+00,-8.036015927791595459e-02,1.226179003715515137e+00,7.427967190742492676e-01,-9.017732620239257812e+00,5.000000000000000000e-01,-3.552246140316128731e-03,0.000000000000000000e+00
2.618730545043945312e+00,6.134620971679687500e+02,-9.927158355712890625e+00,-9.927158355712890625e+00,-6.875950843095779419e-02,1.797668914794921875e+02,-5.689242362976074219e+00,-1.524391555786132812e+01,-2.774218320846557617e-01,-8.554577827453613281e-03,9.018630385398864746e-01,4.415441513061523438e+00,-6.574796140193939209e-02,7.469835758209228516e+00,-8.577105402946472168e-01,-4.182611465454101562e+00,5.000000000000000000e-01,7.149760145694017410e-03,0.000000000000000000e+00
2.618730545043945312e+00,6.134620971679687500e+02,-9.927158355712890625e+00,-9.927158355712890625e+00,-6.875950843095779419e-02,1.797668914794921875e+02,-5.689242362976074219e+00,-1.524391555786132812e+01,-2.774218320846557617e-01,-8.554577827453613281e-03,9.018630385398864746e-01,4.415441513061523438e+00,-6.574796140193939209e-02,7.469835758209228516e+00,-8.577105402946472168e-01,-4.182611465454101562e+00,5.000000000000000000e-01,7.149760145694017410e-03,0.000000000000000000e+00
2.677334070205688477e+00,6.125716552734375000e+02,-9.934290885925292969e+00,-9.934290885925292969e+00,-8.606038242578506470e-02,1.796359252929687500e+02,-5.250673770904541016e+00,-1.518948364257812500e+01,-1.193264722824096680e-01,-3.651227569207549095e-03,9.288163781166076660e-01,2.697710752487182617e+00,8.366987854242324829e-02,7.721490859985351562e+00,1.502300053834915161e-02,-1.138539910316467285e+00,5.000000000000000000e-01,1.194356288760900497e-02,0.000000000000000000e+00
2.677334070205688477e+00,6.125716552734375000e+02,-9.934290885925292969e+00,-9.934290885925292969e+00,-8.606038242578506470e-02,1.796359252929687500e+02,-5.250673770904541016e+00,-1.518948364257812500e+01,-1.193264722824096680e-01,-3.651227569207549095e-03,9.288163781166076660e-01,2.697710752487182617e+00,8.366987854242324829e-02,7.721490859985351562e+00,1.502300053834915161e-02,-1.138539910316467285e+00,5.000000000000000000e-01,1.194356288760900497e-02,0.000000000000000000e+00
2.677334070205688477e+00,6.125716552734375000e+02,-9.934290885925292969e+00,-9.934290885925292969e+00,-8.606038242578506470e-02,1.796359252929687500e+02,-5.250673770904541016e+00,-1.518948364257812500e+01,-1.193264722824096680e-01,-3.651227569207549095e-03,9.288163781166076660e-01,2.697710752487182617e+00,8.366987854242324829e-02,7.721490859985351562e+00,1.502300053834915161e-02,-1.138539910316467285e+00,5.000000000000000000e-01,1.194356288760900497e-02,0.000000000000000000e+00
2.677334070205688477e+00,6.125716552734375000e+02,-9.934290885925292969e+00,-9.934290885925292969e+00,-8.606038242578506470e-02,1.796359252929687500e+02,-5.250673770904541016e+00,-1.518948364257812500e+01,-1.193264722824096680e-01,-3.651227569207549095e-03,9.288163781166076660e-01,2.697710752487182617e+00,8.366987854242324829e-02,7.721490859985351562e+00,1.502300053834915161e-02,-1.138539910316467285e+00,5.000000000000000000e-01,1.194356288760900497e-02,0.000000000000000000e+00
2.755024909973144531e+00,6.116843872070312500e+02,-9.935575485229492188e+00,-9.935575485229492188e+00,-5.615098029375076294e-02,1.796394500732421875e+02,-4.735995292663574219e+00,-1.510377120971679688e+01,-3.301968425512313843e-02,-6.982638733461499214e-04,1.103250145912170410e+00,1.110900402069091797e+00,3.800915926694869995e-02,9.558827400207519531e+00,6.602175831794738770e-01,7.116895318031311035e-01,5.000000000000000000e-01,1.108500175178050995e-02,0.000000000000000000e+00
2.755024909973144531e+00,6.116843872070312500e+02,-9.935575485229492188e+00,-9.935575485229492188e+00,-5.615098029375076294e-02,1.796394500732421875e+02,-4.735995292663574219e+00,-1.510377120971679688e+01,-3.301968425512313843e-02,-6.982638733461499214e-04,1.103250145912170410e+00,1.110900402069091797e+00,3.800915926694869995e-02,9.558827400207519531e+00,6.602175831794738770e-01,7.116895318031311035e-01,5.000000000000000000e-01,1.108500175178050995e-02,0.000000000000000000e+00
2.755024909973144531e+00,6.116843872070312500e+02,-9.935575485229492188e+00,-9.935575485229492188e+00,-5.615098029375076294e-02,1.796394500732421875e+02,-4.735995292663574219e+00,-1.510377120971679688e+01,-3.301968425512313843e-02,-6.982638733461499214e-04,1.103250145912170410e+00,1.110900402069091797e+00,3.800915926694869995e-02,9.558827400207519531e+00,6.602175831794738770e-01,7.116895318031311035e-01,5.000000000000000000e-01,1.108500175178050995e-02,0.000000000000000000e+00
2.830169916152954102e+00,6.105170288085937500e+02,-9.934073448181152344e+00,-9.934073448181152344e+00,1.795656606554985046e-02,1.798341369628906250e+02,-3.835083961486816406e+00,-1.496444034576416016e+01,-9.584636427462100983e-03,1.707469578832387924e-03,1.854159951210021973e+00,3.118643462657928467e-01,3.201454505324363708e-02,1.290478897094726562e+01,9.876515865325927734e-01,3.327295780181884766e+00,5.000000000000000000e-01,1.619466207921504974e-02,0.000000000000000000e+00
2.830169916152954102e+00,6.105170288085937500e+02,-9.934073448181152344e+00,-9.934073448181152344e+00,1.795656606554985046e-02,1.798341369628906250e+02,-3.835083961486816406e+00,-1.496444034576416016e+01,-9.584636427462100983e-03,1.707469578832387924e-03,1.854159951210021973e+00,3.118643462657928467e-01,3.201454505324363708e-02,1.290478897094726562e+01,9.876515865325927734e-01,3.327295780181884766e+00,5.000000000000000000e-01,1.619466207921504974e-02,0.000000000000000000e+00
2.830169916152954102e+00,6.105170288085937500e+02,-9.934073448181152344e+00,-9.934073448181152344e+00,1.795656606554985046e-02,1.798341369628906250e+02,-3.835083961486816406e+00,-1.496444034576416016e+01,-9.584636427462100983e-03,1.707469578832387924e-03,1.854159951210021973e+00,3.118643462657928467e-01,3.201454505324363708e-02,1.290478897094726562e+01,9.876515865325927734e-01,3.327295780181884766e+00,5.000000000000000000e-01,1.619466207921504974e-02,0.000000000000000000e+00
2.830169916152954102e+00,6.105170288085937500e+02,-9.934073448181152344e+00,-9.934073448181152344e+00,1.795656606554985046e-02,1.798341369628906250e+02,-3.835083961486816406e+00,-1.496444034576416016e+01,-9.584636427462100983e-03,1.707469578832387924e-03,1.854159951210021973e+00,3.118643462657928467e-01,3.201454505324363708e-02,1.290478897094726562e+01,9.876515865325927734e-01,3.327295780181884766e+00,5.000000000000000000e-01,1.619466207921504974e-02,0.000000000000000000e+00
2.830169916152954102e+00,6.105170288085937500e+02,-9.934073448181152344e+00,-9.934073448181152344e+00,1.795656606554985046e-02,1.798341369628906250e+02,-3.835083961486816406e+00,-1.496444034576416016e+01,-9.584636427462100983e-03,1.707469578832387924e-03,1.854159951210021973e+00,3.118643462657928467e-01,3.201454505324363708e-02,1.290478897094726562e+01,9.876515865325927734e-01,3.327295780181884766e+00,5.000000000000000000e-01,1.619466207921504974e-02,0.000000000000000000e+00
