# Time,X,Y,Z,Roll,Pitch,Yaw,Vx,Vy,Vz,Ax,Ay,Az,Wx,Wy,Wz,Throttle,Steer,Brake
0.000000000000000000e+00,3.863762512207031250e+02,-1.384752273559570312e+01,-1.384752273559570312e+01,2.445207536220550537e-02,1.797997131347656250e+02,-6.427000463008880615e-02,-1.454167175292968750e+01,5.220524594187736511e-02,-1.026962036121403798e-05,-2.717395305633544922e+00,9.900129400193691254e-03,-7.011536217760294676e-05,-3.114068240392953157e-04,2.405362576246261597e-01,9.770002216100692749e-03,5.000000000000000000e-01,-1.155308345914818347e-04,0.000000000000000000e+00
1.045818328857421875e-01,3.863762512207031250e+02,-1.384752273559570312e+01,-1.384752273559570312e+01,2.445207536220550537e-02,1.797997131347656250e+02,-6.427000463008880615e-02,-1.454167175292968750e+01,5.220524594187736511e-02,-1.026962036121403798e-05,-2.717395305633544922e+00,9.900129400193691254e-03,-7.011536217760294676e-05,-3.114068240392953157e-04,2.405362576246261597e-01,9.770002216100692749e-03,5.000000000000000000e-01,-1.155308345914818347e-04,0.000000000000000000e+00
1.045818328857421875e-01,3.863762512207031250e+02,-1.384752273559570312e+01,-1.384752273559570312e+01,2.445207536220550537e-02,1.797997131347656250e+02,-6.427000463008880615e-02,-1.454167175292968750e+01,5.220524594187736511e-02,-1.026962036121403798e-05,-2.717395305633544922e+00,9.900129400193691254e-03,-7.011536217760294676e-05,-3.114068240392953157e-04,2.405362576246261597e-01,9.770002216100692749e-03,5.000000000000000000e-01,-1.155308345914818347e-04,0.000000000000000000e+00
1.045818328857421875e-01,3.863762512207031250e+02,-1.384752273559570312e+01,-1.384752273559570312e+01,2.445207536220550537e-02,1.797997131347656250e+02,-6.427000463008880615e-02,-1.454167175292968750e+01,5.220524594187736511e-02,-1.026962036121403798e-05,-2.717395305633544922e+00,9.900129400193691254e-03,-7.011536217760294676e-05,-3.114068240392953157e-04,2.405362576246261597e-01,9.770002216100692749e-03,5.000000000000000000e-01,-1.155308345914818347e-04,0.000000000000000000e+00
1.045818328857421875e-01,3.863762512207031250e+02,-1.384752273559570312e+01,-1.384752273559570312e+01,2.445207536220550537e-02,1.797997131347656250e+02,-6.427000463008880615e-02,-1.454167175292968750e+01,5.220524594187736511e-02,-1.026962036121403798e-05,-2.717395305633544922e+00,9.900129400193691254e-03,-7.011536217760294676e-05,-3.114068240392953157e-04,2.405362576246261597e-01,9.770002216100692749e-03,5.000000000000000000e-01,-1.155308345914818347e-04,0.000000000000000000e+00
1.045818328857421875e-01,3.863762512207031250e+02,-1.384752273559570312e+01,-1.384752273559570312e+01,2.445207536220550537e-02,1.797997131347656250e+02,-6.427000463008880615e-02,-1.454167175292968750e+01,5.220524594187736511e-02,-1.026962036121403798e-05,-2.717395305633544922e+00,9.900129400193691254e-03,-7.011536217760294676e-05,-3.114068240392953157e-04,2.405362576246261597e-01,9.770002216100692749e-03,5.000000000000000000e-01,-1.155308345914818347e-04,0.000000000000000000e+00
1.045818328857421875e-01,3.849172668457031250e+02,-1.384227657318115234e+01,-1.384227657318115234e+01,1.468490622937679291e-02,1.797985992431640625e+02,-6.417845189571380615e-02,-1.457538890838623047e+01,5.268723890185356140e-02,-1.186173176392912865e-05,-3.220084607601165771e-01,4.603170324116945267e-03,-1.520511796115897596e-05,5.766550311818718910e-04,-3.553588390350341797e-01,-2.527340874075889587e-02,5.000000000000000000e-01,-1.711164222797378898e-04,0.000000000000000000e+00
2.092907428741455078e-01,3.849172668457031250e+02,-1.384227657318115234e+01,-1.384227657318115234e+01,1.468490622937679291e-02,1.797985992431640625e+02,-6.417845189571380615e-02,-1.457538890838623047e+01,5.268723890185356140e-02,-1.186173176392912865e-05,-3.220084607601165771e-01,4.603170324116945267e-03,-1.520511796115897596e-05,5.766550311818718910e-04,-3.553588390350341797e-01,-2.527340874075889587e-02,5.000000000000000000e-01,-1.711164222797378898e-04,0.000000000000000000e+00
2.092907428741455078e-01,3.849172668457031250e+02,-1.384227657318115234e+01,-1.384227657318115234e+01,1.468490622937679291e-02,1.797985992431640625e+02,-6.417845189571380615e-02,-1.457538890838623047e+01,5.268723890185356140e-02,-1.186173176392912865e-05,-3.220084607601165771e-01,4.603170324116945267e-03,-1.520511796115897596e-05,5.766550311818718910e-04,-3.553588390350341797e-01,-2.527340874075889587e-02,5.000000000000000000e-01,-1.711164222797378898e-04,0.000000000000000000e+00
2.092907428741455078e-01,3.849172668457031250e+02,-1.384227657318115234e+01,-1.384227657318115234e+01,1.468490622937679291e-02,1.797985992431640625e+02,-6.417845189571380615e-02,-1.457538890838623047e+01,5.268723890185356140e-02,-1.186173176392912865e-05,-3.220084607601165771e-01,4.603170324116945267e-03,-1.520511796115897596e-05,5.766550311818718910e-04,-3.553588390350341797e-01,-2.527340874075889587e-02,5.000000000000000000e-01,-1.711164222797378898e-04,0.000000000000000000e+00
2.092907428741455078e-01,3.849172668457031250e+02,-1.384227657318115234e+01,-1.384227657318115234e+01,1.468490622937679291e-02,1.797985992431640625e+02,-6.417845189571380615e-02,-1.457538890838623047e+01,5.268723890185356140e-02,-1.186173176392912865e-05,-3.220084607601165771e-01,4.603170324116945267e-03,-1.520511796115897596e-05,5.766550311818718910e-04,-3.553588390350341797e-01,-2.527340874075889587e-02,5.000000000000000000e-01,-1.711164222797378898e-04,0.000000000000000000e+00
2.092907428741455078e-01,3.834726867675781250e+02,-1.383707141876220703e+01,-1.383707141876220703e+01,-4.797524586319923401e-02,1.797945404052734375e+02,-6.384275853633880615e-02,-1.433300781250000000e+01,5.229295045137405396e-02,-8.905833965400233865e-06,3.248267412185668945e+00,-5.284051876515150070e-03,3.961343099945224822e-05,1.639211783185601234e-03,-7.690926194190979004e-01,-5.010556429624557495e-02,5.000000000000000000e-01,-1.597813243279233575e-04,0.000000000000000000e+00
2.839093208312988281e-01,3.834726867675781250e+02,-1.383707141876220703e+01,-1.383707141876220703e+01,-4.797524586319923401e-02,1.797945404052734375e+02,-6.384275853633880615e-02,-1.433300781250000000e+01,5.229295045137405396e-02,-8.905833965400233865e-06,3.248267412185668945e+00,-5.284051876515150070e-03,3.961343099945224822e-05,1.639211783185601234e-03,-7.690926194190979004e-01,-5.010556429624557495e-02,5.000000000000000000e-01,-1.597813243279233575e-04,0.000000000000000000e+00
2.839093208312988281e-01,3.834726867675781250e+02,-1.383707141876220703e+01,-1.383707141876220703e+01,-4.797524586319923401e-02,1.797945404052734375e+02,-6.384275853633880615e-02,-1.433300781250000000e+01,5.229295045137405396e-02,-8.905833965400233865e-06,3.248267412185668945e+00,-5.284051876515150070e-03,3.961343099945224822e-05,1.639211783185601234e-03,-7.690926194190979004e-01,-5.010556429624557495e-02,5.000000000000000000e-01,-1.597813243279233575e-04,0.000000000000000000e+00
2.839093208312988281e-01,3.834726867675781250e+02,-1.383707141876220703e+01,-1.383707141876220703e+01,-4.797524586319923401e-02,1.797945404052734375e+02,-6.384275853633880615e-02,-1.433300781250000000e+01,5.229295045137405396e-02,-8.905833965400233865e-06,3.248267412185668945e+00,-5.284051876515150070e-03,3.961343099945224822e-05,1.639211783185601234e-03,-7.690926194190979004e-01,-5.010556429624557495e-02,5.000000000000000000e-01,-1.597813243279233575e-04,0.000000000000000000e+00
2.839093208312988281e-01,3.834726867675781250e+02,-1.383707141876220703e+01,-1.383707141876220703e+01,-4.797524586319923401e-02,1.797945404052734375e+02,-6.384275853633880615e-02,-1.433300781250000000e+01,5.229295045137405396e-02,-8.905833965400233865e-06,3.248267412185668945e+00,-5.284051876515150070e-03,3.961343099945224822e-05,1.639211783185601234e-03,-7.690926194190979004e-01,-5.010556429624557495e-02,5.000000000000000000e-01,-1.597813243279233575e-04,0.000000000000000000e+00
3.569011688232421875e-01,3.824154663085937500e+02,-1.383324337005615234e+01,-1.383324337005615234e+01,-1.089756637811660767e-01,1.797907257080078125e+02,-6.353758275508880615e-02,-1.406171226501464844e+01,5.158764868974685669e-02,-6.398199275281513110e-06,3.716792345046997070e+00,-9.662747383117675781e-03,3.435499820625409484e-05,1.408752636052668095e-03,-8.404293060302734375e-01,-5.262887477874755859e-02,5.000000000000000000e-01,-8.980886923382058740e-05,0.000000000000000000e+00
3.569011688232421875e-01,3.824154663085937500e+02,-1.383324337005615234e+01,-1.383324337005615234e+01,-1.089756637811660767e-01,1.797907257080078125e+02,-6.353758275508880615e-02,-1.406171226501464844e+01,5.158764868974685669e-02,-6.398199275281513110e-06,3.716792345046997070e+00,-9.662747383117675781e-03,3.435499820625409484e-05,1.408752636052668095e-03,-8.404293060302734375e-01,-5.262887477874755859e-02,5.000000000000000000e-01,-8.980886923382058740e-05,0.000000000000000000e+00
3.569011688232421875e-01,3.824154663085937500e+02,-1.383324337005615234e+01,-1.383324337005615234e+01,-1.089756637811660767e-01,1.797907257080078125e+02,-6.353758275508880615e-02,-1.406171226501464844e+01,5.158764868974685669e-02,-6.398199275281513110e-06,3.716792345046997070e+00,-9.662747383117675781e-03,3.435499820625409484e-05,1.408752636052668095e-03,-8.404293060302734375e-01,-5.262887477874755859e-02,5.000000000000000000e-01,-8.980886923382058740e-05,0.000000000000000000e+00
3.569011688232421875e-01,3.824154663085937500e+02,-1.383324337005615234e+01,-1.383324337005615234e+01,-1.089756637811660767e-01,1.797907257080078125e+02,-6.353758275508880615e-02,-1.406171226501464844e+01,5.158764868974685669e-02,-6.398199275281513110e-06,3.716792345046997070e+00,-9.662747383117675781e-03,3.435499820625409484e-05,1.408752636052668095e-03,-8.404293060302734375e-01,-5.262887477874755859e-02,5.000000000000000000e-01,-8.980886923382058740e-05,0.000000000000000000e+00
4.765405654907226562e-01,3.814025268554687500e+02,-1.382955074310302734e+01,-1.382955074310302734e+01,-1.687944531440734863e-01,1.797870788574218750e+02,-6.323242187500000000e-02,-1.376109600067138672e+01,5.081462860107421875e-02,-9.306502761319279671e-06,2.512686252593994141e+00,-6.461250595748424530e-03,-2.430891254334710538e-05,1.471063354983925819e-03,-7.953206300735473633e-01,-4.780837148427963257e-02,5.000000000000000000e-01,-3.574916263460181653e-05,0.000000000000000000e+00
4.765405654907226562e-01,3.814025268554687500e+02,-1.382955074310302734e+01,-1.382955074310302734e+01,-1.687944531440734863e-01,1.797870788574218750e+02,-6.323242187500000000e-02,-1.376109600067138672e+01,5.081462860107421875e-02,-9.306502761319279671e-06,2.512686252593994141e+00,-6.461250595748424530e-03,-2.430891254334710538e-05,1.471063354983925819e-03,-7.953206300735473633e-01,-4.780837148427963257e-02,5.000000000000000000e-01,-3.574916263460181653e-05,0.000000000000000000e+00
4.765405654907226562e-01,3.814025268554687500e+02,-1.382955074310302734e+01,-1.382955074310302734e+01,-1.687944531440734863e-01,1.797870788574218750e+02,-6.323242187500000000e-02,-1.376109600067138672e+01,5.081462860107421875e-02,-9.306502761319279671e-06,2.512686252593994141e+00,-6.461250595748424530e-03,-2.430891254334710538e-05,1.471063354983925819e-03,-7.953206300735473633e-01,-4.780837148427963257e-02,5.000000000000000000e-01,-3.574916263460181653e-05,0.000000000000000000e+00
4.765405654907226562e-01,3.814025268554687500e+02,-1.382955074310302734e+01,-1.382955074310302734e+01,-1.687944531440734863e-01,1.797870788574218750e+02,-6.323242187500000000e-02,-1.376109600067138672e+01,5.081462860107421875e-02,-9.306502761319279671e-06,2.512686252593994141e+00,-6.461250595748424530e-03,-2.430891254334710538e-05,1.471063354983925819e-03,-7.953206300735473633e-01,-4.780837148427963257e-02,5.000000000000000000e-01,-3.574916263460181653e-05,0.000000000000000000e+00
4.765405654907226562e-01,3.814025268554687500e+02,-1.382955074310302734e+01,-1.382955074310302734e+01,-1.687944531440734863e-01,1.797870788574218750e+02,-6.323242187500000000e-02,-1.376109600067138672e+01,5.081462860107421875e-02,-9.306502761319279671e-06,2.512686252593994141e+00,-6.461250595748424530e-03,-2.430891254334710538e-05,1.471063354983925819e-03,-7.953206300735473633e-01,-4.780837148427963257e-02,5.000000000000000000e-01,-3.574916263460181653e-05,0.000000000000000000e+00
4.765405654907226562e-01,3.814025268554687500e+02,-1.382955074310302734e+01,-1.382955074310302734e+01,-1.687944531440734863e-01,1.797870788574218750e+02,-6.323242187500000000e-02,-1.376109600067138672e+01,5.081462860107421875e-02,-9.306502761319279671e-06,2.512686252593994141e+00,-6.461250595748424530e-03,-2.430891254334710538e-05,1.471063354983925819e-03,-7.953206300735473633e-01,-4.780837148427963257e-02,5.000000000000000000e-01,-3.574916263460181653e-05,0.000000000000000000e+00
4.765405654907226562e-01,3.814025268554687500e+02,-1.382955074310302734e+01,-1.382955074310302734e+01,-1.687944531440734863e-01,1.797870788574218750e+02,-6.323242187500000000e-02,-1.376109600067138672e+01,5.081462860107421875e-02,-9.306502761319279671e-06,2.512686252593994141e+00,-6.461250595748424530e-03,-2.430891254334710538e-05,1.471063354983925819e-03,-7.953206300735473633e-01,-4.780837148427963257e-02,5.000000000000000000e-01,-3.574916263460181653e-05,0.000000000000000000e+00
6.200885772705078125e-01,3.800492858886718750e+02,-1.382457828521728516e+01,-1.382457828521728516e+01,-2.345281988382339478e-01,1.797835540771484375e+02,-6.292723119258880615e-02,-1.341061592102050781e+01,4.977588728070259094e-02,-1.050773971655871719e-05,2.441553115844726562e+00,-7.236194796860218048e-03,-8.368189810425974429e-06,1.283367862924933434e-03,-4.628702700138092041e-01,-2.638019435107707977e-02,1.000000000000000000e+00,4.621233165380544960e-05,0.000000000000000000e+00
6.200885772705078125e-01,3.800492858886718750e+02,-1.382457828521728516e+01,-1.382457828521728516e+01,-2.345281988382339478e-01,1.797835540771484375e+02,-6.292723119258880615e-02,-1.341061592102050781e+01,4.977588728070259094e-02,-1.050773971655871719e-05,2.441553115844726562e+00,-7.236194796860218048e-03,-8.368189810425974429e-06,1.283367862924933434e-03,-4.628702700138092041e-01,-2.638019435107707977e-02,1.000000000000000000e+00,4.621233165380544960e-05,0.000000000000000000e+00
6.200885772705078125e-01,3.800492858886718750e+02,-1.382457828521728516e+01,-1.382457828521728516e+01,-2.345281988382339478e-01,1.797835540771484375e+02,-6.292723119258880615e-02,-1.341061592102050781e+01,4.977588728070259094e-02,-1.050773971655871719e-05,2.441553115844726562e+00,-7.236194796860218048e-03,-8.368189810425974429e-06,1.283367862924933434e-03,-4.628702700138092041e-01,-2.638019435107707977e-02,1.000000000000000000e+00,4.621233165380544960e-05,0.000000000000000000e+00
6.200885772705078125e-01,3.800492858886718750e+02,-1.382457828521728516e+01,-1.382457828521728516e+01,-2.345281988382339478e-01,1.797835540771484375e+02,-6.292723119258880615e-02,-1.341061592102050781e+01,4.977588728070259094e-02,-1.050773971655871719e-05,2.441553115844726562e+00,-7.236194796860218048e-03,-8.368189810425974429e-06,1.283367862924933434e-03,-4.628702700138092041e-01,-2.638019435107707977e-02,1.000000000000000000e+00,4.621233165380544960e-05,0.000000000000000000e+00
6.200885772705078125e-01,3.800492858886718750e+02,-1.382457828521728516e+01,-1.382457828521728516e+01,-2.345281988382339478e-01,1.797835540771484375e+02,-6.292723119258880615e-02,-1.341061592102050781e+01,4.977588728070259094e-02,-1.050773971655871719e-05,2.441553115844726562e+00,-7.236194796860218048e-03,-8.368189810425974429e-06,1.283367862924933434e-03,-4.628702700138092041e-01,-2.638019435107707977e-02,1.000000000000000000e+00,4.621233165380544960e-05,0.000000000000000000e+00
6.200885772705078125e-01,3.800492858886718750e+02,-1.382457828521728516e+01,-1.382457828521728516e+01,-2.345281988382339478e-01,1.797835540771484375e+02,-6.292723119258880615e-02,-1.341061592102050781e+01,4.977588728070259094e-02,-1.050773971655871719e-05,2.441553115844726562e+00,-7.236194796860218048e-03,-8.368189810425974429e-06,1.283367862924933434e-03,-4.628702700138092041e-01,-2.638019435107707977e-02,1.000000000000000000e+00,4.621233165380544960e-05,0.000000000000000000e+00
7.946169376373291016e-01,3.787123718261718750e+02,-1.381963348388671875e+01,-1.381963348388671875e+01,-2.404772937297821045e-01,1.797833557128906250e+02,-6.292723864316940308e-02,-1.337921237945556641e+01,4.945734515786170959e-02,4.348029960965504870e-06,1.799337416887283325e-01,-1.825159648433327675e-03,8.511952182743698359e-05,-2.498971007298678160e-04,2.149623483419418335e-01,1.368431188166141510e-02,1.000000000000000000e+00,1.307896163780242205e-04,0.000000000000000000e+00
7.946169376373291016e-01,3.787123718261718750e+02,-1.381963348388671875e+01,-1.381963348388671875e+01,-2.404772937297821045e-01,1.797833557128906250e+02,-6.292723864316940308e-02,-1.337921237945556641e+01,4.945734515786170959e-02,4.348029960965504870e-06,1.799337416887283325e-01,-1.825159648433327675e-03,8.511952182743698359e-05,-2.498971007298678160e-04,2.149623483419418335e-01,1.368431188166141510e-02,1.000000000000000000e+00,1.307896163780242205e-04,0.000000000000000000e+00
7.946169376373291016e-01,3.787123718261718750e+02,-1.381963348388671875e+01,-1.381963348388671875e+01,-2.404772937297821045e-01,1.797833557128906250e+02,-6.292723864316940308e-02,-1.337921237945556641e+01,4.945734515786170959e-02,4.348029960965504870e-06,1.799337416887283325e-01,-1.825159648433327675e-03,8.511952182743698359e-05,-2.498971007298678160e-04,2.149623483419418335e-01,1.368431188166141510e-02,1.000000000000000000e+00,1.307896163780242205e-04,0.000000000000000000e+00
8.783230781555175781e-01,3.773647460937500000e+02,-1.381464767456054688e+01,-1.381464767456054688e+01,-1.932670176029205322e-01,1.797866058349609375e+02,-6.323240697383880615e-02,-1.355981254577636719e+01,4.961051791906356812e-02,2.103454789903480560e-05,-2.157549858093261719e+00,1.829886808991432190e-03,1.993463956750929356e-04,-1.806599088013172150e-03,6.050696372985839844e-01,4.355221241712570190e-02,1.000000000000000000e+00,1.549856970086693764e-04,0.000000000000000000e+00
8.783230781555175781e-01,3.773647460937500000e+02,-1.381464767456054688e+01,-1.381464767456054688e+01,-1.932670176029205322e-01,1.797866058349609375e+02,-6.323240697383880615e-02,-1.355981254577636719e+01,4.961051791906356812e-02,2.103454789903480560e-05,-2.157549858093261719e+00,1.829886808991432190e-03,1.993463956750929356e-04,-1.806599088013172150e-03,6.050696372985839844e-01,4.355221241712570190e-02,1.000000000000000000e+00,1.549856970086693764e-04,0.000000000000000000e+00
8.783230781555175781e-01,3.773647460937500000e+02,-1.381464767456054688e+01,-1.381464767456054688e+01,-1.932670176029205322e-01,1.797866058349609375e+02,-6.323240697383880615e-02,-1.355981254577636719e+01,4.961051791906356812e-02,2.103454789903480560e-05,-2.157549858093261719e+00,1.829886808991432190e-03,1.993463956750929356e-04,-1.806599088013172150e-03,6.050696372985839844e-01,4.355221241712570190e-02,1.000000000000000000e+00,1.549856970086693764e-04,0.000000000000000000e+00
9.483780860900878906e-01,3.762178344726562500e+02,-1.381042861938476562e+01,-1.381042861938476562e+01,-1.382771730422973633e-01,1.797906494140625000e+02,-6.353757530450820923e-02,-1.380364608764648438e+01,5.010271817445755005e-02,2.052974195976275951e-05,-3.480601072311401367e+00,7.025911007076501846e-03,-7.205851034086663276e-06,-1.826503314077854156e-03,6.873947978019714355e-01,5.087804421782493591e-02,1.000000000000000000e+00,1.061575749190524220e-04,0.000000000000000000e+00
9.483780860900878906e-01,3.762178344726562500e+02,-1.381042861938476562e+01,-1.381042861938476562e+01,-1.382771730422973633e-01,1.797906494140625000e+02,-6.353757530450820923e-02,-1.380364608764648438e+01,5.010271817445755005e-02,2.052974195976275951e-05,-3.480601072311401367e+00,7.025911007076501846e-03,-7.205851034086663276e-06,-1.826503314077854156e-03,6.873947978019714355e-01,5.087804421782493591e-02,1.000000000000000000e+00,1.061575749190524220e-04,0.000000000000000000e+00
9.483780860900878906e-01,3.762178344726562500e+02,-1.381042861938476562e+01,-1.381042861938476562e+01,-1.382771730422973633e-01,1.797906494140625000e+02,-6.353757530450820923e-02,-1.380364608764648438e+01,5.010271817445755005e-02,2.052974195976275951e-05,-3.480601072311401367e+00,7.025911007076501846e-03,-7.205851034086663276e-06,-1.826503314077854156e-03,6.873947978019714355e-01,5.087804421782493591e-02,1.000000000000000000e+00,1.061575749190524220e-04,0.000000000000000000e+00
9.483780860900878906e-01,3.762178344726562500e+02,-1.381042861938476562e+01,-1.381042861938476562e+01,-1.382771730422973633e-01,1.797906494140625000e+02,-6.353757530450820923e-02,-1.380364608764648438e+01,5.010271817445755005e-02,2.052974195976275951e-05,-3.480601072311401367e+00,7.025911007076501846e-03,-7.205851034086663276e-06,-1.826503314077854156e-03,6.873947978019714355e-01,5.087804421782493591e-02,1.000000000000000000e+00,1.061575749190524220e-04,0.000000000000000000e+00
9.483780860900878906e-01,3.752407836914062500e+02,-1.380685997009277344e+01,-1.380685997009277344e+01,-9.164064377546310425e-02,1.797940521240234375e+02,-6.381225585937500000e-02,-1.401453971862792969e+01,5.052901059389114380e-02,1.210996651934692636e-05,-2.676348686218261719e+00,5.409870296716690063e-03,-1.068512792699038982e-04,-1.952756196260452271e-03,5.813735127449035645e-01,4.692142084240913391e-02,1.000000000000000000e+00,5.384172618505544960e-05,0.000000000000000000e+00
1.027177095413208008e+00,3.752407836914062500e+02,-1.380685997009277344e+01,-1.380685997009277344e+01,-9.164064377546310425e-02,1.797940521240234375e+02,-6.381225585937500000e-02,-1.401453971862792969e+01,5.052901059389114380e-02,1.210996651934692636e-05,-2.676348686218261719e+00,5.409870296716690063e-03,-1.068512792699038982e-04,-1.952756196260452271e-03,5.813735127449035645e-01,4.692142084240913391e-02,1.000000000000000000e+00,5.384172618505544960e-05,0.000000000000000000e+00
1.027177095413208008e+00,3.752407836914062500e+02,-1.380685997009277344e+01,-1.380685997009277344e+01,-9.164064377546310425e-02,1.797940521240234375e+02,-6.381225585937500000e-02,-1.401453971862792969e+01,5.052901059389114380e-02,1.210996651934692636e-05,-2.676348686218261719e+00,5.409870296716690063e-03,-1.068512792699038982e-04,-1.952756196260452271e-03,5.813735127449035645e-01,4.692142084240913391e-02,1.000000000000000000e+00,5.384172618505544960e-05,0.000000000000000000e+00
1.095043420791625977e+00,3.741373291015625000e+02,-1.380286216735839844e+01,-1.380286216735839844e+01,-7.419633865356445312e-02,1.797963256835937500e+02,-6.399534642696380615e-02,-1.399300384521484375e+01,5.032565817236900330e-02,3.775955065066227689e-06,3.173278272151947021e-01,-2.996366936713457108e-03,-1.228003820870071650e-04,-1.139133935794234276e-03,4.001114517450332642e-02,1.905605196952819824e-02,5.000000000000000000e-01,-2.288818359375000000e-05,0.000000000000000000e+00
1.095043420791625977e+00,3.741373291015625000e+02,-1.380286216735839844e+01,-1.380286216735839844e+01,-7.419633865356445312e-02,1.797963256835937500e+02,-6.399534642696380615e-02,-1.399300384521484375e+01,5.032565817236900330e-02,3.775955065066227689e-06,3.173278272151947021e-01,-2.996366936713457108e-03,-1.228003820870071650e-04,-1.139133935794234276e-03,4.001114517450332642e-02,1.905605196952819824e-02,5.000000000000000000e-01,-2.288818359375000000e-05,0.000000000000000000e+00
1.095043420791625977e+00,3.741373291015625000e+02,-1.380286216735839844e+01,-1.380286216735839844e+01,-7.419633865356445312e-02,1.797963256835937500e+02,-6.399534642696380615e-02,-1.399300384521484375e+01,5.032565817236900330e-02,3.775955065066227689e-06,3.173278272151947021e-01,-2.996366936713457108e-03,-1.228003820870071650e-04,-1.139133935794234276e-03,4.001114517450332642e-02,1.905605196952819824e-02,5.000000000000000000e-01,-2.288818359375000000e-05,0.000000000000000000e+00
1.095043420791625977e+00,3.741373291015625000e+02,-1.380286216735839844e+01,-1.380286216735839844e+01,-7.419633865356445312e-02,1.797963256835937500e+02,-6.399534642696380615e-02,-1.399300384521484375e+01,5.032565817236900330e-02,3.775955065066227689e-06,3.173278272151947021e-01,-2.996366936713457108e-03,-1.228003820870071650e-04,-1.139133935794234276e-03,4.001114517450332642e-02,1.905605196952819824e-02,5.000000000000000000e-01,-2.288818359375000000e-05,0.000000000000000000e+00
1.168572425842285156e+00,3.731885986328125000e+02,-1.379944038391113281e+01,-1.379944038391113281e+01,-7.940094172954559326e-02,1.797967834472656250e+02,-6.393431872129440308e-02,-1.397233963012695312e+01,5.030833557248115540e-02,-5.311244422046002001e-06,2.810348570346832275e-01,-2.355886535951867700e-04,-1.235865929629653692e-04,5.170150543563067913e-04,-1.302469968795776367e-01,6.000302528264001012e-05,5.000000000000000000e-01,-7.193429337348788977e-05,0.000000000000000000e+00
1.168572425842285156e+00,3.731885986328125000e+02,-1.379944038391113281e+01,-1.379944038391113281e+01,-7.940094172954559326e-02,1.797967834472656250e+02,-6.393431872129440308e-02,-1.397233963012695312e+01,5.030833557248115540e-02,-5.311244422046002001e-06,2.810348570346832275e-01,-2.355886535951867700e-04,-1.235865929629653692e-04,5.170150543563067913e-04,-1.302469968795776367e-01,6.000302528264001012e-05,5.000000000000000000e-01,-7.193429337348788977e-05,0.000000000000000000e+00
1.168572425842285156e+00,3.731885986328125000e+02,-1.379944038391113281e+01,-1.379944038391113281e+01,-7.940094172954559326e-02,1.797967834472656250e+02,-6.393431872129440308e-02,-1.397233963012695312e+01,5.030833557248115540e-02,-5.311244422046002001e-06,2.810348570346832275e-01,-2.355886535951867700e-04,-1.235865929629653692e-04,5.170150543563067913e-04,-1.302469968795776367e-01,6.000302528264001012e-05,5.000000000000000000e-01,-7.193429337348788977e-05,0.000000000000000000e+00
1.168572425842285156e+00,3.731885986328125000e+02,-1.379944038391113281e+01,-1.379944038391113281e+01,-7.940094172954559326e-02,1.797967834472656250e+02,-6.393431872129440308e-02,-1.397233963012695312e+01,5.030833557248115540e-02,-5.311244422046002001e-06,2.810348570346832275e-01,-2.355886535951867700e-04,-1.235865929629653692e-04,5.170150543563067913e-04,-1.302469968795776367e-01,6.000302528264001012e-05,5.000000000000000000e-01,-7.193429337348788977e-05,0.000000000000000000e+00
1.168572425842285156e+00,3.721622924804687500e+02,-1.379574394226074219e+01,-1.379574394226074219e+01,-9.161332249641418457e-02,1.797961273193359375e+02,-6.384275108575820923e-02,-1.394995784759521484e+01,5.038047581911087036e-02,-6.665203272859798744e-06,2.982311248779296875e-01,9.612490539439022541e-04,-1.804113162506837398e-05,1.129074487835168839e-03,-1.763088256120681763e-01,-1.353430841118097305e-02,5.000000000000000000e-01,-9.046281775226816535e-05,0.000000000000000000e+00
1.243620872497558594e+00,3.721622924804687500e+02,-1.379574394226074219e+01,-1.379574394226074219e+01,-9.161332249641418457e-02,1.797961273193359375e+02,-6.384275108575820923e-02,-1.394995784759521484e+01,5.038047581911087036e-02,-6.665203272859798744e-06,2.982311248779296875e-01,9.612490539439022541e-04,-1.804113162506837398e-05,1.129074487835168839e-03,-1.763088256120681763e-01,-1.353430841118097305e-02,5.000000000000000000e-01,-9.046281775226816535e-05,0.000000000000000000e+00
1.243620872497558594e+00,3.721622924804687500e+02,-1.379574394226074219e+01,-1.379574394226074219e+01,-9.161332249641418457e-02,1.797961273193359375e+02,-6.384275108575820923e-02,-1.394995784759521484e+01,5.038047581911087036e-02,-6.665203272859798744e-06,2.982311248779296875e-01,9.612490539439022541e-04,-1.804113162506837398e-05,1.129074487835168839e-03,-1.763088256120681763e-01,-1.353430841118097305e-02,5.000000000000000000e-01,-9.046281775226816535e-05,0.000000000000000000e+00
1.243620872497558594e+00,3.721622924804687500e+02,-1.379574394226074219e+01,-1.379574394226074219e+01,-9.161332249641418457e-02,1.797961273193359375e+02,-6.384275108575820923e-02,-1.394995784759521484e+01,5.038047581911087036e-02,-6.665203272859798744e-06,2.982311248779296875e-01,9.612490539439022541e-04,-1.804113162506837398e-05,1.129074487835168839e-03,-1.763088256120681763e-01,-1.353430841118097305e-02,5.000000000000000000e-01,-9.046281775226816535e-05,0.000000000000000000e+00
1.312042951583862305e+00,3.711165466308593750e+02,-1.379197025299072266e+01,-1.379197025299072266e+01,-1.044267565011978149e-01,1.797947540283203125e+02,-6.369017064571380615e-02,-1.392714405059814453e+01,5.055779218673706055e-02,-5.578157015406759456e-06,3.334274291992187500e-01,2.591508207842707634e-03,1.588736085977870971e-05,1.552081317640841007e-03,-1.619392931461334229e-01,-2.156597003340721130e-02,5.000000000000000000e-01,-9.743826376507058740e-05,0.000000000000000000e+00
1.312042951583862305e+00,3.711165466308593750e+02,-1.379197025299072266e+01,-1.379197025299072266e+01,-1.044267565011978149e-01,1.797947540283203125e+02,-6.369017064571380615e-02,-1.392714405059814453e+01,5.055779218673706055e-02,-5.578157015406759456e-06,3.334274291992187500e-01,2.591508207842707634e-03,1.588736085977870971e-05,1.552081317640841007e-03,-1.619392931461334229e-01,-2.156597003340721130e-02,5.000000000000000000e-01,-9.743826376507058740e-05,0.000000000000000000e+00
1.312042951583862305e+00,3.701644897460937500e+02,-1.378852272033691406e+01,-1.378852272033691406e+01,-1.142007559537887573e-01,1.797932586669921875e+02,-6.356811523437500000e-02,-1.390637779235839844e+01,5.064129084348678589e-02,-3.899994226230774075e-06,2.921269834041595459e-01,1.174607896246016026e-03,2.360736471018753946e-05,1.022825133986771107e-03,-1.312091201543807983e-01,-2.186919562518596649e-02,5.000000000000000000e-01,-7.237025420181453228e-05,0.000000000000000000e+00
1.383129358291625977e+00,3.701644897460937500e+02,-1.378852272033691406e+01,-1.378852272033691406e+01,-1.142007559537887573e-01,1.797932586669921875e+02,-6.356811523437500000e-02,-1.390637779235839844e+01,5.064129084348678589e-02,-3.899994226230774075e-06,2.921269834041595459e-01,1.174607896246016026e-03,2.360736471018753946e-05,1.022825133986771107e-03,-1.312091201543807983e-01,-2.186919562518596649e-02,5.000000000000000000e-01,-7.237025420181453228e-05,0.000000000000000000e+00
1.383129358291625977e+00,3.701644897460937500e+02,-1.378852272033691406e+01,-1.378852272033691406e+01,-1.142007559537887573e-01,1.797932586669921875e+02,-6.356811523437500000e-02,-1.390637779235839844e+01,5.064129084348678589e-02,-3.899994226230774075e-06,2.921269834041595459e-01,1.174607896246016026e-03,2.360736471018753946e-05,1.022825133986771107e-03,-1.312091201543807983e-01,-2.186919562518596649e-02,5.000000000000000000e-01,-7.237025420181453228e-05,0.000000000000000000e+00
1.450951814651489258e+00,3.691769104003906250e+02,-1.378493499755859375e+01,-1.378493499755859375e+01,-1.222603768110275269e-01,1.797917633056640625e+02,-6.347655504941940308e-02,-1.388484477996826172e+01,5.075580626726150513e-02,-2.717585175560088828e-06,3.174909055233001709e-01,1.688458840362727642e-03,1.743388747854623944e-05,8.505927398800849915e-04,-1.010857746005058289e-01,-1.987381093204021454e-02,5.000000000000000000e-01,-5.754743324359878898e-05,0.000000000000000000e+00
1.450951814651489258e+00,3.691769104003906250e+02,-1.378493499755859375e+01,-1.378493499755859375e+01,-1.222603768110275269e-01,1.797917633056640625e+02,-6.347655504941940308e-02,-1.388484477996826172e+01,5.075580626726150513e-02,-2.717585175560088828e-06,3.174909055233001709e-01,1.688458840362727642e-03,1.743388747854623944e-05,8.505927398800849915e-04,-1.010857746005058289e-01,-1.987381093204021454e-02,5.000000000000000000e-01,-5.754743324359878898e-05,0.000000000000000000e+00
1.450951814651489258e+00,3.691769104003906250e+02,-1.378493499755859375e+01,-1.378493499755859375e+01,-1.222603768110275269e-01,1.797917633056640625e+02,-6.347655504941940308e-02,-1.388484477996826172e+01,5.075580626726150513e-02,-2.717585175560088828e-06,3.174909055233001709e-01,1.688458840362727642e-03,1.743388747854623944e-05,8.505927398800849915e-04,-1.010857746005058289e-01,-1.987381093204021454e-02,5.000000000000000000e-01,-5.754743324359878898e-05,0.000000000000000000e+00
1.527701377868652344e+00,3.682348327636718750e+02,-1.378149890899658203e+01,-1.378149890899658203e+01,-1.249036639928817749e-01,1.797907714843750000e+02,-6.344603002071380615e-02,-1.395204544067382812e+01,5.105539783835411072e-02,-2.517358552722726017e-06,-8.755836486816406250e-01,3.903495613485574722e-03,2.608830754979862832e-06,1.082134316675364971e-03,1.526184678077697754e-01,-8.580327033996582031e-03,1.000000000000000000e+00,-2.201625284214969724e-05,0.000000000000000000e+00
1.527701377868652344e+00,3.682348327636718750e+02,-1.378149890899658203e+01,-1.378149890899658203e+01,-1.249036639928817749e-01,1.797907714843750000e+02,-6.344603002071380615e-02,-1.395204544067382812e+01,5.105539783835411072e-02,-2.517358552722726017e-06,-8.755836486816406250e-01,3.903495613485574722e-03,2.608830754979862832e-06,1.082134316675364971e-03,1.526184678077697754e-01,-8.580327033996582031e-03,1.000000000000000000e+00,-2.201625284214969724e-05,0.000000000000000000e+00
1.527701377868652344e+00,3.682348327636718750e+02,-1.378149890899658203e+01,-1.378149890899658203e+01,-1.249036639928817749e-01,1.797907714843750000e+02,-6.344603002071380615e-02,-1.395204544067382812e+01,5.105539783835411072e-02,-2.517358552722726017e-06,-8.755836486816406250e-01,3.903495613485574722e-03,2.608830754979862832e-06,1.082134316675364971e-03,1.526184678077697754e-01,-8.580327033996582031e-03,1.000000000000000000e+00,-2.201625284214969724e-05,0.000000000000000000e+00
1.600134611129760742e+00,3.671429748535156250e+02,-1.377749824523925781e+01,-1.377749824523925781e+01,-7.891599833965301514e-02,1.797915039062500000e+02,-6.353759020566940308e-02,-1.438436508178710938e+01,5.259006470441818237e-02,5.988155407976591960e-06,-5.968525886535644531e+00,2.118733152747154236e-02,1.174255812657065690e-04,-4.160655953455716372e-05,7.309839725494384766e-01,1.853122748434543610e-02,5.000000000000000000e-01,-4.359654212748864666e-06,0.000000000000000000e+00
1.600134611129760742e+00,3.671429748535156250e+02,-1.377749824523925781e+01,-1.377749824523925781e+01,-7.891599833965301514e-02,1.797915039062500000e+02,-6.353759020566940308e-02,-1.438436508178710938e+01,5.259006470441818237e-02,5.988155407976591960e-06,-5.968525886535644531e+00,2.118733152747154236e-02,1.174255812657065690e-04,-4.160655953455716372e-05,7.309839725494384766e-01,1.853122748434543610e-02,5.000000000000000000e-01,-4.359654212748864666e-06,0.000000000000000000e+00
1.600134611129760742e+00,3.671429748535156250e+02,-1.377749824523925781e+01,-1.377749824523925781e+01,-7.891599833965301514e-02,1.797915039062500000e+02,-6.353759020566940308e-02,-1.438436508178710938e+01,5.259006470441818237e-02,5.988155407976591960e-06,-5.968525886535644531e+00,2.118733152747154236e-02,1.174255812657065690e-04,-4.160655953455716372e-05,7.309839725494384766e-01,1.853122748434543610e-02,5.000000000000000000e-01,-4.359654212748864666e-06,0.000000000000000000e+00
1.600134611129760742e+00,3.671429748535156250e+02,-1.377749824523925781e+01,-1.377749824523925781e+01,-7.891599833965301514e-02,1.797915039062500000e+02,-6.353759020566940308e-02,-1.438436508178710938e+01,5.259006470441818237e-02,5.988155407976591960e-06,-5.968525886535644531e+00,2.118733152747154236e-02,1.174255812657065690e-04,-4.160655953455716372e-05,7.309839725494384766e-01,1.853122748434543610e-02,5.000000000000000000e-01,-4.359654212748864666e-06,0.000000000000000000e+00
1.600134611129760742e+00,3.671429748535156250e+02,-1.377749824523925781e+01,-1.377749824523925781e+01,-7.891599833965301514e-02,1.797915039062500000e+02,-6.353759020566940308e-02,-1.438436508178710938e+01,5.259006470441818237e-02,5.988155407976591960e-06,-5.968525886535644531e+00,2.118733152747154236e-02,1.174255812657065690e-04,-4.160655953455716372e-05,7.309839725494384766e-01,1.853122748434543610e-02,5.000000000000000000e-01,-4.359654212748864666e-06,0.000000000000000000e+00
1.600134611129760742e+00,3.660888977050781250e+02,-1.377363395690917969e+01,-1.377363395690917969e+01,-3.354305773973464966e-02,1.797931976318359375e+02,-6.381224095821380615e-02,-1.463595771789550781e+01,5.332257226109504700e-02,4.128811724513070658e-06,-2.180578231811523438e+00,6.348715629428625107e-03,-1.611511652299668640e-05,-1.753952587023377419e-03,5.120274424552917480e-01,2.412272430956363678e-02,5.000000000000000000e-01,-8.283343049697577953e-06,0.000000000000000000e+00
1.715513467788696289e+00,3.660888977050781250e+02,-1.377363395690917969e+01,-1.377363395690917969e+01,-3.354305773973464966e-02,1.797931976318359375e+02,-6.381224095821380615e-02,-1.463595771789550781e+01,5.332257226109504700e-02,4.128811724513070658e-06,-2.180578231811523438e+00,6.348715629428625107e-03,-1.611511652299668640e-05,-1.753952587023377419e-03,5.120274424552917480e-01,2.412272430956363678e-02,5.000000000000000000e-01,-8.283343049697577953e-06,0.000000000000000000e+00
1.715513467788696289e+00,3.660888977050781250e+02,-1.377363395690917969e+01,-1.377363395690917969e+01,-3.354305773973464966e-02,1.797931976318359375e+02,-6.381224095821380615e-02,-1.463595771789550781e+01,5.332257226109504700e-02,4.128811724513070658e-06,-2.180578231811523438e+00,6.348715629428625107e-03,-1.611511652299668640e-05,-1.753952587023377419e-03,5.120274424552917480e-01,2.412272430956363678e-02,5.000000000000000000e-01,-8.283343049697577953e-06,0.000000000000000000e+00
1.715513467788696289e+00,3.660888977050781250e+02,-1.377363395690917969e+01,-1.377363395690917969e+01,-3.354305773973464966e-02,1.797931976318359375e+02,-6.381224095821380615e-02,-1.463595771789550781e+01,5.332257226109504700e-02,4.128811724513070658e-06,-2.180578231811523438e+00,6.348715629428625107e-03,-1.611511652299668640e-05,-1.753952587023377419e-03,5.120274424552917480e-01,2.412272430956363678e-02,5.000000000000000000e-01,-8.283343049697577953e-06,0.000000000000000000e+00
1.813115119934082031e+00,3.646155090332031250e+02,-1.376826000213623047e+01,-1.376826000213623047e+01,-1.193233951926231384e-02,1.797948150634765625e+02,-6.402586400508880615e-02,-1.477330684661865234e+01,5.360564589500427246e-02,-1.678187118159257807e-06,-1.407241940498352051e+00,2.900295658037066460e-03,-5.949693513684906065e-05,-1.570302760228514671e-03,3.973602317273616791e-03,1.069462858140468597e-02,5.000000000000000000e-01,-3.771100818994455040e-05,0.000000000000000000e+00
1.813115119934082031e+00,3.646155090332031250e+02,-1.376826000213623047e+01,-1.376826000213623047e+01,-1.193233951926231384e-02,1.797948150634765625e+02,-6.402586400508880615e-02,-1.477330684661865234e+01,5.360564589500427246e-02,-1.678187118159257807e-06,-1.407241940498352051e+00,2.900295658037066460e-03,-5.949693513684906065e-05,-1.570302760228514671e-03,3.973602317273616791e-03,1.069462858140468597e-02,5.000000000000000000e-01,-3.771100818994455040e-05,0.000000000000000000e+00
1.813115119934082031e+00,3.646155090332031250e+02,-1.376826000213623047e+01,-1.376826000213623047e+01,-1.193233951926231384e-02,1.797948150634765625e+02,-6.402586400508880615e-02,-1.477330684661865234e+01,5.360564589500427246e-02,-1.678187118159257807e-06,-1.407241940498352051e+00,2.900295658037066460e-03,-5.949693513684906065e-05,-1.570302760228514671e-03,3.973602317273616791e-03,1.069462858140468597e-02,5.000000000000000000e-01,-3.771100818994455040e-05,0.000000000000000000e+00
1.813115119934082031e+00,3.631729736328125000e+02,-1.376302433013916016e+01,-1.376302433013916016e+01,-3.040117025375366211e-02,1.797948303222656250e+02,-6.402587145566940308e-02,-1.477495956420898438e+01,5.360247194766998291e-02,-7.103717962309019640e-06,-1.990752667188644409e-02,-3.823123915935866535e-05,-6.535230204463005066e-05,-9.013268027047161013e-06,-2.886074781417846680e-01,-6.348282098770141602e-03,5.000000000000000000e-01,-6.604875670745968819e-05,0.000000000000000000e+00
1.896134853363037109e+00,3.631729736328125000e+02,-1.376302433013916016e+01,-1.376302433013916016e+01,-3.040117025375366211e-02,1.797948303222656250e+02,-6.402587145566940308e-02,-1.477495956420898438e+01,5.360247194766998291e-02,-7.103717962309019640e-06,-1.990752667188644409e-02,-3.823123915935866535e-05,-6.535230204463005066e-05,-9.013268027047161013e-06,-2.886074781417846680e-01,-6.348282098770141602e-03,5.000000000000000000e-01,-6.604875670745968819e-05,0.000000000000000000e+00
1.896134853363037109e+00,3.631729736328125000e+02,-1.376302433013916016e+01,-1.376302433013916016e+01,-3.040117025375366211e-02,1.797948303222656250e+02,-6.402587145566940308e-02,-1.477495956420898438e+01,5.360247194766998291e-02,-7.103717962309019640e-06,-1.990752667188644409e-02,-3.823123915935866535e-05,-6.535230204463005066e-05,-9.013268027047161013e-06,-2.886074781417846680e-01,-6.348282098770141602e-03,5.000000000000000000e-01,-6.604875670745968819e-05,0.000000000000000000e+00
1.896134853363037109e+00,3.631729736328125000e+02,-1.376302433013916016e+01,-1.376302433013916016e+01,-3.040117025375366211e-02,1.797948303222656250e+02,-6.402587145566940308e-02,-1.477495956420898438e+01,5.360247194766998291e-02,-7.103717962309019640e-06,-1.990752667188644409e-02,-3.823123915935866535e-05,-6.535230204463005066e-05,-9.013268027047161013e-06,-2.886074781417846680e-01,-6.348282098770141602e-03,5.000000000000000000e-01,-6.604875670745968819e-05,0.000000000000000000e+00
1.896134853363037109e+00,3.631729736328125000e+02,-1.376302433013916016e+01,-1.376302433013916016e+01,-3.040117025375366211e-02,1.797948303222656250e+02,-6.402587145566940308e-02,-1.477495956420898438e+01,5.360247194766998291e-02,-7.103717962309019640e-06,-1.990752667188644409e-02,-3.823123915935866535e-05,-6.535230204463005066e-05,-9.013268027047161013e-06,-2.886074781417846680e-01,-6.348282098770141602e-03,5.000000000000000000e-01,-6.604875670745968819e-05,0.000000000000000000e+00
1.896134853363037109e+00,3.631729736328125000e+02,-1.376302433013916016e+01,-1.376302433013916016e+01,-3.040117025375366211e-02,1.797948303222656250e+02,-6.402587145566940308e-02,-1.477495956420898438e+01,5.360247194766998291e-02,-7.103717962309019640e-06,-1.990752667188644409e-02,-3.823123915935866535e-05,-6.535230204463005066e-05,-9.013268027047161013e-06,-2.886074781417846680e-01,-6.348282098770141602e-03,5.000000000000000000e-01,-6.604875670745968819e-05,0.000000000000000000e+00
1.896134853363037109e+00,3.631729736328125000e+02,-1.376302433013916016e+01,-1.376302433013916016e+01,-3.040117025375366211e-02,1.797948303222656250e+02,-6.402587145566940308e-02,-1.477495956420898438e+01,5.360247194766998291e-02,-7.103717962309019640e-06,-1.990752667188644409e-02,-3.823123915935866535e-05,-6.535230204463005066e-05,-9.013268027047161013e-06,-2.886074781417846680e-01,-6.348282098770141602e-03,5.000000000000000000e-01,-6.604875670745968819e-05,0.000000000000000000e+00
1.896134853363037109e+00,3.631729736328125000e+02,-1.376302433013916016e+01,-1.376302433013916016e+01,-3.040117025375366211e-02,1.797948303222656250e+02,-6.402587145566940308e-02,-1.477495956420898438e+01,5.360247194766998291e-02,-7.103717962309019640e-06,-1.990752667188644409e-02,-3.823123915935866535e-05,-6.535230204463005066e-05,-9.013268027047161013e-06,-2.886074781417846680e-01,-6.348282098770141602e-03,5.000000000000000000e-01,-6.604875670745968819e-05,0.000000000000000000e+00
2.195794820785522461e+00,3.591960449218750000e+02,-1.374857234954833984e+01,-1.374857234954833984e+01,-1.143236979842185974e-01,1.797903900146484375e+02,-6.353759765625000000e-02,-1.461121177673339844e+01,5.351336300373077393e-02,4.386260741284786491e-07,1.133548617362976074e+00,-2.120181219652295113e-03,9.845945169217884541e-05,5.388366407714784145e-04,-2.312819361686706543e-01,-1.618958823382854462e-02,5.000000000000000000e-01,-2.746581958490423858e-05,0.000000000000000000e+00
2.195794820785522461e+00,3.591960449218750000e+02,-1.374857234954833984e+01,-1.374857234954833984e+01,-1.143236979842185974e-01,1.797903900146484375e+02,-6.353759765625000000e-02,-1.461121177673339844e+01,5.351336300373077393e-02,4.386260741284786491e-07,1.133548617362976074e+00,-2.120181219652295113e-03,9.845945169217884541e-05,5.388366407714784145e-04,-2.312819361686706543e-01,-1.618958823382854462e-02,5.000000000000000000e-01,-2.746581958490423858e-05,0.000000000000000000e+00
2.195794820785522461e+00,3.591960449218750000e+02,-1.374857234954833984e+01,-1.374857234954833984e+01,-1.143236979842185974e-01,1.797903900146484375e+02,-6.353759765625000000e-02,-1.461121177673339844e+01,5.351336300373077393e-02,4.386260741284786491e-07,1.133548617362976074e+00,-2.120181219652295113e-03,9.845945169217884541e-05,5.388366407714784145e-04,-2.312819361686706543e-01,-1.618958823382854462e-02,5.000000000000000000e-01,-2.746581958490423858e-05,0.000000000000000000e+00
2.195794820785522461e+00,3.591960449218750000e+02,-1.374857234954833984e+01,-1.374857234954833984e+01,-1.143236979842185974e-01,1.797903900146484375e+02,-6.353759765625000000e-02,-1.461121177673339844e+01,5.351336300373077393e-02,4.386260741284786491e-07,1.133548617362976074e+00,-2.120181219652295113e-03,9.845945169217884541e-05,5.388366407714784145e-04,-2.312819361686706543e-01,-1.618958823382854462e-02,5.000000000000000000e-01,-2.746581958490423858e-05,0.000000000000000000e+00
2.195794820785522461e+00,3.591960449218750000e+02,-1.374857234954833984e+01,-1.374857234954833984e+01,-1.143236979842185974e-01,1.797903900146484375e+02,-6.353759765625000000e-02,-1.461121177673339844e+01,5.351336300373077393e-02,4.386260741284786491e-07,1.133548617362976074e+00,-2.120181219652295113e-03,9.845945169217884541e-05,5.388366407714784145e-04,-2.312819361686706543e-01,-1.618958823382854462e-02,5.000000000000000000e-01,-2.746581958490423858e-05,0.000000000000000000e+00
2.195794820785522461e+00,3.591960449218750000e+02,-1.374857234954833984e+01,-1.374857234954833984e+01,-1.143236979842185974e-01,1.797903900146484375e+02,-6.353759765625000000e-02,-1.461121177673339844e+01,5.351336300373077393e-02,4.386260741284786491e-07,1.133548617362976074e+00,-2.120181219652295113e-03,9.845945169217884541e-05,5.388366407714784145e-04,-2.312819361686706543e-01,-1.618958823382854462e-02,5.000000000000000000e-01,-2.746581958490423858e-05,0.000000000000000000e+00
2.195794820785522461e+00,3.591960449218750000e+02,-1.374857234954833984e+01,-1.374857234954833984e+01,-1.143236979842185974e-01,1.797903900146484375e+02,-6.353759765625000000e-02,-1.461121177673339844e+01,5.351336300373077393e-02,4.386260741284786491e-07,1.133548617362976074e+00,-2.120181219652295113e-03,9.845945169217884541e-05,5.388366407714784145e-04,-2.312819361686706543e-01,-1.618958823382854462e-02,5.000000000000000000e-01,-2.746581958490423858e-05,0.000000000000000000e+00
2.195794820785522461e+00,3.591960449218750000e+02,-1.374857234954833984e+01,-1.374857234954833984e+01,-1.143236979842185974e-01,1.797903900146484375e+02,-6.353759765625000000e-02,-1.461121177673339844e+01,5.351336300373077393e-02,4.386260741284786491e-07,1.133548617362976074e+00,-2.120181219652295113e-03,9.845945169217884541e-05,5.388366407714784145e-04,-2.312819361686706543e-01,-1.618958823382854462e-02,5.000000000000000000e-01,-2.746581958490423858e-05,0.000000000000000000e+00
2.195794820785522461e+00,3.591960449218750000e+02,-1.374857234954833984e+01,-1.374857234954833984e+01,-1.143236979842185974e-01,1.797903900146484375e+02,-6.353759765625000000e-02,-1.461121177673339844e+01,5.351336300373077393e-02,4.386260741284786491e-07,1.133548617362976074e+00,-2.120181219652295113e-03,9.845945169217884541e-05,5.388366407714784145e-04,-2.312819361686706543e-01,-1.618958823382854462e-02,5.000000000000000000e-01,-2.746581958490423858e-05,0.000000000000000000e+00
2.195794820785522461e+00,3.591960449218750000e+02,-1.374857234954833984e+01,-1.374857234954833984e+01,-1.143236979842185974e-01,1.797903900146484375e+02,-6.353759765625000000e-02,-1.461121177673339844e+01,5.351336300373077393e-02,4.386260741284786491e-07,1.133548617362976074e+00,-2.120181219652295113e-03,9.845945169217884541e-05,5.388366407714784145e-04,-2.312819361686706543e-01,-1.618958823382854462e-02,5.000000000000000000e-01,-2.746581958490423858e-05,0.000000000000000000e+00
2.374083757400512695e+00,3.584219360351562500e+02,-1.374574470520019531e+01,-1.374574470520019531e+01,-1.250265985727310181e-01,1.797897186279296875e+02,-6.347654014825820923e-02,-1.457469558715820312e+01,5.336390435695648193e-02,5.911996368013205938e-07,2.048146724700927734e-01,-8.382945670746266842e-04,8.557657338315038942e-07,-3.404783228688756935e-07,-1.874246597290039062e-01,-1.083839405328035355e-02,5.000000000000000000e-01,7.193429155449848622e-06,0.000000000000000000e+00
2.374083757400512695e+00,3.584219360351562500e+02,-1.374574470520019531e+01,-1.374574470520019531e+01,-1.250265985727310181e-01,1.797897186279296875e+02,-6.347654014825820923e-02,-1.457469558715820312e+01,5.336390435695648193e-02,5.911996368013205938e-07,2.048146724700927734e-01,-8.382945670746266842e-04,8.557657338315038942e-07,-3.404783228688756935e-07,-1.874246597290039062e-01,-1.083839405328035355e-02,5.000000000000000000e-01,7.193429155449848622e-06,0.000000000000000000e+00
2.374083757400512695e+00,3.584219360351562500e+02,-1.374574470520019531e+01,-1.374574470520019531e+01,-1.250265985727310181e-01,1.797897186279296875e+02,-6.347654014825820923e-02,-1.457469558715820312e+01,5.336390435695648193e-02,5.911996368013205938e-07,2.048146724700927734e-01,-8.382945670746266842e-04,8.557657338315038942e-07,-3.404783228688756935e-07,-1.874246597290039062e-01,-1.083839405328035355e-02,5.000000000000000000e-01,7.193429155449848622e-06,0.000000000000000000e+00
2.447860002517700195e+00,3.569685058593750000e+02,-1.374042892456054688e+01,-1.374042892456054688e+01,-1.402579247951507568e-01,1.797891693115234375e+02,-6.344603002071380615e-02,-1.450700664520263672e+01,5.311273783445358276e-02,1.773538656379969325e-06,9.174896478652954102e-01,-3.404436400160193443e-03,1.602601332706399262e-05,-3.191379437339492142e-05,-1.228448525071144104e-01,-2.542972564697265625e-03,5.000000000000000000e-01,2.267020136059727520e-05,0.000000000000000000e+00
2.447860002517700195e+00,3.569685058593750000e+02,-1.374042892456054688e+01,-1.374042892456054688e+01,-1.402579247951507568e-01,1.797891693115234375e+02,-6.344603002071380615e-02,-1.450700664520263672e+01,5.311273783445358276e-02,1.773538656379969325e-06,9.174896478652954102e-01,-3.404436400160193443e-03,1.602601332706399262e-05,-3.191379437339492142e-05,-1.228448525071144104e-01,-2.542972564697265625e-03,5.000000000000000000e-01,2.267020136059727520e-05,0.000000000000000000e+00
2.500878810882568359e+00,3.559004516601562500e+02,-1.373652172088623047e+01,-1.373652172088623047e+01,-1.473066806793212891e-01,1.797892913818359375e+02,-6.344602257013320923e-02,-1.445843982696533203e+01,5.286729708313941956e-02,4.843950137001229450e-06,9.160299897193908691e-01,-4.629314877092838287e-03,5.791173680336214602e-05,-3.131357952952384949e-04,-8.166504651308059692e-02,2.632432850077748299e-03,5.000000000000000000e-01,3.858293712255544960e-05,0.000000000000000000e+00
2.500878810882568359e+00,3.559004516601562500e+02,-1.373652172088623047e+01,-1.373652172088623047e+01,-1.473066806793212891e-01,1.797892913818359375e+02,-6.344602257013320923e-02,-1.445843982696533203e+01,5.286729708313941956e-02,4.843950137001229450e-06,9.160299897193908691e-01,-4.629314877092838287e-03,5.791173680336214602e-05,-3.131357952952384949e-04,-8.166504651308059692e-02,2.632432850077748299e-03,5.000000000000000000e-01,3.858293712255544960e-05,0.000000000000000000e+00
2.500878810882568359e+00,3.551351013183593750e+02,-1.373372364044189453e+01,-1.373372364044189453e+01,-1.508788764476776123e-01,1.797895355224609375e+02,-6.344603002071380615e-02,-1.442434406280517578e+01,5.265061184763908386e-02,2.240837375211413018e-06,5.748094916343688965e-01,-3.653026418760418892e-03,-4.388503657537512481e-05,-5.272480193525552750e-04,-5.970574915409088135e-02,5.975097417831420898e-03,5.000000000000000000e-01,4.926409019390121102e-05,0.000000000000000000e+00
2.560195446014404297e+00,3.551351013183593750e+02,-1.373372364044189453e+01,-1.373372364044189453e+01,-1.508788764476776123e-01,1.797895355224609375e+02,-6.344603002071380615e-02,-1.442434406280517578e+01,5.265061184763908386e-02,2.240837375211413018e-06,5.748094916343688965e-01,-3.653026418760418892e-03,-4.388503657537512481e-05,-5.272480193525552750e-04,-5.970574915409088135e-02,5.975097417831420898e-03,5.000000000000000000e-01,4.926409019390121102e-05,0.000000000000000000e+00
2.560195446014404297e+00,3.551351013183593750e+02,-1.373372364044189453e+01,-1.373372364044189453e+01,-1.508788764476776123e-01,1.797895355224609375e+02,-6.344603002071380615e-02,-1.442434406280517578e+01,5.265061184763908386e-02,2.240837375211413018e-06,5.748094916343688965e-01,-3.653026418760418892e-03,-4.388503657537512481e-05,-5.272480193525552750e-04,-5.970574915409088135e-02,5.975097417831420898e-03,5.000000000000000000e-01,4.926409019390121102e-05,0.000000000000000000e+00
2.618730545043945312e+00,3.542809448242187500e+02,-1.373060226440429688e+01,-1.373060226440429688e+01,-1.537816971540451050e-01,1.797899322509765625e+02,-6.347654759883880615e-02,-1.438701057434082031e+01,5.246874317526817322e-02,3.861808181682135910e-06,6.377966403961181641e-01,-3.107002004981040955e-03,2.769228740362450480e-05,-2.713525900617241859e-04,-4.216482862830162048e-02,7.159648463129997253e-03,5.000000000000000000e-01,3.967285010730847716e-05,0.000000000000000000e+00
2.618730545043945312e+00,3.542809448242187500e+02,-1.373060226440429688e+01,-1.373060226440429688e+01,-1.537816971540451050e-01,1.797899322509765625e+02,-6.347654759883880615e-02,-1.438701057434082031e+01,5.246874317526817322e-02,3.861808181682135910e-06,6.377966403961181641e-01,-3.107002004981040955e-03,2.769228740362450480e-05,-2.713525900617241859e-04,-4.216482862830162048e-02,7.159648463129997253e-03,5.000000000000000000e-01,3.967285010730847716e-05,0.000000000000000000e+00
2.677334070205688477e+00,3.534401245117187500e+02,-1.372753524780273438e+01,-1.372753524780273438e+01,-1.557009816169738770e-01,1.797903442382812500e+02,-6.347654759883880615e-02,-1.435101509094238281e+01,5.226416885852813721e-02,3.756926844289409928e-06,6.142204403877258301e-01,-3.490819362923502922e-03,-1.789676275620877277e-06,-2.402330719633027911e-04,-2.775420621037483215e-02,7.849145680665969849e-03,5.000000000000000000e-01,3.945486969314515591e-05,0.000000000000000000e+00
2.677334070205688477e+00,3.534401245117187500e+02,-1.372753524780273438e+01,-1.372753524780273438e+01,-1.557009816169738770e-01,1.797903442382812500e+02,-6.347654759883880615e-02,-1.435101509094238281e+01,5.226416885852813721e-02,3.756926844289409928e-06,6.142204403877258301e-01,-3.490819362923502922e-03,-1.789676275620877277e-06,-2.402330719633027911e-04,-2.775420621037483215e-02,7.849145680665969849e-03,5.000000000000000000e-01,3.945486969314515591e-05,0.000000000000000000e+00
2.677334070205688477e+00,3.534401245117187500e+02,-1.372753524780273438e+01,-1.372753524780273438e+01,-1.557009816169738770e-01,1.797903442382812500e+02,-6.347654759883880615e-02,-1.435101509094238281e+01,5.226416885852813721e-02,3.756926844289409928e-06,6.142204403877258301e-01,-3.490819362923502922e-03,-1.789676275620877277e-06,-2.402330719633027911e-04,-2.775420621037483215e-02,7.849145680665969849e-03,5.000000000000000000e-01,3.945486969314515591e-05,0.000000000000000000e+00
2.677334070205688477e+00,3.534401245117187500e+02,-1.372753524780273438e+01,-1.372753524780273438e+01,-1.557009816169738770e-01,1.797903442382812500e+02,-6.347654759883880615e-02,-1.435101509094238281e+01,5.226416885852813721e-02,3.756926844289409928e-06,6.142204403877258301e-01,-3.490819362923502922e-03,-1.789676275620877277e-06,-2.402330719633027911e-04,-2.775420621037483215e-02,7.849145680665969849e-03,5.000000000000000000e-01,3.945486969314515591e-05,0.000000000000000000e+00
2.755024909973144531e+00,3.526003723144531250e+02,-1.372447395324707031e+01,-1.372447395324707031e+01,-1.569235920906066895e-01,1.797907867431640625e+02,-6.347654014825820923e-02,-1.431581497192382812e+01,5.211244896054267883e-02,5.911914513490046374e-07,4.530794024467468262e-01,-1.952867256477475166e-03,-4.074786193086765707e-05,-7.530642324127256870e-05,-1.696431823074817657e-02,6.703834515064954758e-03,5.000000000000000000e-01,2.637590660015121102e-05,0.000000000000000000e+00
2.755024909973144531e+00,3.526003723144531250e+02,-1.372447395324707031e+01,-1.372447395324707031e+01,-1.569235920906066895e-01,1.797907867431640625e+02,-6.347654014825820923e-02,-1.431581497192382812e+01,5.211244896054267883e-02,5.911914513490046374e-07,4.530794024467468262e-01,-1.952867256477475166e-03,-4.074786193086765707e-05,-7.530642324127256870e-05,-1.696431823074817657e-02,6.703834515064954758e-03,5.000000000000000000e-01,2.637590660015121102e-05,0.000000000000000000e+00
2.755024909973144531e+00,3.526003723144531250e+02,-1.372447395324707031e+01,-1.372447395324707031e+01,-1.569235920906066895e-01,1.797907867431640625e+02,-6.347654014825820923e-02,-1.431581497192382812e+01,5.211244896054267883e-02,5.911914513490046374e-07,4.530794024467468262e-01,-1.952867256477475166e-03,-4.074786193086765707e-05,-7.530642324127256870e-05,-1.696431823074817657e-02,6.703834515064954758e-03,5.000000000000000000e-01,2.637590660015121102e-05,0.000000000000000000e+00
2.830169916152954102e+00,3.514902954101562500e+02,-1.372042942047119141e+01,-1.372042942047119141e+01,-1.577500402927398682e-01,1.797912445068359375e+02,-6.347654014825820923e-02,-1.427040958404541016e+01,5.189005285501480103e-02,3.394552777535864152e-06,6.042369008064270020e-01,-2.959559205919504166e-03,3.730602475116029382e-05,-1.256966643268242478e-04,-6.863940041512250900e-03,5.336496978998184204e-03,5.000000000000000000e-01,2.267020136059727520e-05,0.000000000000000000e+00
2.830169916152954102e+00,3.514902954101562500e+02,-1.372042942047119141e+01,-1.372042942047119141e+01,-1.577500402927398682e-01,1.797912445068359375e+02,-6.347654014825820923e-02,-1.427040958404541016e+01,5.189005285501480103e-02,3.394552777535864152e-06,6.042369008064270020e-01,-2.959559205919504166e-03,3.730602475116029382e-05,-1.256966643268242478e-04,-6.863940041512250900e-03,5.336496978998184204e-03,5.000000000000000000e-01,2.267020136059727520e-05,0.000000000000000000e+00
2.830169916152954102e+00,3.514902954101562500e+02,-1.372042942047119141e+01,-1.372042942047119141e+01,-1.577500402927398682e-01,1.797912445068359375e+02,-6.347654014825820923e-02,-1.427040958404541016e+01,5.189005285501480103e-02,3.394552777535864152e-06,6.042369008064270020e-01,-2.959559205919504166e-03,3.730602475116029382e-05,-1.256966643268242478e-04,-6.863940041512250900e-03,5.336496978998184204e-03,5.000000000000000000e-01,2.267020136059727520e-05,0.000000000000000000e+00
2.830169916152954102e+00,3.514902954101562500e+02,-1.372042942047119141e+01,-1.372042942047119141e+01,-1.577500402927398682e-01,1.797912445068359375e+02,-6.347654014825820923e-02,-1.427040958404541016e+01,5.189005285501480103e-02,3.394552777535864152e-06,6.042369008064270020e-01,-2.959559205919504166e-03,3.730602475116029382e-05,-1.256966643268242478e-04,-6.863940041512250900e-03,5.336496978998184204e-03,5.000000000000000000e-01,2.267020136059727520e-05,0.000000000000000000e+00
2.830169916152954102e+00,3.514902954101562500e+02,-1.372042942047119141e+01,-1.372042942047119141e+01,-1.577500402927398682e-01,1.797912445068359375e+02,-6.347654014825820923e-02,-1.427040958404541016e+01,5.189005285501480103e-02,3.394552777535864152e-06,6.042369008064270020e-01,-2.959559205919504166e-03,3.730602475116029382e-05,-1.256966643268242478e-04,-6.863940041512250900e-03,5.336496978998184204e-03,5.000000000000000000e-01,2.267020136059727520e-05,0.000000000000000000e+00
