# Time,X,Y,Z,Roll,Pitch,Yaw,Vx,Vy,Vz,Ax,Ay,Az,Wx,Wy,Wz,Throttle,Steer,Brake
0.000000000000000000e+00,2.706090450286865234e+00,-3.600072860717773438e+01,-3.600072860717773438e+01,2.491243034601211548e-01,-8.961270141601562500e+01,-6.427001208066940308e-02,4.602317884564399719e-02,-6.902511596679687500e+00,1.041265022649895400e-05,3.650920232757925987e-03,-6.841796040534973145e-01,5.762454020441509783e-05,2.655685245990753174e-01,4.155841656029224396e-03,-1.060155313462018967e-02,5.000000000000000000e-01,-1.169204697362147272e-04,0.000000000000000000e+00
1.045818328857421875e-01,2.706090450286865234e+00,-3.600072860717773438e+01,-3.600072860717773438e+01,2.491243034601211548e-01,-8.961270141601562500e+01,-6.427001208066940308e-02,4.602317884564399719e-02,-6.902511596679687500e+00,1.041265022649895400e-05,3.650920232757925987e-03,-6.841796040534973145e-01,5.762454020441509783e-05,2.655685245990753174e-01,4.155841656029224396e-03,-1.060155313462018967e-02,5.000000000000000000e-01,-1.169204697362147272e-04,0.000000000000000000e+00
1.045818328857421875e-01,2.706090450286865234e+00,-3.600072860717773438e+01,-3.600072860717773438e+01,2.491243034601211548e-01,-8.961270141601562500e+01,-6.427001208066940308e-02,4.602317884564399719e-02,-6.902511596679687500e+00,1.041265022649895400e-05,3.650920232757925987e-03,-6.841796040534973145e-01,5.762454020441509783e-05,2.655685245990753174e-01,4.155841656029224396e-03,-1.060155313462018967e-02,5.000000000000000000e-01,-1.169204697362147272e-04,0.000000000000000000e+00
1.045818328857421875e-01,2.706090450286865234e+00,-3.600072860717773438e+01,-3.600072860717773438e+01,2.491243034601211548e-01,-8.961270141601562500e+01,-6.427001208066940308e-02,4.602317884564399719e-02,-6.902511596679687500e+00,1.041265022649895400e-05,3.650920232757925987e-03,-6.841796040534973145e-01,5.762454020441509783e-05,2.655685245990753174e-01,4.155841656029224396e-03,-1.060155313462018967e-02,5.000000000000000000e-01,-1.169204697362147272e-04,0.000000000000000000e+00
1.045818328857421875e-01,2.706090450286865234e+00,-3.600072860717773438e+01,-3.600072860717773438e+01,2.491243034601211548e-01,-8.961270141601562500e+01,-6.427001208066940308e-02,4.602317884564399719e-02,-6.902511596679687500e+00,1.041265022649895400e-05,3.650920232757925987e-03,-6.841796040534973145e-01,5.762454020441509783e-05,2.655685245990753174e-01,4.155841656029224396e-03,-1.060155313462018967e-02,5.000000000000000000e-01,-1.169204697362147272e-04,0.000000000000000000e+00
1.045818328857421875e-01,2.706090450286865234e+00,-3.600072860717773438e+01,-3.600072860717773438e+01,2.491243034601211548e-01,-8.961270141601562500e+01,-6.427001208066940308e-02,4.602317884564399719e-02,-6.902511596679687500e+00,1.041265022649895400e-05,3.650920232757925987e-03,-6.841796040534973145e-01,5.762454020441509783e-05,2.655685245990753174e-01,4.155841656029224396e-03,-1.060155313462018967e-02,5.000000000000000000e-01,-1.169204697362147272e-04,0.000000000000000000e+00
1.045818328857421875e-01,2.710734605789184570e+00,-3.669524002075195312e+01,-3.669524002075195312e+01,2.189348787069320679e-01,-8.961360931396484375e+01,-6.417843699455261230e-02,4.667035117745399475e-02,-6.994107723236083984e+00,1.296780828852206469e-05,6.180680356919765472e-03,-8.747691512107849121e-01,2.440248863422311842e-05,1.936047226190567017e-01,2.898402046412229538e-03,-6.912437733262777328e-03,5.000000000000000000e-01,-8.859634544933214784e-05,0.000000000000000000e+00
2.092907428741455078e-01,2.710734605789184570e+00,-3.669524002075195312e+01,-3.669524002075195312e+01,2.189348787069320679e-01,-8.961360931396484375e+01,-6.417843699455261230e-02,4.667035117745399475e-02,-6.994107723236083984e+00,1.296780828852206469e-05,6.180680356919765472e-03,-8.747691512107849121e-01,2.440248863422311842e-05,1.936047226190567017e-01,2.898402046412229538e-03,-6.912437733262777328e-03,5.000000000000000000e-01,-8.859634544933214784e-05,0.000000000000000000e+00
2.092907428741455078e-01,2.710734605789184570e+00,-3.669524002075195312e+01,-3.669524002075195312e+01,2.189348787069320679e-01,-8.961360931396484375e+01,-6.417843699455261230e-02,4.667035117745399475e-02,-6.994107723236083984e+00,1.296780828852206469e-05,6.180680356919765472e-03,-8.747691512107849121e-01,2.440248863422311842e-05,1.936047226190567017e-01,2.898402046412229538e-03,-6.912437733262777328e-03,5.000000000000000000e-01,-8.859634544933214784e-05,0.000000000000000000e+00
2.092907428741455078e-01,2.710734605789184570e+00,-3.669524002075195312e+01,-3.669524002075195312e+01,2.189348787069320679e-01,-8.961360931396484375e+01,-6.417843699455261230e-02,4.667035117745399475e-02,-6.994107723236083984e+00,1.296780828852206469e-05,6.180680356919765472e-03,-8.747691512107849121e-01,2.440248863422311842e-05,1.936047226190567017e-01,2.898402046412229538e-03,-6.912437733262777328e-03,5.000000000000000000e-01,-8.859634544933214784e-05,0.000000000000000000e+00
2.092907428741455078e-01,2.710734605789184570e+00,-3.669524002075195312e+01,-3.669524002075195312e+01,2.189348787069320679e-01,-8.961360931396484375e+01,-6.417843699455261230e-02,4.667035117745399475e-02,-6.994107723236083984e+00,1.296780828852206469e-05,6.180680356919765472e-03,-8.747691512107849121e-01,2.440248863422311842e-05,1.936047226190567017e-01,2.898402046412229538e-03,-6.912437733262777328e-03,5.000000000000000000e-01,-8.859634544933214784e-05,0.000000000000000000e+00
2.092907428741455078e-01,2.715426921844482422e+00,-3.739767456054687500e+01,-3.739767456054687500e+01,1.932192146778106689e-01,-8.961431121826171875e+01,-6.402587890625000000e-02,4.715071618556976318e-02,-7.072072505950927734e+00,1.060309114109259099e-05,6.437606178224086761e-03,-1.044844150543212891e+00,-3.169072806485928595e-05,1.252192407846450806e-01,2.541673136875033379e-03,-5.731089040637016296e-03,5.000000000000000000e-01,-8.077621168922632933e-05,0.000000000000000000e+00
2.839093208312988281e-01,2.715426921844482422e+00,-3.739767456054687500e+01,-3.739767456054687500e+01,1.932192146778106689e-01,-8.961431121826171875e+01,-6.402587890625000000e-02,4.715071618556976318e-02,-7.072072505950927734e+00,1.060309114109259099e-05,6.437606178224086761e-03,-1.044844150543212891e+00,-3.169072806485928595e-05,1.252192407846450806e-01,2.541673136875033379e-03,-5.731089040637016296e-03,5.000000000000000000e-01,-8.077621168922632933e-05,0.000000000000000000e+00
2.839093208312988281e-01,2.715426921844482422e+00,-3.739767456054687500e+01,-3.739767456054687500e+01,1.932192146778106689e-01,-8.961431121826171875e+01,-6.402587890625000000e-02,4.715071618556976318e-02,-7.072072505950927734e+00,1.060309114109259099e-05,6.437606178224086761e-03,-1.044844150543212891e+00,-3.169072806485928595e-05,1.252192407846450806e-01,2.541673136875033379e-03,-5.731089040637016296e-03,5.000000000000000000e-01,-8.077621168922632933e-05,0.000000000000000000e+00
2.839093208312988281e-01,2.715426921844482422e+00,-3.739767456054687500e+01,-3.739767456054687500e+01,1.932192146778106689e-01,-8.961431121826171875e+01,-6.402587890625000000e-02,4.715071618556976318e-02,-7.072072505950927734e+00,1.060309114109259099e-05,6.437606178224086761e-03,-1.044844150543212891e+00,-3.169072806485928595e-05,1.252192407846450806e-01,2.541673136875033379e-03,-5.731089040637016296e-03,5.000000000000000000e-01,-8.077621168922632933e-05,0.000000000000000000e+00
2.839093208312988281e-01,2.715426921844482422e+00,-3.739767456054687500e+01,-3.739767456054687500e+01,1.932192146778106689e-01,-8.961431121826171875e+01,-6.402587890625000000e-02,4.715071618556976318e-02,-7.072072505950927734e+00,1.060309114109259099e-05,6.437606178224086761e-03,-1.044844150543212891e+00,-3.169072806485928595e-05,1.252192407846450806e-01,2.541673136875033379e-03,-5.731089040637016296e-03,5.000000000000000000e-01,-8.077621168922632933e-05,0.000000000000000000e+00
3.569011688232421875e-01,2.718955993652343750e+00,-3.792650604248046875e+01,-3.792650604248046875e+01,1.771272867918014526e-01,-8.961486053466796875e+01,-6.393431872129440308e-02,4.732697829604148865e-02,-7.105521202087402344e+00,8.448292646789923310e-06,2.414819085970520973e-03,-4.582524895668029785e-01,-2.952108479803428054e-05,2.363726347684860229e-01,2.928190398961305618e-03,-7.786581758409738541e-03,5.000000000000000000e-01,-7.781982276355847716e-05,0.000000000000000000e+00
3.569011688232421875e-01,2.718955993652343750e+00,-3.792650604248046875e+01,-3.792650604248046875e+01,1.771272867918014526e-01,-8.961486053466796875e+01,-6.393431872129440308e-02,4.732697829604148865e-02,-7.105521202087402344e+00,8.448292646789923310e-06,2.414819085970520973e-03,-4.582524895668029785e-01,-2.952108479803428054e-05,2.363726347684860229e-01,2.928190398961305618e-03,-7.786581758409738541e-03,5.000000000000000000e-01,-7.781982276355847716e-05,0.000000000000000000e+00
3.569011688232421875e-01,2.718955993652343750e+00,-3.792650604248046875e+01,-3.792650604248046875e+01,1.771272867918014526e-01,-8.961486053466796875e+01,-6.393431872129440308e-02,4.732697829604148865e-02,-7.105521202087402344e+00,8.448292646789923310e-06,2.414819085970520973e-03,-4.582524895668029785e-01,-2.952108479803428054e-05,2.363726347684860229e-01,2.928190398961305618e-03,-7.786581758409738541e-03,5.000000000000000000e-01,-7.781982276355847716e-05,0.000000000000000000e+00
3.569011688232421875e-01,2.718955993652343750e+00,-3.792650604248046875e+01,-3.792650604248046875e+01,1.771272867918014526e-01,-8.961486053466796875e+01,-6.393431872129440308e-02,4.732697829604148865e-02,-7.105521202087402344e+00,8.448292646789923310e-06,2.414819085970520973e-03,-4.582524895668029785e-01,-2.952108479803428054e-05,2.363726347684860229e-01,2.928190398961305618e-03,-7.786581758409738541e-03,5.000000000000000000e-01,-7.781982276355847716e-05,0.000000000000000000e+00
4.765405654907226562e-01,2.722435951232910156e+00,-3.844789123535156250e+01,-3.844789123535156250e+01,1.658233255147933960e-01,-8.961521911621093750e+01,-6.390379369258880615e-02,4.780003800988197327e-02,-7.167860507965087891e+00,7.370826097030658275e-06,3.954046405851840973e-03,-5.210600495338439941e-01,-9.005951142171397805e-06,1.179496198892593384e-01,9.773698402568697929e-04,-3.533343784511089325e-03,5.000000000000000000e-01,-5.540847632801160216e-05,0.000000000000000000e+00
4.765405654907226562e-01,2.722435951232910156e+00,-3.844789123535156250e+01,-3.844789123535156250e+01,1.658233255147933960e-01,-8.961521911621093750e+01,-6.390379369258880615e-02,4.780003800988197327e-02,-7.167860507965087891e+00,7.370826097030658275e-06,3.954046405851840973e-03,-5.210600495338439941e-01,-9.005951142171397805e-06,1.179496198892593384e-01,9.773698402568697929e-04,-3.533343784511089325e-03,5.000000000000000000e-01,-5.540847632801160216e-05,0.000000000000000000e+00
4.765405654907226562e-01,2.722435951232910156e+00,-3.844789123535156250e+01,-3.844789123535156250e+01,1.658233255147933960e-01,-8.961521911621093750e+01,-6.390379369258880615e-02,4.780003800988197327e-02,-7.167860507965087891e+00,7.370826097030658275e-06,3.954046405851840973e-03,-5.210600495338439941e-01,-9.005951142171397805e-06,1.179496198892593384e-01,9.773698402568697929e-04,-3.533343784511089325e-03,5.000000000000000000e-01,-5.540847632801160216e-05,0.000000000000000000e+00
4.765405654907226562e-01,2.722435951232910156e+00,-3.844789123535156250e+01,-3.844789123535156250e+01,1.658233255147933960e-01,-8.961521911621093750e+01,-6.390379369258880615e-02,4.780003800988197327e-02,-7.167860507965087891e+00,7.370826097030658275e-06,3.954046405851840973e-03,-5.210600495338439941e-01,-9.005951142171397805e-06,1.179496198892593384e-01,9.773698402568697929e-04,-3.533343784511089325e-03,5.000000000000000000e-01,-5.540847632801160216e-05,0.000000000000000000e+00
4.765405654907226562e-01,2.722435951232910156e+00,-3.844789123535156250e+01,-3.844789123535156250e+01,1.658233255147933960e-01,-8.961521911621093750e+01,-6.390379369258880615e-02,4.780003800988197327e-02,-7.167860507965087891e+00,7.370826097030658275e-06,3.954046405851840973e-03,-5.210600495338439941e-01,-9.005951142171397805e-06,1.179496198892593384e-01,9.773698402568697929e-04,-3.533343784511089325e-03,5.000000000000000000e-01,-5.540847632801160216e-05,0.000000000000000000e+00
4.765405654907226562e-01,2.722435951232910156e+00,-3.844789123535156250e+01,-3.844789123535156250e+01,1.658233255147933960e-01,-8.961521911621093750e+01,-6.390379369258880615e-02,4.780003800988197327e-02,-7.167860507965087891e+00,7.370826097030658275e-06,3.954046405851840973e-03,-5.210600495338439941e-01,-9.005951142171397805e-06,1.179496198892593384e-01,9.773698402568697929e-04,-3.533343784511089325e-03,5.000000000000000000e-01,-5.540847632801160216e-05,0.000000000000000000e+00
4.765405654907226562e-01,2.722435951232910156e+00,-3.844789123535156250e+01,-3.844789123535156250e+01,1.658233255147933960e-01,-8.961521911621093750e+01,-6.390379369258880615e-02,4.780003800988197327e-02,-7.167860507965087891e+00,7.370826097030658275e-06,3.954046405851840973e-03,-5.210600495338439941e-01,-9.005951142171397805e-06,1.179496198892593384e-01,9.773698402568697929e-04,-3.533343784511089325e-03,5.000000000000000000e-01,-5.540847632801160216e-05,0.000000000000000000e+00
6.200885772705078125e-01,2.727241992950439453e+00,-3.916814041137695312e+01,-3.916814041137695312e+01,1.533309072256088257e-01,-8.961550903320312500e+01,-6.387327611446380615e-02,4.827590659260749817e-02,-7.240198135375976562e+00,5.358755970519268885e-06,3.315048292279243469e-03,-5.039263963699340820e-01,-1.401670488121453673e-05,4.192188382148742676e-02,9.389425395056605339e-04,-1.575801172293722630e-03,5.000000000000000000e-01,-5.207061622058972716e-05,0.000000000000000000e+00
6.200885772705078125e-01,2.727241992950439453e+00,-3.916814041137695312e+01,-3.916814041137695312e+01,1.533309072256088257e-01,-8.961550903320312500e+01,-6.387327611446380615e-02,4.827590659260749817e-02,-7.240198135375976562e+00,5.358755970519268885e-06,3.315048292279243469e-03,-5.039263963699340820e-01,-1.401670488121453673e-05,4.192188382148742676e-02,9.389425395056605339e-04,-1.575801172293722630e-03,5.000000000000000000e-01,-5.207061622058972716e-05,0.000000000000000000e+00
6.200885772705078125e-01,2.727241992950439453e+00,-3.916814041137695312e+01,-3.916814041137695312e+01,1.533309072256088257e-01,-8.961550903320312500e+01,-6.387327611446380615e-02,4.827590659260749817e-02,-7.240198135375976562e+00,5.358755970519268885e-06,3.315048292279243469e-03,-5.039263963699340820e-01,-1.401670488121453673e-05,4.192188382148742676e-02,9.389425395056605339e-04,-1.575801172293722630e-03,5.000000000000000000e-01,-5.207061622058972716e-05,0.000000000000000000e+00
6.200885772705078125e-01,2.727241992950439453e+00,-3.916814041137695312e+01,-3.916814041137695312e+01,1.533309072256088257e-01,-8.961550903320312500e+01,-6.387327611446380615e-02,4.827590659260749817e-02,-7.240198135375976562e+00,5.358755970519268885e-06,3.315048292279243469e-03,-5.039263963699340820e-01,-1.401670488121453673e-05,4.192188382148742676e-02,9.389425395056605339e-04,-1.575801172293722630e-03,5.000000000000000000e-01,-5.207061622058972716e-05,0.000000000000000000e+00
6.200885772705078125e-01,2.727241992950439453e+00,-3.916814041137695312e+01,-3.916814041137695312e+01,1.533309072256088257e-01,-8.961550903320312500e+01,-6.387327611446380615e-02,4.827590659260749817e-02,-7.240198135375976562e+00,5.358755970519268885e-06,3.315048292279243469e-03,-5.039263963699340820e-01,-1.401670488121453673e-05,4.192188382148742676e-02,9.389425395056605339e-04,-1.575801172293722630e-03,5.000000000000000000e-01,-5.207061622058972716e-05,0.000000000000000000e+00
6.200885772705078125e-01,2.727241992950439453e+00,-3.916814041137695312e+01,-3.916814041137695312e+01,1.533309072256088257e-01,-8.961550903320312500e+01,-6.387327611446380615e-02,4.827590659260749817e-02,-7.240198135375976562e+00,5.358755970519268885e-06,3.315048292279243469e-03,-5.039263963699340820e-01,-1.401670488121453673e-05,4.192188382148742676e-02,9.389425395056605339e-04,-1.575801172293722630e-03,5.000000000000000000e-01,-5.207061622058972716e-05,0.000000000000000000e+00
7.946169376373291016e-01,2.732088565826416016e+00,-3.989498138427734375e+01,-3.989498138427734375e+01,1.442057788372039795e-01,-8.961581420898437500e+01,-6.381225585937500000e-02,4.868799075484275818e-02,-7.307270526885986328e+00,3.070319507969543338e-06,2.361129969358444214e-03,-3.843065500259399414e-01,-1.311211781285237521e-05,-4.144043661653995514e-03,6.374535150825977325e-04,-1.461280859075486660e-03,5.000000000000000000e-01,-5.264282299322076142e-05,0.000000000000000000e+00
7.946169376373291016e-01,2.732088565826416016e+00,-3.989498138427734375e+01,-3.989498138427734375e+01,1.442057788372039795e-01,-8.961581420898437500e+01,-6.381225585937500000e-02,4.868799075484275818e-02,-7.307270526885986328e+00,3.070319507969543338e-06,2.361129969358444214e-03,-3.843065500259399414e-01,-1.311211781285237521e-05,-4.144043661653995514e-03,6.374535150825977325e-04,-1.461280859075486660e-03,5.000000000000000000e-01,-5.264282299322076142e-05,0.000000000000000000e+00
7.946169376373291016e-01,2.732088565826416016e+00,-3.989498138427734375e+01,-3.989498138427734375e+01,1.442057788372039795e-01,-8.961581420898437500e+01,-6.381225585937500000e-02,4.868799075484275818e-02,-7.307270526885986328e+00,3.070319507969543338e-06,2.361129969358444214e-03,-3.843065500259399414e-01,-1.311211781285237521e-05,-4.144043661653995514e-03,6.374535150825977325e-04,-1.461280859075486660e-03,5.000000000000000000e-01,-5.264282299322076142e-05,0.000000000000000000e+00
7.946169376373291016e-01,2.732088565826416016e+00,-3.989498138427734375e+01,-3.989498138427734375e+01,1.442057788372039795e-01,-8.961581420898437500e+01,-6.381225585937500000e-02,4.868799075484275818e-02,-7.307270526885986328e+00,3.070319507969543338e-06,2.361129969358444214e-03,-3.843065500259399414e-01,-1.311211781285237521e-05,-4.144043661653995514e-03,6.374535150825977325e-04,-1.461280859075486660e-03,5.000000000000000000e-01,-5.264282299322076142e-05,0.000000000000000000e+00
8.783230781555175781e-01,2.736979961395263672e+00,-4.062825012207031250e+01,-4.062825012207031250e+01,1.376078128814697266e-01,-8.961590576171875000e+01,-6.384276598691940308e-02,4.916187003254890442e-02,-7.370661258697509766e+00,1.239569996869249735e-06,5.661224946379661560e-03,-7.573008537292480469e-01,-2.187115023843944073e-05,-2.512268908321857452e-02,-1.122307876357808709e-04,6.681405939161777496e-04,5.000000000000000000e-01,-3.900528099620714784e-05,0.000000000000000000e+00
8.783230781555175781e-01,2.736979961395263672e+00,-4.062825012207031250e+01,-4.062825012207031250e+01,1.376078128814697266e-01,-8.961590576171875000e+01,-6.384276598691940308e-02,4.916187003254890442e-02,-7.370661258697509766e+00,1.239569996869249735e-06,5.661224946379661560e-03,-7.573008537292480469e-01,-2.187115023843944073e-05,-2.512268908321857452e-02,-1.122307876357808709e-04,6.681405939161777496e-04,5.000000000000000000e-01,-3.900528099620714784e-05,0.000000000000000000e+00
9.483780860900878906e-01,2.741105556488037109e+00,-4.124678039550781250e+01,-4.124678039550781250e+01,1.331681907176971436e-01,-8.961592102050781250e+01,-6.381224095821380615e-02,4.944904148578643799e-02,-7.414201259613037109e+00,2.078719717246713117e-06,4.099227953702211380e-03,-6.215116381645202637e-01,1.197843994305003434e-05,2.785455994307994843e-02,3.575022856239229441e-04,-3.983923234045505524e-04,5.000000000000000000e-01,-4.024505687993951142e-05,0.000000000000000000e+00
9.483780860900878906e-01,2.741105556488037109e+00,-4.124678039550781250e+01,-4.124678039550781250e+01,1.331681907176971436e-01,-8.961592102050781250e+01,-6.381224095821380615e-02,4.944904148578643799e-02,-7.414201259613037109e+00,2.078719717246713117e-06,4.099227953702211380e-03,-6.215116381645202637e-01,1.197843994305003434e-05,2.785455994307994843e-02,3.575022856239229441e-04,-3.983923234045505524e-04,5.000000000000000000e-01,-4.024505687993951142e-05,0.000000000000000000e+00
9.483780860900878906e-01,2.741105556488037109e+00,-4.124678039550781250e+01,-4.124678039550781250e+01,1.331681907176971436e-01,-8.961592102050781250e+01,-6.381224095821380615e-02,4.944904148578643799e-02,-7.414201259613037109e+00,2.078719717246713117e-06,4.099227953702211380e-03,-6.215116381645202637e-01,1.197843994305003434e-05,2.785455994307994843e-02,3.575022856239229441e-04,-3.983923234045505524e-04,5.000000000000000000e-01,-4.024505687993951142e-05,0.000000000000000000e+00
9.483780860900878906e-01,2.741105556488037109e+00,-4.124678039550781250e+01,-4.124678039550781250e+01,1.331681907176971436e-01,-8.961592102050781250e+01,-6.381224095821380615e-02,4.944904148578643799e-02,-7.414201259613037109e+00,2.078719717246713117e-06,4.099227953702211380e-03,-6.215116381645202637e-01,1.197843994305003434e-05,2.785455994307994843e-02,3.575022856239229441e-04,-3.983923234045505524e-04,5.000000000000000000e-01,-4.024505687993951142e-05,0.000000000000000000e+00
9.483780860900878906e-01,2.744579792022705078e+00,-4.176778411865234375e+01,-4.176778411865234375e+01,1.302038878202438354e-01,-8.961602020263671875e+01,-6.378173083066940308e-02,4.968716576695442200e-02,-7.453686237335205078e+00,1.430310931027634069e-06,3.021919634193181992e-03,-5.010846853256225586e-01,-8.228641490859445184e-06,4.455644264817237854e-02,7.404836360365152359e-04,-1.501805614680051804e-03,5.000000000000000000e-01,-4.396438453113660216e-05,0.000000000000000000e+00
1.027177095413208008e+00,2.744579792022705078e+00,-4.176778411865234375e+01,-4.176778411865234375e+01,1.302038878202438354e-01,-8.961602020263671875e+01,-6.378173083066940308e-02,4.968716576695442200e-02,-7.453686237335205078e+00,1.430310931027634069e-06,3.021919634193181992e-03,-5.010846853256225586e-01,-8.228641490859445184e-06,4.455644264817237854e-02,7.404836360365152359e-04,-1.501805614680051804e-03,5.000000000000000000e-01,-4.396438453113660216e-05,0.000000000000000000e+00
1.027177095413208008e+00,2.744579792022705078e+00,-4.176778411865234375e+01,-4.176778411865234375e+01,1.302038878202438354e-01,-8.961602020263671875e+01,-6.378173083066940308e-02,4.968716576695442200e-02,-7.453686237335205078e+00,1.430310931027634069e-06,3.021919634193181992e-03,-5.010846853256225586e-01,-8.228641490859445184e-06,4.455644264817237854e-02,7.404836360365152359e-04,-1.501805614680051804e-03,5.000000000000000000e-01,-4.396438453113660216e-05,0.000000000000000000e+00
1.095043420791625977e+00,2.748513460159301758e+00,-4.235742950439453125e+01,-4.235742950439453125e+01,1.276152431964874268e-01,-8.961605072021484375e+01,-6.381225585937500000e-02,5.005748197436332703e-02,-7.503139019012451172e+00,2.994065198436146602e-06,5.456552840769290924e-03,-7.286792397499084473e-01,2.304168083355762064e-05,2.239063195884227753e-02,4.524784526438452303e-05,9.243959357263520360e-05,5.000000000000000000e-01,-3.395080420887097716e-05,0.000000000000000000e+00
1.095043420791625977e+00,2.748513460159301758e+00,-4.235742950439453125e+01,-4.235742950439453125e+01,1.276152431964874268e-01,-8.961605072021484375e+01,-6.381225585937500000e-02,5.005748197436332703e-02,-7.503139019012451172e+00,2.994065198436146602e-06,5.456552840769290924e-03,-7.286792397499084473e-01,2.304168083355762064e-05,2.239063195884227753e-02,4.524784526438452303e-05,9.243959357263520360e-05,5.000000000000000000e-01,-3.395080420887097716e-05,0.000000000000000000e+00
1.095043420791625977e+00,2.748513460159301758e+00,-4.235742950439453125e+01,-4.235742950439453125e+01,1.276152431964874268e-01,-8.961605072021484375e+01,-6.381225585937500000e-02,5.005748197436332703e-02,-7.503139019012451172e+00,2.994065198436146602e-06,5.456552840769290924e-03,-7.286792397499084473e-01,2.304168083355762064e-05,2.239063195884227753e-02,4.524784526438452303e-05,9.243959357263520360e-05,5.000000000000000000e-01,-3.395080420887097716e-05,0.000000000000000000e+00
1.095043420791625977e+00,2.748513460159301758e+00,-4.235742950439453125e+01,-4.235742950439453125e+01,1.276152431964874268e-01,-8.961605072021484375e+01,-6.381225585937500000e-02,5.005748197436332703e-02,-7.503139019012451172e+00,2.994065198436146602e-06,5.456552840769290924e-03,-7.286792397499084473e-01,2.304168083355762064e-05,2.239063195884227753e-02,4.524784526438452303e-05,9.243959357263520360e-05,5.000000000000000000e-01,-3.395080420887097716e-05,0.000000000000000000e+00
1.168572425842285156e+00,2.751920700073242188e+00,-4.286815261840820312e+01,-4.286815261840820312e+01,1.255661845207214355e-01,-8.961605072021484375e+01,-6.381224840879440308e-02,5.031313747167587280e-02,-7.541351795196533203e+00,1.554278128423902672e-06,3.476933808997273445e-03,-5.196965932846069336e-01,-1.958121174538973719e-05,3.041015565395355225e-02,2.658898883964866400e-04,-1.546249404782429338e-04,5.000000000000000000e-01,-3.519058373058214784e-05,0.000000000000000000e+00
1.168572425842285156e+00,2.751920700073242188e+00,-4.286815261840820312e+01,-4.286815261840820312e+01,1.255661845207214355e-01,-8.961605072021484375e+01,-6.381224840879440308e-02,5.031313747167587280e-02,-7.541351795196533203e+00,1.554278128423902672e-06,3.476933808997273445e-03,-5.196965932846069336e-01,-1.958121174538973719e-05,3.041015565395355225e-02,2.658898883964866400e-04,-1.546249404782429338e-04,5.000000000000000000e-01,-3.519058373058214784e-05,0.000000000000000000e+00
1.168572425842285156e+00,2.751920700073242188e+00,-4.286815261840820312e+01,-4.286815261840820312e+01,1.255661845207214355e-01,-8.961605072021484375e+01,-6.381224840879440308e-02,5.031313747167587280e-02,-7.541351795196533203e+00,1.554278128423902672e-06,3.476933808997273445e-03,-5.196965932846069336e-01,-1.958121174538973719e-05,3.041015565395355225e-02,2.658898883964866400e-04,-1.546249404782429338e-04,5.000000000000000000e-01,-3.519058373058214784e-05,0.000000000000000000e+00
1.168572425842285156e+00,2.751920700073242188e+00,-4.286815261840820312e+01,-4.286815261840820312e+01,1.255661845207214355e-01,-8.961605072021484375e+01,-6.381224840879440308e-02,5.031313747167587280e-02,-7.541351795196533203e+00,1.554278128423902672e-06,3.476933808997273445e-03,-5.196965932846069336e-01,-1.958121174538973719e-05,3.041015565395355225e-02,2.658898883964866400e-04,-1.546249404782429338e-04,5.000000000000000000e-01,-3.519058373058214784e-05,0.000000000000000000e+00
1.168572425842285156e+00,2.755621671676635742e+00,-4.342264938354492188e+01,-4.342264938354492188e+01,1.146788671612739563e-01,-8.961632537841796875e+01,-6.375119835138320923e-02,5.028828606009483337e-02,-7.541249752044677734e+00,5.244437488727271557e-07,-3.311382606625556946e-04,1.359697082079946995e-03,-1.372226142848376185e-05,1.995689719915390015e-01,2.216653432697057724e-03,-5.147495772689580917e-03,5.000000000000000000e-01,-3.776550147449597716e-05,0.000000000000000000e+00
1.243620872497558594e+00,2.755621671676635742e+00,-4.342264938354492188e+01,-4.342264938354492188e+01,1.146788671612739563e-01,-8.961632537841796875e+01,-6.375119835138320923e-02,5.028828606009483337e-02,-7.541249752044677734e+00,5.244437488727271557e-07,-3.311382606625556946e-04,1.359697082079946995e-03,-1.372226142848376185e-05,1.995689719915390015e-01,2.216653432697057724e-03,-5.147495772689580917e-03,5.000000000000000000e-01,-3.776550147449597716e-05,0.000000000000000000e+00
1.243620872497558594e+00,2.755621671676635742e+00,-4.342264938354492188e+01,-4.342264938354492188e+01,1.146788671612739563e-01,-8.961632537841796875e+01,-6.375119835138320923e-02,5.028828606009483337e-02,-7.541249752044677734e+00,5.244437488727271557e-07,-3.311382606625556946e-04,1.359697082079946995e-03,-1.372226142848376185e-05,1.995689719915390015e-01,2.216653432697057724e-03,-5.147495772689580917e-03,5.000000000000000000e-01,-3.776550147449597716e-05,0.000000000000000000e+00
1.243620872497558594e+00,2.755621671676635742e+00,-4.342264938354492188e+01,-4.342264938354492188e+01,1.146788671612739563e-01,-8.961632537841796875e+01,-6.375119835138320923e-02,5.028828606009483337e-02,-7.541249752044677734e+00,5.244437488727271557e-07,-3.311382606625556946e-04,1.359697082079946995e-03,-1.372226142848376185e-05,1.995689719915390015e-01,2.216653432697057724e-03,-5.147495772689580917e-03,5.000000000000000000e-01,-3.776550147449597716e-05,0.000000000000000000e+00
1.312042951583862305e+00,2.759392261505126953e+00,-4.398765182495117188e+01,-4.398765182495117188e+01,9.478936344385147095e-02,-8.961688232421875000e+01,-6.365966051816940308e-02,5.012777820229530334e-02,-7.524125099182128906e+00,2.202657015004660934e-06,-2.345848828554153442e-03,2.502796351909637451e-01,2.452736407576594502e-05,2.894227504730224609e-01,3.689853241667151451e-03,-8.607287891209125519e-03,5.000000000000000000e-01,-3.738403393072076142e-05,0.000000000000000000e+00
1.312042951583862305e+00,2.759392261505126953e+00,-4.398765182495117188e+01,-4.398765182495117188e+01,9.478936344385147095e-02,-8.961688232421875000e+01,-6.365966051816940308e-02,5.012777820229530334e-02,-7.524125099182128906e+00,2.202657015004660934e-06,-2.345848828554153442e-03,2.502796351909637451e-01,2.452736407576594502e-05,2.894227504730224609e-01,3.689853241667151451e-03,-8.607287891209125519e-03,5.000000000000000000e-01,-3.738403393072076142e-05,0.000000000000000000e+00
1.312042951583862305e+00,2.762825965881347656e+00,-4.450219726562500000e+01,-4.450219726562500000e+01,7.801441848278045654e-02,-8.961730957031250000e+01,-6.359863281250000000e-02,5.011845007538795471e-02,-7.519227504730224609e+00,5.635443812934681773e-06,-1.312223612330853939e-04,6.889635324478149414e-02,4.829033787245862186e-05,2.271295040845870972e-01,2.446411410346627235e-03,-5.580748431384563446e-03,5.000000000000000000e-01,-2.088546716549899429e-05,0.000000000000000000e+00
1.383129358291625977e+00,2.762825965881347656e+00,-4.450219726562500000e+01,-4.450219726562500000e+01,7.801441848278045654e-02,-8.961730957031250000e+01,-6.359863281250000000e-02,5.011845007538795471e-02,-7.519227504730224609e+00,5.635443812934681773e-06,-1.312223612330853939e-04,6.889635324478149414e-02,4.829033787245862186e-05,2.271295040845870972e-01,2.446411410346627235e-03,-5.580748431384563446e-03,5.000000000000000000e-01,-2.088546716549899429e-05,0.000000000000000000e+00
1.383129358291625977e+00,2.762825965881347656e+00,-4.450219726562500000e+01,-4.450219726562500000e+01,7.801441848278045654e-02,-8.961730957031250000e+01,-6.359863281250000000e-02,5.011845007538795471e-02,-7.519227504730224609e+00,5.635443812934681773e-06,-1.312223612330853939e-04,6.889635324478149414e-02,4.829033787245862186e-05,2.271295040845870972e-01,2.446411410346627235e-03,-5.580748431384563446e-03,5.000000000000000000e-01,-2.088546716549899429e-05,0.000000000000000000e+00
1.450951814651489258e+00,2.766387939453125000e+00,-4.503607940673828125e+01,-4.503607940673828125e+01,6.301531940698623657e-02,-8.961763000488281250e+01,-6.353757530450820923e-02,5.003674328327178955e-02,-7.507732391357421875e+00,3.404133167350664735e-06,-1.204715925268828869e-03,1.694883108139038086e-01,-3.289929009042680264e-05,1.954177618026733398e-01,2.309444360435009003e-03,-4.593898542225360870e-03,5.000000000000000000e-01,-1.506805438111769035e-05,0.000000000000000000e+00
1.450951814651489258e+00,2.766387939453125000e+00,-4.503607940673828125e+01,-4.503607940673828125e+01,6.301531940698623657e-02,-8.961763000488281250e+01,-6.353757530450820923e-02,5.003674328327178955e-02,-7.507732391357421875e+00,3.404133167350664735e-06,-1.204715925268828869e-03,1.694883108139038086e-01,-3.289929009042680264e-05,1.954177618026733398e-01,2.309444360435009003e-03,-4.593898542225360870e-03,5.000000000000000000e-01,-1.506805438111769035e-05,0.000000000000000000e+00
1.450951814651489258e+00,2.766387939453125000e+00,-4.503607940673828125e+01,-4.503607940673828125e+01,6.301531940698623657e-02,-8.961763000488281250e+01,-6.353757530450820923e-02,5.003674328327178955e-02,-7.507732391357421875e+00,3.404133167350664735e-06,-1.204715925268828869e-03,1.694883108139038086e-01,-3.289929009042680264e-05,1.954177618026733398e-01,2.309444360435009003e-03,-4.593898542225360870e-03,5.000000000000000000e-01,-1.506805438111769035e-05,0.000000000000000000e+00
1.527701377868652344e+00,2.769781112670898438e+00,-4.554486083984375000e+01,-4.554486083984375000e+01,5.201871693134307861e-02,-8.961791992187500000e+01,-6.347655504941940308e-02,4.997071251273155212e-02,-7.499448776245117188e+00,3.499510057736188173e-06,-8.603406604379415512e-04,1.079304516315460205e-01,1.242702751369506586e-06,1.442867070436477661e-01,1.836506999097764492e-03,-3.302430035546422005e-03,5.000000000000000000e-01,-1.096725463867187500e-05,0.000000000000000000e+00
1.527701377868652344e+00,2.769781112670898438e+00,-4.554486083984375000e+01,-4.554486083984375000e+01,5.201871693134307861e-02,-8.961791992187500000e+01,-6.347655504941940308e-02,4.997071251273155212e-02,-7.499448776245117188e+00,3.499510057736188173e-06,-8.603406604379415512e-04,1.079304516315460205e-01,1.242702751369506586e-06,1.442867070436477661e-01,1.836506999097764492e-03,-3.302430035546422005e-03,5.000000000000000000e-01,-1.096725463867187500e-05,0.000000000000000000e+00
1.527701377868652344e+00,2.769781112670898438e+00,-4.554486083984375000e+01,-4.554486083984375000e+01,5.201871693134307861e-02,-8.961791992187500000e+01,-6.347655504941940308e-02,4.997071251273155212e-02,-7.499448776245117188e+00,3.499510057736188173e-06,-8.603406604379415512e-04,1.079304516315460205e-01,1.242702751369506586e-06,1.442867070436477661e-01,1.836506999097764492e-03,-3.302430035546422005e-03,5.000000000000000000e-01,-1.096725463867187500e-05,0.000000000000000000e+00
1.600134611129760742e+00,2.773613929748535156e+00,-4.611986160278320312e+01,-4.611986160278320312e+01,4.254524782299995422e-02,-8.961809539794921875e+01,-6.341551244258880615e-02,4.988799989223480225e-02,-7.488478660583496094e+00,1.439827087779121939e-06,-1.141915330663323402e-03,1.514514088630676270e-01,-2.843560832843650132e-05,1.085681617259979248e-01,1.353832660242915154e-03,-2.572013065218925476e-03,5.000000000000000000e-01,-7.343292054429184645e-06,0.000000000000000000e+00
1.600134611129760742e+00,2.773613929748535156e+00,-4.611986160278320312e+01,-4.611986160278320312e+01,4.254524782299995422e-02,-8.961809539794921875e+01,-6.341551244258880615e-02,4.988799989223480225e-02,-7.488478660583496094e+00,1.439827087779121939e-06,-1.141915330663323402e-03,1.514514088630676270e-01,-2.843560832843650132e-05,1.085681617259979248e-01,1.353832660242915154e-03,-2.572013065218925476e-03,5.000000000000000000e-01,-7.343292054429184645e-06,0.000000000000000000e+00
1.600134611129760742e+00,2.773613929748535156e+00,-4.611986160278320312e+01,-4.611986160278320312e+01,4.254524782299995422e-02,-8.961809539794921875e+01,-6.341551244258880615e-02,4.988799989223480225e-02,-7.488478660583496094e+00,1.439827087779121939e-06,-1.141915330663323402e-03,1.514514088630676270e-01,-2.843560832843650132e-05,1.085681617259979248e-01,1.353832660242915154e-03,-2.572013065218925476e-03,5.000000000000000000e-01,-7.343292054429184645e-06,0.000000000000000000e+00
1.600134611129760742e+00,2.773613929748535156e+00,-4.611986160278320312e+01,-4.611986160278320312e+01,4.254524782299995422e-02,-8.961809539794921875e+01,-6.341551244258880615e-02,4.988799989223480225e-02,-7.488478660583496094e+00,1.439827087779121939e-06,-1.141915330663323402e-03,1.514514088630676270e-01,-2.843560832843650132e-05,1.085681617259979248e-01,1.353832660242915154e-03,-2.572013065218925476e-03,5.000000000000000000e-01,-7.343292054429184645e-06,0.000000000000000000e+00
1.600134611129760742e+00,2.773613929748535156e+00,-4.611986160278320312e+01,-4.611986160278320312e+01,4.254524782299995422e-02,-8.961809539794921875e+01,-6.341551244258880615e-02,4.988799989223480225e-02,-7.488478660583496094e+00,1.439827087779121939e-06,-1.141915330663323402e-03,1.514514088630676270e-01,-2.843560832843650132e-05,1.085681617259979248e-01,1.353832660242915154e-03,-2.572013065218925476e-03,5.000000000000000000e-01,-7.343292054429184645e-06,0.000000000000000000e+00
1.600134611129760742e+00,2.777226448059082031e+00,-4.666182327270507812e+01,-4.666182327270507812e+01,3.632977604866027832e-02,-8.961821746826171875e+01,-6.341551989316940308e-02,4.984784871339797974e-02,-7.479252338409423828e+00,2.631759798532584682e-06,-3.479942388366907835e-04,7.996544986963272095e-02,1.033059925248380750e-05,7.316467911005020142e-02,6.290352321229875088e-04,-9.688350255601108074e-04,5.000000000000000000e-01,5.722046125811175443e-07,0.000000000000000000e+00
1.715513467788696289e+00,2.777226448059082031e+00,-4.666182327270507812e+01,-4.666182327270507812e+01,3.632977604866027832e-02,-8.961821746826171875e+01,-6.341551989316940308e-02,4.984784871339797974e-02,-7.479252338409423828e+00,2.631759798532584682e-06,-3.479942388366907835e-04,7.996544986963272095e-02,1.033059925248380750e-05,7.316467911005020142e-02,6.290352321229875088e-04,-9.688350255601108074e-04,5.000000000000000000e-01,5.722046125811175443e-07,0.000000000000000000e+00
1.715513467788696289e+00,2.777226448059082031e+00,-4.666182327270507812e+01,-4.666182327270507812e+01,3.632977604866027832e-02,-8.961821746826171875e+01,-6.341551989316940308e-02,4.984784871339797974e-02,-7.479252338409423828e+00,2.631759798532584682e-06,-3.479942388366907835e-04,7.996544986963272095e-02,1.033059925248380750e-05,7.316467911005020142e-02,6.290352321229875088e-04,-9.688350255601108074e-04,5.000000000000000000e-01,5.722046125811175443e-07,0.000000000000000000e+00
1.715513467788696289e+00,2.777226448059082031e+00,-4.666182327270507812e+01,-4.666182327270507812e+01,3.632977604866027832e-02,-8.961821746826171875e+01,-6.341551989316940308e-02,4.984784871339797974e-02,-7.479252338409423828e+00,2.631759798532584682e-06,-3.479942388366907835e-04,7.996544986963272095e-02,1.033059925248380750e-05,7.316467911005020142e-02,6.290352321229875088e-04,-9.688350255601108074e-04,5.000000000000000000e-01,5.722046125811175443e-07,0.000000000000000000e+00
1.813115119934082031e+00,2.782066822052001953e+00,-4.738430404663085938e+01,-4.738430404663085938e+01,-7.683962583541870117e-02,-8.962111663818359375e+01,-6.311034411191940308e-02,4.657097533345222473e-02,-7.007231712341308594e+00,1.716327631129388465e-07,-3.357395529747009277e-02,4.836194992065429688e+00,-2.520579255360644311e-05,1.747922897338867188e+00,1.868996769189834595e-02,-4.600526392459869385e-02,5.000000000000000000e-01,2.765655608527595177e-06,0.000000000000000000e+00
1.813115119934082031e+00,2.782066822052001953e+00,-4.738430404663085938e+01,-4.738430404663085938e+01,-7.683962583541870117e-02,-8.962111663818359375e+01,-6.311034411191940308e-02,4.657097533345222473e-02,-7.007231712341308594e+00,1.716327631129388465e-07,-3.357395529747009277e-02,4.836194992065429688e+00,-2.520579255360644311e-05,1.747922897338867188e+00,1.868996769189834595e-02,-4.600526392459869385e-02,5.000000000000000000e-01,2.765655608527595177e-06,0.000000000000000000e+00
1.813115119934082031e+00,2.782066822052001953e+00,-4.738430404663085938e+01,-4.738430404663085938e+01,-7.683962583541870117e-02,-8.962111663818359375e+01,-6.311034411191940308e-02,4.657097533345222473e-02,-7.007231712341308594e+00,1.716327631129388465e-07,-3.357395529747009277e-02,4.836194992065429688e+00,-2.520579255360644311e-05,1.747922897338867188e+00,1.868996769189834595e-02,-4.600526392459869385e-02,5.000000000000000000e-01,2.765655608527595177e-06,0.000000000000000000e+00
1.813115119934082031e+00,2.782066822052001953e+00,-4.738430404663085938e+01,-4.738430404663085938e+01,-7.683962583541870117e-02,-8.962111663818359375e+01,-6.311034411191940308e-02,4.657097533345222473e-02,-7.007231712341308594e+00,1.716327631129388465e-07,-3.357395529747009277e-02,4.836194992065429688e+00,-2.520579255360644311e-05,1.747922897338867188e+00,1.868996769189834595e-02,-4.600526392459869385e-02,5.000000000000000000e-01,2.765655608527595177e-06,0.000000000000000000e+00
1.896134853363037109e+00,2.786472082138061523e+00,-4.804230880737304688e+01,-4.804230880737304688e+01,-2.330938577651977539e-01,-8.962517547607421875e+01,-6.234741583466529846e-02,4.359608516097068787e-02,-6.584970951080322266e+00,-2.968305125250481069e-05,-3.583353012800216675e-02,5.086269855499267578e+00,-3.596094902604818344e-04,1.399161815643310547e+00,1.799632608890533447e-02,-3.779802471399307251e-02,5.000000000000000000e-01,4.768371582031250000e-05,0.000000000000000000e+00
1.896134853363037109e+00,2.786472082138061523e+00,-4.804230880737304688e+01,-4.804230880737304688e+01,-2.330938577651977539e-01,-8.962517547607421875e+01,-6.234741583466529846e-02,4.359608516097068787e-02,-6.584970951080322266e+00,-2.968305125250481069e-05,-3.583353012800216675e-02,5.086269855499267578e+00,-3.596094902604818344e-04,1.399161815643310547e+00,1.799632608890533447e-02,-3.779802471399307251e-02,5.000000000000000000e-01,4.768371582031250000e-05,0.000000000000000000e+00
1.896134853363037109e+00,2.786472082138061523e+00,-4.804230880737304688e+01,-4.804230880737304688e+01,-2.330938577651977539e-01,-8.962517547607421875e+01,-6.234741583466529846e-02,4.359608516097068787e-02,-6.584970951080322266e+00,-2.968305125250481069e-05,-3.583353012800216675e-02,5.086269855499267578e+00,-3.596094902604818344e-04,1.399161815643310547e+00,1.799632608890533447e-02,-3.779802471399307251e-02,5.000000000000000000e-01,4.768371582031250000e-05,0.000000000000000000e+00
1.896134853363037109e+00,2.786472082138061523e+00,-4.804230880737304688e+01,-4.804230880737304688e+01,-2.330938577651977539e-01,-8.962517547607421875e+01,-6.234741583466529846e-02,4.359608516097068787e-02,-6.584970951080322266e+00,-2.968305125250481069e-05,-3.583353012800216675e-02,5.086269855499267578e+00,-3.596094902604818344e-04,1.399161815643310547e+00,1.799632608890533447e-02,-3.779802471399307251e-02,5.000000000000000000e-01,4.768371582031250000e-05,0.000000000000000000e+00
1.896134853363037109e+00,2.786472082138061523e+00,-4.804230880737304688e+01,-4.804230880737304688e+01,-2.330938577651977539e-01,-8.962517547607421875e+01,-6.234741583466529846e-02,4.359608516097068787e-02,-6.584970951080322266e+00,-2.968305125250481069e-05,-3.583353012800216675e-02,5.086269855499267578e+00,-3.596094902604818344e-04,1.399161815643310547e+00,1.799632608890533447e-02,-3.779802471399307251e-02,5.000000000000000000e-01,4.768371582031250000e-05,0.000000000000000000e+00
1.896134853363037109e+00,2.786472082138061523e+00,-4.804230880737304688e+01,-4.804230880737304688e+01,-2.330938577651977539e-01,-8.962517547607421875e+01,-6.234741583466529846e-02,4.359608516097068787e-02,-6.584970951080322266e+00,-2.968305125250481069e-05,-3.583353012800216675e-02,5.086269855499267578e+00,-3.596094902604818344e-04,1.399161815643310547e+00,1.799632608890533447e-02,-3.779802471399307251e-02,5.000000000000000000e-01,4.768371582031250000e-05,0.000000000000000000e+00
1.896134853363037109e+00,2.786472082138061523e+00,-4.804230880737304688e+01,-4.804230880737304688e+01,-2.330938577651977539e-01,-8.962517547607421875e+01,-6.234741583466529846e-02,4.359608516097068787e-02,-6.584970951080322266e+00,-2.968305125250481069e-05,-3.583353012800216675e-02,5.086269855499267578e+00,-3.596094902604818344e-04,1.399161815643310547e+00,1.799632608890533447e-02,-3.779802471399307251e-02,5.000000000000000000e-01,4.768371582031250000e-05,0.000000000000000000e+00
2.195794820785522461e+00,2.797634840011596680e+00,-4.972070693969726562e+01,-4.972070693969726562e+01,-3.135671317577362061e-01,-8.962732696533203125e+01,-6.198115646839141846e-02,3.971633315086364746e-02,-5.966727256774902344e+00,7.265936346811940894e-06,-1.653971523046493530e-02,2.850880146026611328e+00,4.782849282491952181e-04,-4.509159326553344727e-01,-5.489607807248830795e-03,-1.118370704352855682e-02,5.000000000000000000e-01,1.751899690134450793e-04,0.000000000000000000e+00
2.195794820785522461e+00,2.797634840011596680e+00,-4.972070693969726562e+01,-4.972070693969726562e+01,-3.135671317577362061e-01,-8.962732696533203125e+01,-6.198115646839141846e-02,3.971633315086364746e-02,-5.966727256774902344e+00,7.265936346811940894e-06,-1.653971523046493530e-02,2.850880146026611328e+00,4.782849282491952181e-04,-4.509159326553344727e-01,-5.489607807248830795e-03,-1.118370704352855682e-02,5.000000000000000000e-01,1.751899690134450793e-04,0.000000000000000000e+00
2.195794820785522461e+00,2.797634840011596680e+00,-4.972070693969726562e+01,-4.972070693969726562e+01,-3.135671317577362061e-01,-8.962732696533203125e+01,-6.198115646839141846e-02,3.971633315086364746e-02,-5.966727256774902344e+00,7.265936346811940894e-06,-1.653971523046493530e-02,2.850880146026611328e+00,4.782849282491952181e-04,-4.509159326553344727e-01,-5.489607807248830795e-03,-1.118370704352855682e-02,5.000000000000000000e-01,1.751899690134450793e-04,0.000000000000000000e+00
2.195794820785522461e+00,2.797634840011596680e+00,-4.972070693969726562e+01,-4.972070693969726562e+01,-3.135671317577362061e-01,-8.962732696533203125e+01,-6.198115646839141846e-02,3.971633315086364746e-02,-5.966727256774902344e+00,7.265936346811940894e-06,-1.653971523046493530e-02,2.850880146026611328e+00,4.782849282491952181e-04,-4.509159326553344727e-01,-5.489607807248830795e-03,-1.118370704352855682e-02,5.000000000000000000e-01,1.751899690134450793e-04,0.000000000000000000e+00
2.195794820785522461e+00,2.797634840011596680e+00,-4.972070693969726562e+01,-4.972070693969726562e+01,-3.135671317577362061e-01,-8.962732696533203125e+01,-6.198115646839141846e-02,3.971633315086364746e-02,-5.966727256774902344e+00,7.265936346811940894e-06,-1.653971523046493530e-02,2.850880146026611328e+00,4.782849282491952181e-04,-4.509159326553344727e-01,-5.489607807248830795e-03,-1.118370704352855682e-02,5.000000000000000000e-01,1.751899690134450793e-04,0.000000000000000000e+00
2.195794820785522461e+00,2.797634840011596680e+00,-4.972070693969726562e+01,-4.972070693969726562e+01,-3.135671317577362061e-01,-8.962732696533203125e+01,-6.198115646839141846e-02,3.971633315086364746e-02,-5.966727256774902344e+00,7.265936346811940894e-06,-1.653971523046493530e-02,2.850880146026611328e+00,4.782849282491952181e-04,-4.509159326553344727e-01,-5.489607807248830795e-03,-1.118370704352855682e-02,5.000000000000000000e-01,1.751899690134450793e-04,0.000000000000000000e+00
2.195794820785522461e+00,2.797634840011596680e+00,-4.972070693969726562e+01,-4.972070693969726562e+01,-3.135671317577362061e-01,-8.962732696533203125e+01,-6.198115646839141846e-02,3.971633315086364746e-02,-5.966727256774902344e+00,7.265936346811940894e-06,-1.653971523046493530e-02,2.850880146026611328e+00,4.782849282491952181e-04,-4.509159326553344727e-01,-5.489607807248830795e-03,-1.118370704352855682e-02,5.000000000000000000e-01,1.751899690134450793e-04,0.000000000000000000e+00
2.195794820785522461e+00,2.797634840011596680e+00,-4.972070693969726562e+01,-4.972070693969726562e+01,-3.135671317577362061e-01,-8.962732696533203125e+01,-6.198115646839141846e-02,3.971633315086364746e-02,-5.966727256774902344e+00,7.265936346811940894e-06,-1.653971523046493530e-02,2.850880146026611328e+00,4.782849282491952181e-04,-4.509159326553344727e-01,-5.489607807248830795e-03,-1.118370704352855682e-02,5.000000000000000000e-01,1.751899690134450793e-04,0.000000000000000000e+00
2.195794820785522461e+00,2.797634840011596680e+00,-4.972070693969726562e+01,-4.972070693969726562e+01,-3.135671317577362061e-01,-8.962732696533203125e+01,-6.198115646839141846e-02,3.971633315086364746e-02,-5.966727256774902344e+00,7.265936346811940894e-06,-1.653971523046493530e-02,2.850880146026611328e+00,4.782849282491952181e-04,-4.509159326553344727e-01,-5.489607807248830795e-03,-1.118370704352855682e-02,5.000000000000000000e-01,1.751899690134450793e-04,0.000000000000000000e+00
2.195794820785522461e+00,2.797634840011596680e+00,-4.972070693969726562e+01,-4.972070693969726562e+01,-3.135671317577362061e-01,-8.962732696533203125e+01,-6.198115646839141846e-02,3.971633315086364746e-02,-5.966727256774902344e+00,7.265936346811940894e-06,-1.653971523046493530e-02,2.850880146026611328e+00,4.782849282491952181e-04,-4.509159326553344727e-01,-5.489607807248830795e-03,-1.118370704352855682e-02,5.000000000000000000e-01,1.751899690134450793e-04,0.000000000000000000e+00
2.374083757400512695e+00,2.799715757369995117e+00,-5.003447341918945312e+01,-5.003447341918945312e+01,-2.909865379333496094e-01,-8.962671661376953125e+01,-6.207275018095970154e-02,3.919670358300209045e-02,-5.893535137176513672e+00,1.695407809165772051e-05,-2.914536278694868088e-03,4.105252921581268311e-01,5.433955448097549379e-05,-5.251663923263549805e-01,-5.640937946736812592e-03,-1.880585774779319763e-02,5.000000000000000000e-01,1.524925173725932837e-04,0.000000000000000000e+00
2.374083757400512695e+00,2.799715757369995117e+00,-5.003447341918945312e+01,-5.003447341918945312e+01,-2.909865379333496094e-01,-8.962671661376953125e+01,-6.207275018095970154e-02,3.919670358300209045e-02,-5.893535137176513672e+00,1.695407809165772051e-05,-2.914536278694868088e-03,4.105252921581268311e-01,5.433955448097549379e-05,-5.251663923263549805e-01,-5.640937946736812592e-03,-1.880585774779319763e-02,5.000000000000000000e-01,1.524925173725932837e-04,0.000000000000000000e+00
2.374083757400512695e+00,2.799715757369995117e+00,-5.003447341918945312e+01,-5.003447341918945312e+01,-2.909865379333496094e-01,-8.962671661376953125e+01,-6.207275018095970154e-02,3.919670358300209045e-02,-5.893535137176513672e+00,1.695407809165772051e-05,-2.914536278694868088e-03,4.105252921581268311e-01,5.433955448097549379e-05,-5.251663923263549805e-01,-5.640937946736812592e-03,-1.880585774779319763e-02,5.000000000000000000e-01,1.524925173725932837e-04,0.000000000000000000e+00
2.447860002517700195e+00,2.803650140762329102e+00,-5.061706542968750000e+01,-5.061706542968750000e+01,-2.373695522546768188e-01,-8.963156890869140625e+01,-6.243897229433059692e-02,3.871804848313331604e-02,-5.804496288299560547e+00,2.404765655228402466e-05,-6.487929727882146835e-03,1.206876993179321289e+00,9.614990267436951399e-05,-7.083479166030883789e-01,-1.818921230733394623e-02,-6.304979920387268066e-01,5.000000000000000000e-01,1.473426818847656250e-04,0.000000000000000000e+00
2.447860002517700195e+00,2.803650140762329102e+00,-5.061706542968750000e+01,-5.061706542968750000e+01,-2.373695522546768188e-01,-8.963156890869140625e+01,-6.243897229433059692e-02,3.871804848313331604e-02,-5.804496288299560547e+00,2.404765655228402466e-05,-6.487929727882146835e-03,1.206876993179321289e+00,9.614990267436951399e-05,-7.083479166030883789e-01,-1.818921230733394623e-02,-6.304979920387268066e-01,5.000000000000000000e-01,1.473426818847656250e-04,0.000000000000000000e+00
2.500878810882568359e+00,2.806324005126953125e+00,-5.104018402099609375e+01,-5.104018402099609375e+01,-2.041270285844802856e-01,-8.961695098876953125e+01,-6.253051757812500000e-02,3.799630329012870789e-02,-5.687314510345458984e+00,2.206476528954226524e-05,-1.361300237476825714e-02,2.210192680358886719e+00,-3.739976818906143308e-05,-3.183468282222747803e-01,1.117834914475679398e-02,1.077472567558288574e+00,5.000000000000000000e-01,2.025604189839214087e-04,0.000000000000000000e+00
2.500878810882568359e+00,2.806324005126953125e+00,-5.104018402099609375e+01,-5.104018402099609375e+01,-2.041270285844802856e-01,-8.961695098876953125e+01,-6.253051757812500000e-02,3.799630329012870789e-02,-5.687314510345458984e+00,2.206476528954226524e-05,-1.361300237476825714e-02,2.210192680358886719e+00,-3.739976818906143308e-05,-3.183468282222747803e-01,1.117834914475679398e-02,1.077472567558288574e+00,5.000000000000000000e-01,2.025604189839214087e-04,0.000000000000000000e+00
2.500878810882568359e+00,2.806324005126953125e+00,-5.104018402099609375e+01,-5.104018402099609375e+01,-2.041270285844802856e-01,-8.961695098876953125e+01,-6.253051757812500000e-02,3.799630329012870789e-02,-5.687314510345458984e+00,2.206476528954226524e-05,-1.361300237476825714e-02,2.210192680358886719e+00,-3.739976818906143308e-05,-3.183468282222747803e-01,1.117834914475679398e-02,1.077472567558288574e+00,5.000000000000000000e-01,2.025604189839214087e-04,0.000000000000000000e+00
2.560195446014404297e+00,2.808341264724731445e+00,-5.134125518798828125e+01,-5.134125518798828125e+01,-1.822840720415115356e-01,-8.961808013916015625e+01,-6.249999627470970154e-02,3.746583685278892517e-02,-5.648565769195556641e+00,1.769784830685239285e-05,-8.942962624132633209e-03,6.532524824142456055e-01,-7.362044561887159944e-05,-3.378979265689849854e-01,9.572794660925865173e-03,6.829964518547058105e-01,5.000000000000000000e-01,5.702972339349798858e-05,0.000000000000000000e+00
2.560195446014404297e+00,2.808341264724731445e+00,-5.134125518798828125e+01,-5.134125518798828125e+01,-1.822840720415115356e-01,-8.961808013916015625e+01,-6.249999627470970154e-02,3.746583685278892517e-02,-5.648565769195556641e+00,1.769784830685239285e-05,-8.942962624132633209e-03,6.532524824142456055e-01,-7.362044561887159944e-05,-3.378979265689849854e-01,9.572794660925865173e-03,6.829964518547058105e-01,5.000000000000000000e-01,5.702972339349798858e-05,0.000000000000000000e+00
2.618730545043945312e+00,2.810527801513671875e+00,-5.167535400390625000e+01,-5.167535400390625000e+01,-1.595190614461898804e-01,-8.961520385742187500e+01,-6.240843608975410461e-02,3.695653006434440613e-02,-5.592561721801757812e+00,1.420763965143123642e-05,-8.700878359377384186e-03,9.567601084709167480e-01,-5.962591239949688315e-05,-2.354365885257720947e-01,1.303474698215723038e-02,1.069407105445861816e+00,5.000000000000000000e-01,6.065368506824597716e-05,0.000000000000000000e+00
2.618730545043945312e+00,2.810527801513671875e+00,-5.167535400390625000e+01,-5.167535400390625000e+01,-1.595190614461898804e-01,-8.961520385742187500e+01,-6.240843608975410461e-02,3.695653006434440613e-02,-5.592561721801757812e+00,1.420763965143123642e-05,-8.700878359377384186e-03,9.567601084709167480e-01,-5.962591239949688315e-05,-2.354365885257720947e-01,1.303474698215723038e-02,1.069407105445861816e+00,5.000000000000000000e-01,6.065368506824597716e-05,0.000000000000000000e+00
2.677334070205688477e+00,2.812691926956176758e+00,-5.200196075439453125e+01,-5.200196075439453125e+01,-1.418766826391220093e-01,-8.961508178710937500e+01,-6.243895739316940308e-02,3.657287359237670898e-02,-5.539857864379882812e+00,8.686701221449766308e-06,-6.546644959598779678e-03,8.993291258811950684e-01,-9.420829883310943842e-05,-1.531164050102233887e-01,1.114897895604372025e-02,1.081025958061218262e+00,5.000000000000000000e-01,5.197525024414062500e-05,0.000000000000000000e+00
2.677334070205688477e+00,2.812691926956176758e+00,-5.200196075439453125e+01,-5.200196075439453125e+01,-1.418766826391220093e-01,-8.961508178710937500e+01,-6.243895739316940308e-02,3.657287359237670898e-02,-5.539857864379882812e+00,8.686701221449766308e-06,-6.546644959598779678e-03,8.993291258811950684e-01,-9.420829883310943842e-05,-1.531164050102233887e-01,1.114897895604372025e-02,1.081025958061218262e+00,5.000000000000000000e-01,5.197525024414062500e-05,0.000000000000000000e+00
2.677334070205688477e+00,2.812691926956176758e+00,-5.200196075439453125e+01,-5.200196075439453125e+01,-1.418766826391220093e-01,-8.961508178710937500e+01,-6.243895739316940308e-02,3.657287359237670898e-02,-5.539857864379882812e+00,8.686701221449766308e-06,-6.546644959598779678e-03,8.993291258811950684e-01,-9.420829883310943842e-05,-1.531164050102233887e-01,1.114897895604372025e-02,1.081025958061218262e+00,5.000000000000000000e-01,5.197525024414062500e-05,0.000000000000000000e+00
2.677334070205688477e+00,2.812691926956176758e+00,-5.200196075439453125e+01,-5.200196075439453125e+01,-1.418766826391220093e-01,-8.961508178710937500e+01,-6.243895739316940308e-02,3.657287359237670898e-02,-5.539857864379882812e+00,8.686701221449766308e-06,-6.546644959598779678e-03,8.993291258811950684e-01,-9.420829883310943842e-05,-1.531164050102233887e-01,1.114897895604372025e-02,1.081025958061218262e+00,5.000000000000000000e-01,5.197525024414062500e-05,0.000000000000000000e+00
2.755024909973144531e+00,2.814842462539672852e+00,-5.232620620727539062e+01,-5.232620620727539062e+01,-1.263721585273742676e-01,-8.961587524414062500e+01,-6.243895739316940308e-02,3.617276251316070557e-02,-5.499867916107177734e+00,4.958380031894193962e-06,-5.150042008608579636e-03,5.147318243980407715e-01,-4.798920053872279823e-05,-1.550270915031433105e-01,1.009495090693235397e-02,1.017862677574157715e+00,1.000000000000000000e+00,1.525878906250000000e-05,0.000000000000000000e+00
2.755024909973144531e+00,2.814842462539672852e+00,-5.232620620727539062e+01,-5.232620620727539062e+01,-1.263721585273742676e-01,-8.961587524414062500e+01,-6.243895739316940308e-02,3.617276251316070557e-02,-5.499867916107177734e+00,4.958380031894193962e-06,-5.150042008608579636e-03,5.147318243980407715e-01,-4.798920053872279823e-05,-1.550270915031433105e-01,1.009495090693235397e-02,1.017862677574157715e+00,1.000000000000000000e+00,1.525878906250000000e-05,0.000000000000000000e+00
2.755024909973144531e+00,2.814842462539672852e+00,-5.232620620727539062e+01,-5.232620620727539062e+01,-1.263721585273742676e-01,-8.961587524414062500e+01,-6.243895739316940308e-02,3.617276251316070557e-02,-5.499867916107177734e+00,4.958380031894193962e-06,-5.150042008608579636e-03,5.147318243980407715e-01,-4.798920053872279823e-05,-1.550270915031433105e-01,1.009495090693235397e-02,1.017862677574157715e+00,1.000000000000000000e+00,1.525878906250000000e-05,0.000000000000000000e+00
2.830169916152954102e+00,2.817818164825439453e+00,-5.275649642944335938e+01,-5.275649642944335938e+01,-8.755619078874588013e-02,-8.962841033935546875e+01,-6.262205541133880615e-02,3.679830208420753479e-02,-5.580954074859619141e+00,5.311140284902649000e-06,8.324433118104934692e-03,-1.079062461853027344e+00,4.694393737736390904e-06,-8.212056159973144531e-01,-1.115718297660350800e-02,-6.659626364707946777e-01,1.000000000000000000e+00,3.376007225597277284e-05,0.000000000000000000e+00
2.830169916152954102e+00,2.817818164825439453e+00,-5.275649642944335938e+01,-5.275649642944335938e+01,-8.755619078874588013e-02,-8.962841033935546875e+01,-6.262205541133880615e-02,3.679830208420753479e-02,-5.580954074859619141e+00,5.311140284902649000e-06,8.324433118104934692e-03,-1.079062461853027344e+00,4.694393737736390904e-06,-8.212056159973144531e-01,-1.115718297660350800e-02,-6.659626364707946777e-01,1.000000000000000000e+00,3.376007225597277284e-05,0.000000000000000000e+00
2.830169916152954102e+00,2.817818164825439453e+00,-5.275649642944335938e+01,-5.275649642944335938e+01,-8.755619078874588013e-02,-8.962841033935546875e+01,-6.262205541133880615e-02,3.679830208420753479e-02,-5.580954074859619141e+00,5.311140284902649000e-06,8.324433118104934692e-03,-1.079062461853027344e+00,4.694393737736390904e-06,-8.212056159973144531e-01,-1.115718297660350800e-02,-6.659626364707946777e-01,1.000000000000000000e+00,3.376007225597277284e-05,0.000000000000000000e+00
2.830169916152954102e+00,2.817818164825439453e+00,-5.275649642944335938e+01,-5.275649642944335938e+01,-8.755619078874588013e-02,-8.962841033935546875e+01,-6.262205541133880615e-02,3.679830208420753479e-02,-5.580954074859619141e+00,5.311140284902649000e-06,8.324433118104934692e-03,-1.079062461853027344e+00,4.694393737736390904e-06,-8.212056159973144531e-01,-1.115718297660350800e-02,-6.659626364707946777e-01,1.000000000000000000e+00,3.376007225597277284e-05,0.000000000000000000e+00
2.830169916152954102e+00,2.817818164825439453e+00,-5.275649642944335938e+01,-5.275649642944335938e+01,-8.755619078874588013e-02,-8.962841033935546875e+01,-6.262205541133880615e-02,3.679830208420753479e-02,-5.580954074859619141e+00,5.311140284902649000e-06,8.324433118104934692e-03,-1.079062461853027344e+00,4.694393737736390904e-06,-8.212056159973144531e-01,-1.115718297660350800e-02,-6.659626364707946777e-01,1.000000000000000000e+00,3.376007225597277284e-05,0.000000000000000000e+00
