# Time,X,Y,Z,Roll,Pitch,Yaw,Vx,Vy,Vz,Ax,Ay,Az,Wx,Wy,Wz,Throttle,Steer,Brake
0.000000000000000000e+00,-1.036448516845703125e+02,1.517012786865234375e+02,1.517012786865234375e+02,-8.824603632092475891e-03,-1.610498199462890625e+02,-1.122741475701332092e-01,-6.061139583587646484e+00,-1.945624947547912598e+00,3.175286337864235975e-06,1.640632152557373047e-01,2.895636260509490967e-01,-1.184498728434846271e-06,8.938494324684143066e-02,3.078691065311431885e-01,-6.320409774780273438e+00,5.000000000000000000e-01,-3.479744866490364075e-02,0.000000000000000000e+00
1.045818328857421875e-01,-1.036448516845703125e+02,1.517012786865234375e+02,1.517012786865234375e+02,-8.824603632092475891e-03,-1.610498199462890625e+02,-1.122741475701332092e-01,-6.061139583587646484e+00,-1.945624947547912598e+00,3.175286337864235975e-06,1.640632152557373047e-01,2.895636260509490967e-01,-1.184498728434846271e-06,8.938494324684143066e-02,3.078691065311431885e-01,-6.320409774780273438e+00,5.000000000000000000e-01,-3.479744866490364075e-02,0.000000000000000000e+00
1.045818328857421875e-01,-1.036448516845703125e+02,1.517012786865234375e+02,1.517012786865234375e+02,-8.824603632092475891e-03,-1.610498199462890625e+02,-1.122741475701332092e-01,-6.061139583587646484e+00,-1.945624947547912598e+00,3.175286337864235975e-06,1.640632152557373047e-01,2.895636260509490967e-01,-1.184498728434846271e-06,8.938494324684143066e-02,3.078691065311431885e-01,-6.320409774780273438e+00,5.000000000000000000e-01,-3.479744866490364075e-02,0.000000000000000000e+00
1.045818328857421875e-01,-1.036448516845703125e+02,1.517012786865234375e+02,1.517012786865234375e+02,-8.824603632092475891e-03,-1.610498199462890625e+02,-1.122741475701332092e-01,-6.061139583587646484e+00,-1.945624947547912598e+00,3.175286337864235975e-06,1.640632152557373047e-01,2.895636260509490967e-01,-1.184498728434846271e-06,8.938494324684143066e-02,3.078691065311431885e-01,-6.320409774780273438e+00,5.000000000000000000e-01,-3.479744866490364075e-02,0.000000000000000000e+00
1.045818328857421875e-01,-1.036448516845703125e+02,1.517012786865234375e+02,1.517012786865234375e+02,-8.824603632092475891e-03,-1.610498199462890625e+02,-1.122741475701332092e-01,-6.061139583587646484e+00,-1.945624947547912598e+00,3.175286337864235975e-06,1.640632152557373047e-01,2.895636260509490967e-01,-1.184498728434846271e-06,8.938494324684143066e-02,3.078691065311431885e-01,-6.320409774780273438e+00,5.000000000000000000e-01,-3.479744866490364075e-02,0.000000000000000000e+00
1.045818328857421875e-01,-1.036448516845703125e+02,1.517012786865234375e+02,1.517012786865234375e+02,-8.824603632092475891e-03,-1.610498199462890625e+02,-1.122741475701332092e-01,-6.061139583587646484e+00,-1.945624947547912598e+00,3.175286337864235975e-06,1.640632152557373047e-01,2.895636260509490967e-01,-1.184498728434846271e-06,8.938494324684143066e-02,3.078691065311431885e-01,-6.320409774780273438e+00,5.000000000000000000e-01,-3.479744866490364075e-02,0.000000000000000000e+00
1.045818328857421875e-01,-1.042503662109375000e+02,1.515140838623046875e+02,1.515140838623046875e+02,1.276562269777059555e-02,-1.618347625732421875e+02,-1.501464992761611938e-01,-6.027719497680664062e+00,-1.764791846275329590e+00,-3.013108425875543617e-06,3.191713690757751465e-01,1.727007746696472168e+00,-5.910093750571832061e-05,-3.235995471477508545e-01,2.554660439491271973e-01,-9.892469406127929688e+00,5.000000000000000000e-01,-5.742667242884635925e-02,0.000000000000000000e+00
2.092907428741455078e-01,-1.042503662109375000e+02,1.515140838623046875e+02,1.515140838623046875e+02,1.276562269777059555e-02,-1.618347625732421875e+02,-1.501464992761611938e-01,-6.027719497680664062e+00,-1.764791846275329590e+00,-3.013108425875543617e-06,3.191713690757751465e-01,1.727007746696472168e+00,-5.910093750571832061e-05,-3.235995471477508545e-01,2.554660439491271973e-01,-9.892469406127929688e+00,5.000000000000000000e-01,-5.742667242884635925e-02,0.000000000000000000e+00
2.092907428741455078e-01,-1.042503662109375000e+02,1.515140838623046875e+02,1.515140838623046875e+02,1.276562269777059555e-02,-1.618347625732421875e+02,-1.501464992761611938e-01,-6.027719497680664062e+00,-1.764791846275329590e+00,-3.013108425875543617e-06,3.191713690757751465e-01,1.727007746696472168e+00,-5.910093750571832061e-05,-3.235995471477508545e-01,2.554660439491271973e-01,-9.892469406127929688e+00,5.000000000000000000e-01,-5.742667242884635925e-02,0.000000000000000000e+00
2.092907428741455078e-01,-1.042503662109375000e+02,1.515140838623046875e+02,1.515140838623046875e+02,1.276562269777059555e-02,-1.618347625732421875e+02,-1.501464992761611938e-01,-6.027719497680664062e+00,-1.764791846275329590e+00,-3.013108425875543617e-06,3.191713690757751465e-01,1.727007746696472168e+00,-5.910093750571832061e-05,-3.235995471477508545e-01,2.554660439491271973e-01,-9.892469406127929688e+00,5.000000000000000000e-01,-5.742667242884635925e-02,0.000000000000000000e+00
2.092907428741455078e-01,-1.042503662109375000e+02,1.515140838623046875e+02,1.515140838623046875e+02,1.276562269777059555e-02,-1.618347625732421875e+02,-1.501464992761611938e-01,-6.027719497680664062e+00,-1.764791846275329590e+00,-3.013108425875543617e-06,3.191713690757751465e-01,1.727007746696472168e+00,-5.910093750571832061e-05,-3.235995471477508545e-01,2.554660439491271973e-01,-9.892469406127929688e+00,5.000000000000000000e-01,-5.742667242884635925e-02,0.000000000000000000e+00
2.092907428741455078e-01,-1.048505630493164062e+02,1.513374938964843750e+02,1.513374938964843750e+02,3.255951032042503357e-02,-1.626205291748046875e+02,-1.403808444738388062e-01,-5.958281517028808594e+00,-1.681715011596679688e+00,-1.277710566682799254e-06,9.305722713470458984e-01,1.113353252410888672e+00,2.325691457372158766e-05,1.373548293486237526e-03,3.415207266807556152e-01,-9.206863403320312500e+00,5.000000000000000000e-01,-4.956970363855361938e-02,0.000000000000000000e+00
2.839093208312988281e-01,-1.048505630493164062e+02,1.513374938964843750e+02,1.513374938964843750e+02,3.255951032042503357e-02,-1.626205291748046875e+02,-1.403808444738388062e-01,-5.958281517028808594e+00,-1.681715011596679688e+00,-1.277710566682799254e-06,9.305722713470458984e-01,1.113353252410888672e+00,2.325691457372158766e-05,1.373548293486237526e-03,3.415207266807556152e-01,-9.206863403320312500e+00,5.000000000000000000e-01,-4.956970363855361938e-02,0.000000000000000000e+00
2.839093208312988281e-01,-1.048505630493164062e+02,1.513374938964843750e+02,1.513374938964843750e+02,3.255951032042503357e-02,-1.626205291748046875e+02,-1.403808444738388062e-01,-5.958281517028808594e+00,-1.681715011596679688e+00,-1.277710566682799254e-06,9.305722713470458984e-01,1.113353252410888672e+00,2.325691457372158766e-05,1.373548293486237526e-03,3.415207266807556152e-01,-9.206863403320312500e+00,5.000000000000000000e-01,-4.956970363855361938e-02,0.000000000000000000e+00
2.839093208312988281e-01,-1.048505630493164062e+02,1.513374938964843750e+02,1.513374938964843750e+02,3.255951032042503357e-02,-1.626205291748046875e+02,-1.403808444738388062e-01,-5.958281517028808594e+00,-1.681715011596679688e+00,-1.277710566682799254e-06,9.305722713470458984e-01,1.113353252410888672e+00,2.325691457372158766e-05,1.373548293486237526e-03,3.415207266807556152e-01,-9.206863403320312500e+00,5.000000000000000000e-01,-4.956970363855361938e-02,0.000000000000000000e+00
2.839093208312988281e-01,-1.048505630493164062e+02,1.513374938964843750e+02,1.513374938964843750e+02,3.255951032042503357e-02,-1.626205291748046875e+02,-1.403808444738388062e-01,-5.958281517028808594e+00,-1.681715011596679688e+00,-1.277710566682799254e-06,9.305722713470458984e-01,1.113353252410888672e+00,2.325691457372158766e-05,1.373548293486237526e-03,3.415207266807556152e-01,-9.206863403320312500e+00,5.000000000000000000e-01,-4.956970363855361938e-02,0.000000000000000000e+00
3.569011688232421875e-01,-1.052949295043945312e+02,1.512103424072265625e+02,1.512103424072265625e+02,3.945117071270942688e-02,-1.631014709472656250e+02,-1.210021674633026123e-01,-5.964924812316894531e+00,-1.660812377929687500e+00,1.249126967195479665e-06,-9.101420640945434570e-02,2.863694131374359131e-01,3.461807864368893206e-05,2.022238075733184814e-01,4.261931031942367554e-02,-5.331103324890136719e+00,5.000000000000000000e-01,-3.967938944697380066e-02,0.000000000000000000e+00
3.569011688232421875e-01,-1.052949295043945312e+02,1.512103424072265625e+02,1.512103424072265625e+02,3.945117071270942688e-02,-1.631014709472656250e+02,-1.210021674633026123e-01,-5.964924812316894531e+00,-1.660812377929687500e+00,1.249126967195479665e-06,-9.101420640945434570e-02,2.863694131374359131e-01,3.461807864368893206e-05,2.022238075733184814e-01,4.261931031942367554e-02,-5.331103324890136719e+00,5.000000000000000000e-01,-3.967938944697380066e-02,0.000000000000000000e+00
3.569011688232421875e-01,-1.052949295043945312e+02,1.512103424072265625e+02,1.512103424072265625e+02,3.945117071270942688e-02,-1.631014709472656250e+02,-1.210021674633026123e-01,-5.964924812316894531e+00,-1.660812377929687500e+00,1.249126967195479665e-06,-9.101420640945434570e-02,2.863694131374359131e-01,3.461807864368893206e-05,2.022238075733184814e-01,4.261931031942367554e-02,-5.331103324890136719e+00,5.000000000000000000e-01,-3.967938944697380066e-02,0.000000000000000000e+00
3.569011688232421875e-01,-1.052949295043945312e+02,1.512103424072265625e+02,1.512103424072265625e+02,3.945117071270942688e-02,-1.631014709472656250e+02,-1.210021674633026123e-01,-5.964924812316894531e+00,-1.660812377929687500e+00,1.249126967195479665e-06,-9.101420640945434570e-02,2.863694131374359131e-01,3.461807864368893206e-05,2.022238075733184814e-01,4.261931031942367554e-02,-5.331103324890136719e+00,5.000000000000000000e-01,-3.967938944697380066e-02,0.000000000000000000e+00
4.765405654907226562e-01,-1.057273101806640625e+02,1.510901489257812500e+02,1.510901489257812500e+02,4.300969839096069336e-02,-1.635781250000000000e+02,-1.174621582031250000e-01,-5.912933349609375000e+00,-1.587067723274230957e+00,-1.258666316061862744e-06,4.345680773258209229e-01,6.163910627365112305e-01,-2.096126809192355722e-05,-1.345991436392068863e-02,9.069377928972244263e-02,-7.214469909667968750e+00,5.000000000000000000e-01,-4.242401197552680969e-02,0.000000000000000000e+00
4.765405654907226562e-01,-1.057273101806640625e+02,1.510901489257812500e+02,1.510901489257812500e+02,4.300969839096069336e-02,-1.635781250000000000e+02,-1.174621582031250000e-01,-5.912933349609375000e+00,-1.587067723274230957e+00,-1.258666316061862744e-06,4.345680773258209229e-01,6.163910627365112305e-01,-2.096126809192355722e-05,-1.345991436392068863e-02,9.069377928972244263e-02,-7.214469909667968750e+00,5.000000000000000000e-01,-4.242401197552680969e-02,0.000000000000000000e+00
4.765405654907226562e-01,-1.057273101806640625e+02,1.510901489257812500e+02,1.510901489257812500e+02,4.300969839096069336e-02,-1.635781250000000000e+02,-1.174621582031250000e-01,-5.912933349609375000e+00,-1.587067723274230957e+00,-1.258666316061862744e-06,4.345680773258209229e-01,6.163910627365112305e-01,-2.096126809192355722e-05,-1.345991436392068863e-02,9.069377928972244263e-02,-7.214469909667968750e+00,5.000000000000000000e-01,-4.242401197552680969e-02,0.000000000000000000e+00
4.765405654907226562e-01,-1.057273101806640625e+02,1.510901489257812500e+02,1.510901489257812500e+02,4.300969839096069336e-02,-1.635781250000000000e+02,-1.174621582031250000e-01,-5.912933349609375000e+00,-1.587067723274230957e+00,-1.258666316061862744e-06,4.345680773258209229e-01,6.163910627365112305e-01,-2.096126809192355722e-05,-1.345991436392068863e-02,9.069377928972244263e-02,-7.214469909667968750e+00,5.000000000000000000e-01,-4.242401197552680969e-02,0.000000000000000000e+00
4.765405654907226562e-01,-1.057273101806640625e+02,1.510901489257812500e+02,1.510901489257812500e+02,4.300969839096069336e-02,-1.635781250000000000e+02,-1.174621582031250000e-01,-5.912933349609375000e+00,-1.587067723274230957e+00,-1.258666316061862744e-06,4.345680773258209229e-01,6.163910627365112305e-01,-2.096126809192355722e-05,-1.345991436392068863e-02,9.069377928972244263e-02,-7.214469909667968750e+00,5.000000000000000000e-01,-4.242401197552680969e-02,0.000000000000000000e+00
4.765405654907226562e-01,-1.057273101806640625e+02,1.510901489257812500e+02,1.510901489257812500e+02,4.300969839096069336e-02,-1.635781250000000000e+02,-1.174621582031250000e-01,-5.912933349609375000e+00,-1.587067723274230957e+00,-1.258666316061862744e-06,4.345680773258209229e-01,6.163910627365112305e-01,-2.096126809192355722e-05,-1.345991436392068863e-02,9.069377928972244263e-02,-7.214469909667968750e+00,5.000000000000000000e-01,-4.242401197552680969e-02,0.000000000000000000e+00
4.765405654907226562e-01,-1.057273101806640625e+02,1.510901489257812500e+02,1.510901489257812500e+02,4.300969839096069336e-02,-1.635781250000000000e+02,-1.174621582031250000e-01,-5.912933349609375000e+00,-1.587067723274230957e+00,-1.258666316061862744e-06,4.345680773258209229e-01,6.163910627365112305e-01,-2.096126809192355722e-05,-1.345991436392068863e-02,9.069377928972244263e-02,-7.214469909667968750e+00,5.000000000000000000e-01,-4.242401197552680969e-02,0.000000000000000000e+00
6.200885772705078125e-01,-1.063134078979492188e+02,1.509217529296875000e+02,1.509217529296875000e+02,4.632917046546936035e-02,-1.637981262207031250e+02,-2.911376953125000000e-02,-5.795710086822509766e+00,-1.683533906936645508e+00,4.958279987476998940e-06,8.166136741638183594e-01,-6.720134019851684570e-01,4.330918091000057757e-05,4.665413796901702881e-01,3.527206778526306152e-01,-2.322891712188720703e+00,5.000000000000000000e-01,0.000000000000000000e+00,0.000000000000000000e+00
6.200885772705078125e-01,-1.063134078979492188e+02,1.509217529296875000e+02,1.509217529296875000e+02,4.632917046546936035e-02,-1.637981262207031250e+02,-2.911376953125000000e-02,-5.795710086822509766e+00,-1.683533906936645508e+00,4.958279987476998940e-06,8.166136741638183594e-01,-6.720134019851684570e-01,4.330918091000057757e-05,4.665413796901702881e-01,3.527206778526306152e-01,-2.322891712188720703e+00,5.000000000000000000e-01,0.000000000000000000e+00,0.000000000000000000e+00
6.200885772705078125e-01,-1.063134078979492188e+02,1.509217529296875000e+02,1.509217529296875000e+02,4.632917046546936035e-02,-1.637981262207031250e+02,-2.911376953125000000e-02,-5.795710086822509766e+00,-1.683533906936645508e+00,4.958279987476998940e-06,8.166136741638183594e-01,-6.720134019851684570e-01,4.330918091000057757e-05,4.665413796901702881e-01,3.527206778526306152e-01,-2.322891712188720703e+00,5.000000000000000000e-01,0.000000000000000000e+00,0.000000000000000000e+00
6.200885772705078125e-01,-1.063134078979492188e+02,1.509217529296875000e+02,1.509217529296875000e+02,4.632917046546936035e-02,-1.637981262207031250e+02,-2.911376953125000000e-02,-5.795710086822509766e+00,-1.683533906936645508e+00,4.958279987476998940e-06,8.166136741638183594e-01,-6.720134019851684570e-01,4.330918091000057757e-05,4.665413796901702881e-01,3.527206778526306152e-01,-2.322891712188720703e+00,5.000000000000000000e-01,0.000000000000000000e+00,0.000000000000000000e+00
6.200885772705078125e-01,-1.063134078979492188e+02,1.509217529296875000e+02,1.509217529296875000e+02,4.632917046546936035e-02,-1.637981262207031250e+02,-2.911376953125000000e-02,-5.795710086822509766e+00,-1.683533906936645508e+00,4.958279987476998940e-06,8.166136741638183594e-01,-6.720134019851684570e-01,4.330918091000057757e-05,4.665413796901702881e-01,3.527206778526306152e-01,-2.322891712188720703e+00,5.000000000000000000e-01,0.000000000000000000e+00,0.000000000000000000e+00
6.200885772705078125e-01,-1.063134078979492188e+02,1.509217529296875000e+02,1.509217529296875000e+02,4.632917046546936035e-02,-1.637981262207031250e+02,-2.911376953125000000e-02,-5.795710086822509766e+00,-1.683533906936645508e+00,4.958279987476998940e-06,8.166136741638183594e-01,-6.720134019851684570e-01,4.330918091000057757e-05,4.665413796901702881e-01,3.527206778526306152e-01,-2.322891712188720703e+00,5.000000000000000000e-01,0.000000000000000000e+00,0.000000000000000000e+00
7.946169376373291016e-01,-1.068943557739257812e+02,1.507693023681640625e+02,1.507693023681640625e+02,5.595290660858154297e-02,-1.644076080322265625e+02,-1.349487006664276123e-01,-5.773695945739746094e+00,-1.386308431625366211e+00,-6.808099442423554137e-06,1.261350363492965698e-01,1.703021049499511719e+00,-6.741815013810992241e-05,-8.314598202705383301e-01,2.507295645773410797e-02,-1.005456256866455078e+01,5.000000000000000000e-01,-6.589704006910324097e-02,0.000000000000000000e+00
7.946169376373291016e-01,-1.068943557739257812e+02,1.507693023681640625e+02,1.507693023681640625e+02,5.595290660858154297e-02,-1.644076080322265625e+02,-1.349487006664276123e-01,-5.773695945739746094e+00,-1.386308431625366211e+00,-6.808099442423554137e-06,1.261350363492965698e-01,1.703021049499511719e+00,-6.741815013810992241e-05,-8.314598202705383301e-01,2.507295645773410797e-02,-1.005456256866455078e+01,5.000000000000000000e-01,-6.589704006910324097e-02,0.000000000000000000e+00
7.946169376373291016e-01,-1.068943557739257812e+02,1.507693023681640625e+02,1.507693023681640625e+02,5.595290660858154297e-02,-1.644076080322265625e+02,-1.349487006664276123e-01,-5.773695945739746094e+00,-1.386308431625366211e+00,-6.808099442423554137e-06,1.261350363492965698e-01,1.703021049499511719e+00,-6.741815013810992241e-05,-8.314598202705383301e-01,2.507295645773410797e-02,-1.005456256866455078e+01,5.000000000000000000e-01,-6.589704006910324097e-02,0.000000000000000000e+00
8.783230781555175781e-01,-1.074700851440429688e+02,1.506327667236328125e+02,1.506327667236328125e+02,6.308362632989883423e-02,-1.653188018798828125e+02,-1.607055366039276123e-01,-5.711147785186767578e+00,-1.263904333114624023e+00,-4.710365828941576183e-06,7.472350597381591797e-01,1.462307333946228027e+00,2.506068994989618659e-05,-9.238095581531524658e-02,2.032478004693984985e-01,-1.111471366882324219e+01,5.000000000000000000e-01,-6.615316867828369141e-02,0.000000000000000000e+00
8.783230781555175781e-01,-1.074700851440429688e+02,1.506327667236328125e+02,1.506327667236328125e+02,6.308362632989883423e-02,-1.653188018798828125e+02,-1.607055366039276123e-01,-5.711147785186767578e+00,-1.263904333114624023e+00,-4.710365828941576183e-06,7.472350597381591797e-01,1.462307333946228027e+00,2.506068994989618659e-05,-9.238095581531524658e-02,2.032478004693984985e-01,-1.111471366882324219e+01,5.000000000000000000e-01,-6.615316867828369141e-02,0.000000000000000000e+00
8.783230781555175781e-01,-1.074700851440429688e+02,1.506327667236328125e+02,1.506327667236328125e+02,6.308362632989883423e-02,-1.653188018798828125e+02,-1.607055366039276123e-01,-5.711147785186767578e+00,-1.263904333114624023e+00,-4.710365828941576183e-06,7.472350597381591797e-01,1.462307333946228027e+00,2.506068994989618659e-05,-9.238095581531524658e-02,2.032478004693984985e-01,-1.111471366882324219e+01,5.000000000000000000e-01,-6.615316867828369141e-02,0.000000000000000000e+00
9.483780860900878906e-01,-1.079493713378906250e+02,1.505278167724609375e+02,1.505278167724609375e+02,5.972317233681678772e-02,-1.661388702392578125e+02,-1.711425483226776123e-01,-5.722573757171630859e+00,-1.159682035446166992e+00,-2.441065589664503932e-06,-1.631000041961669922e-01,1.487720847129821777e+00,3.239311990910209715e-05,-8.360394835472106934e-02,-3.823865205049514771e-02,-1.085585308074951172e+01,5.000000000000000000e-01,-7.164458930492401123e-02,0.000000000000000000e+00
9.483780860900878906e-01,-1.079493713378906250e+02,1.505278167724609375e+02,1.505278167724609375e+02,5.972317233681678772e-02,-1.661388702392578125e+02,-1.711425483226776123e-01,-5.722573757171630859e+00,-1.159682035446166992e+00,-2.441065589664503932e-06,-1.631000041961669922e-01,1.487720847129821777e+00,3.239311990910209715e-05,-8.360394835472106934e-02,-3.823865205049514771e-02,-1.085585308074951172e+01,5.000000000000000000e-01,-7.164458930492401123e-02,0.000000000000000000e+00
9.483780860900878906e-01,-1.079493713378906250e+02,1.505278167724609375e+02,1.505278167724609375e+02,5.972317233681678772e-02,-1.661388702392578125e+02,-1.711425483226776123e-01,-5.722573757171630859e+00,-1.159682035446166992e+00,-2.441065589664503932e-06,-1.631000041961669922e-01,1.487720847129821777e+00,3.239311990910209715e-05,-8.360394835472106934e-02,-3.823865205049514771e-02,-1.085585308074951172e+01,5.000000000000000000e-01,-7.164458930492401123e-02,0.000000000000000000e+00
9.483780860900878906e-01,-1.079493713378906250e+02,1.505278167724609375e+02,1.505278167724609375e+02,5.972317233681678772e-02,-1.661388702392578125e+02,-1.711425483226776123e-01,-5.722573757171630859e+00,-1.159682035446166992e+00,-2.441065589664503932e-06,-1.631000041961669922e-01,1.487720847129821777e+00,3.239311990910209715e-05,-8.360394835472106934e-02,-3.823865205049514771e-02,-1.085585308074951172e+01,5.000000000000000000e-01,-7.164458930492401123e-02,0.000000000000000000e+00
9.483780860900878906e-01,-1.083505554199218750e+02,1.504446716308593750e+02,1.504446716308593750e+02,4.986720904707908630e-02,-1.667854156494140625e+02,-1.596679687500000000e-01,-5.748217582702636719e+00,-1.125310182571411133e+00,-4.767703387642541202e-08,-3.254333436489105225e-01,4.361965060234069824e-01,3.037333226529881358e-05,2.084593921899795532e-01,-1.659477502107620239e-01,-8.337742805480957031e+00,5.000000000000000000e-01,-6.226130947470664978e-02,0.000000000000000000e+00
1.027177095413208008e+00,-1.083505554199218750e+02,1.504446716308593750e+02,1.504446716308593750e+02,4.986720904707908630e-02,-1.667854156494140625e+02,-1.596679687500000000e-01,-5.748217582702636719e+00,-1.125310182571411133e+00,-4.767703387642541202e-08,-3.254333436489105225e-01,4.361965060234069824e-01,3.037333226529881358e-05,2.084593921899795532e-01,-1.659477502107620239e-01,-8.337742805480957031e+00,5.000000000000000000e-01,-6.226130947470664978e-02,0.000000000000000000e+00
1.027177095413208008e+00,-1.083505554199218750e+02,1.504446716308593750e+02,1.504446716308593750e+02,4.986720904707908630e-02,-1.667854156494140625e+02,-1.596679687500000000e-01,-5.748217582702636719e+00,-1.125310182571411133e+00,-4.767703387642541202e-08,-3.254333436489105225e-01,4.361965060234069824e-01,3.037333226529881358e-05,2.084593921899795532e-01,-1.659477502107620239e-01,-8.337742805480957031e+00,5.000000000000000000e-01,-6.226130947470664978e-02,0.000000000000000000e+00
1.095043420791625977e+00,-1.088004531860351562e+02,1.503546905517578125e+02,1.503546905517578125e+02,4.231302067637443542e-02,-1.674532318115234375e+02,-1.382446289062500000e-01,-5.693459987640380859e+00,-1.076740741729736328e+00,2.994065198436146602e-06,8.068448305130004883e-01,7.156633138656616211e-01,4.481961150304414332e-05,1.832609325647354126e-01,6.441079080104827881e-02,-9.252257347106933594e+00,1.000000000000000000e+00,-5.398799479007720947e-02,0.000000000000000000e+00
1.095043420791625977e+00,-1.088004531860351562e+02,1.503546905517578125e+02,1.503546905517578125e+02,4.231302067637443542e-02,-1.674532318115234375e+02,-1.382446289062500000e-01,-5.693459987640380859e+00,-1.076740741729736328e+00,2.994065198436146602e-06,8.068448305130004883e-01,7.156633138656616211e-01,4.481961150304414332e-05,1.832609325647354126e-01,6.441079080104827881e-02,-9.252257347106933594e+00,1.000000000000000000e+00,-5.398799479007720947e-02,0.000000000000000000e+00
1.095043420791625977e+00,-1.088004531860351562e+02,1.503546905517578125e+02,1.503546905517578125e+02,4.231302067637443542e-02,-1.674532318115234375e+02,-1.382446289062500000e-01,-5.693459987640380859e+00,-1.076740741729736328e+00,2.994065198436146602e-06,8.068448305130004883e-01,7.156633138656616211e-01,4.481961150304414332e-05,1.832609325647354126e-01,6.441079080104827881e-02,-9.252257347106933594e+00,1.000000000000000000e+00,-5.398799479007720947e-02,0.000000000000000000e+00
1.095043420791625977e+00,-1.088004531860351562e+02,1.503546905517578125e+02,1.503546905517578125e+02,4.231302067637443542e-02,-1.674532318115234375e+02,-1.382446289062500000e-01,-5.693459987640380859e+00,-1.076740741729736328e+00,2.994065198436146602e-06,8.068448305130004883e-01,7.156633138656616211e-01,4.481961150304414332e-05,1.832609325647354126e-01,6.441079080104827881e-02,-9.252257347106933594e+00,1.000000000000000000e+00,-5.398799479007720947e-02,0.000000000000000000e+00
1.168572425842285156e+00,-1.091906204223632812e+02,1.502791748046875000e+02,1.502791748046875000e+02,2.387833967804908752e-02,-1.679321746826171875e+02,-1.214599385857582092e-01,-5.805893421173095703e+00,-1.074995756149291992e+00,3.537651309670764022e-06,-1.529103159904479980e+00,2.373193390667438507e-02,7.392811767203966156e-06,2.644307017326354980e-01,-3.997180759906768799e-01,-6.658619880676269531e+00,1.000000000000000000e+00,-4.546421766281127930e-02,0.000000000000000000e+00
1.168572425842285156e+00,-1.091906204223632812e+02,1.502791748046875000e+02,1.502791748046875000e+02,2.387833967804908752e-02,-1.679321746826171875e+02,-1.214599385857582092e-01,-5.805893421173095703e+00,-1.074995756149291992e+00,3.537651309670764022e-06,-1.529103159904479980e+00,2.373193390667438507e-02,7.392811767203966156e-06,2.644307017326354980e-01,-3.997180759906768799e-01,-6.658619880676269531e+00,1.000000000000000000e+00,-4.546421766281127930e-02,0.000000000000000000e+00
1.168572425842285156e+00,-1.091906204223632812e+02,1.502791748046875000e+02,1.502791748046875000e+02,2.387833967804908752e-02,-1.679321746826171875e+02,-1.214599385857582092e-01,-5.805893421173095703e+00,-1.074995756149291992e+00,3.537651309670764022e-06,-1.529103159904479980e+00,2.373193390667438507e-02,7.392811767203966156e-06,2.644307017326354980e-01,-3.997180759906768799e-01,-6.658619880676269531e+00,1.000000000000000000e+00,-4.546421766281127930e-02,0.000000000000000000e+00
1.168572425842285156e+00,-1.091906204223632812e+02,1.502791748046875000e+02,1.502791748046875000e+02,2.387833967804908752e-02,-1.679321746826171875e+02,-1.214599385857582092e-01,-5.805893421173095703e+00,-1.074995756149291992e+00,3.537651309670764022e-06,-1.529103159904479980e+00,2.373193390667438507e-02,7.392811767203966156e-06,2.644307017326354980e-01,-3.997180759906768799e-01,-6.658619880676269531e+00,1.000000000000000000e+00,-4.546421766281127930e-02,0.000000000000000000e+00
1.168572425842285156e+00,-1.096226806640625000e+02,1.502010955810546875e+02,1.502010955810546875e+02,-1.369452849030494690e-02,-1.685213775634765625e+02,-1.383056640625000000e-01,-5.941390037536621094e+00,-9.958895444869995117e-01,9.821401363296899945e-07,-1.805455327033996582e+00,1.054068565368652344e+00,-3.405148527235724032e-05,-1.347614526748657227e-01,-5.472440719604492188e-01,-8.508749008178710938e+00,1.000000000000000000e+00,-5.832912027835845947e-02,0.000000000000000000e+00
1.243620872497558594e+00,-1.096226806640625000e+02,1.502010955810546875e+02,1.502010955810546875e+02,-1.369452849030494690e-02,-1.685213775634765625e+02,-1.383056640625000000e-01,-5.941390037536621094e+00,-9.958895444869995117e-01,9.821401363296899945e-07,-1.805455327033996582e+00,1.054068565368652344e+00,-3.405148527235724032e-05,-1.347614526748657227e-01,-5.472440719604492188e-01,-8.508749008178710938e+00,1.000000000000000000e+00,-5.832912027835845947e-02,0.000000000000000000e+00
1.243620872497558594e+00,-1.096226806640625000e+02,1.502010955810546875e+02,1.502010955810546875e+02,-1.369452849030494690e-02,-1.685213775634765625e+02,-1.383056640625000000e-01,-5.941390037536621094e+00,-9.958895444869995117e-01,9.821401363296899945e-07,-1.805455327033996582e+00,1.054068565368652344e+00,-3.405148527235724032e-05,-1.347614526748657227e-01,-5.472440719604492188e-01,-8.508749008178710938e+00,1.000000000000000000e+00,-5.832912027835845947e-02,0.000000000000000000e+00
1.243620872497558594e+00,-1.096226806640625000e+02,1.502010955810546875e+02,1.502010955810546875e+02,-1.369452849030494690e-02,-1.685213775634765625e+02,-1.383056640625000000e-01,-5.941390037536621094e+00,-9.958895444869995117e-01,9.821401363296899945e-07,-1.805455327033996582e+00,1.054068565368652344e+00,-3.405148527235724032e-05,-1.347614526748657227e-01,-5.472440719604492188e-01,-8.508749008178710938e+00,1.000000000000000000e+00,-5.832912027835845947e-02,0.000000000000000000e+00
1.312042951583862305e+00,-1.100783157348632812e+02,1.501234741210937500e+02,1.501234741210937500e+02,-6.457260251045227051e-02,-1.691353454589843750e+02,-1.387939155101776123e-01,-6.179735183715820312e+00,-9.894702434539794922e-01,8.581780974736830103e-08,-3.483453750610351562e+00,9.381914883852005005e-02,-1.309989966102875769e-05,1.596077680587768555e-01,-7.529367208480834961e-01,-8.098179817199707031e+00,1.000000000000000000e+00,-5.197819322347640991e-02,0.000000000000000000e+00
1.312042951583862305e+00,-1.100783157348632812e+02,1.501234741210937500e+02,1.501234741210937500e+02,-6.457260251045227051e-02,-1.691353454589843750e+02,-1.387939155101776123e-01,-6.179735183715820312e+00,-9.894702434539794922e-01,8.581780974736830103e-08,-3.483453750610351562e+00,9.381914883852005005e-02,-1.309989966102875769e-05,1.596077680587768555e-01,-7.529367208480834961e-01,-8.098179817199707031e+00,1.000000000000000000e+00,-5.197819322347640991e-02,0.000000000000000000e+00
1.383129358291625977e+00,-1.105074844360351562e+02,1.500531463623046875e+02,1.500531463623046875e+02,-1.083950996398925781e-01,-1.696539459228515625e+02,-1.286620795726776123e-01,-6.359469413757324219e+00,-9.884005784988403320e-01,-2.660387281139264815e-06,-2.528390884399414062e+00,1.504739094525575638e-02,-3.863192978315055370e-05,2.150253653526306152e-01,-5.614907145500183105e-01,-7.407160282135009766e+00,1.000000000000000000e+00,-4.423850029706954956e-02,0.000000000000000000e+00
1.383129358291625977e+00,-1.105074844360351562e+02,1.500531463623046875e+02,1.500531463623046875e+02,-1.083950996398925781e-01,-1.696539459228515625e+02,-1.286620795726776123e-01,-6.359469413757324219e+00,-9.884005784988403320e-01,-2.660387281139264815e-06,-2.528390884399414062e+00,1.504739094525575638e-02,-3.863192978315055370e-05,2.150253653526306152e-01,-5.614907145500183105e-01,-7.407160282135009766e+00,1.000000000000000000e+00,-4.423850029706954956e-02,0.000000000000000000e+00
1.383129358291625977e+00,-1.105074844360351562e+02,1.500531463623046875e+02,1.500531463623046875e+02,-1.083950996398925781e-01,-1.696539459228515625e+02,-1.286620795726776123e-01,-6.359469413757324219e+00,-9.884005784988403320e-01,-2.660387281139264815e-06,-2.528390884399414062e+00,1.504739094525575638e-02,-3.863192978315055370e-05,2.150253653526306152e-01,-5.614907145500183105e-01,-7.407160282135009766e+00,1.000000000000000000e+00,-4.423850029706954956e-02,0.000000000000000000e+00
1.450951814651489258e+00,-1.109697952270507812e+02,1.499831085205078125e+02,1.499831085205078125e+02,-1.511862277984619141e-01,-1.702541809082031250e+02,-1.486205905675888062e-01,-6.615587711334228516e+00,-9.196826815605163574e-01,-6.588952601305209100e-06,-3.776305198669433594e+00,1.013202667236328125e+00,-5.792425145045854151e-05,-1.985750347375869751e-01,-6.466240286827087402e-01,-8.883654594421386719e+00,1.000000000000000000e+00,-5.690765380859375000e-02,0.000000000000000000e+00
1.450951814651489258e+00,-1.109697952270507812e+02,1.499831085205078125e+02,1.499831085205078125e+02,-1.511862277984619141e-01,-1.702541809082031250e+02,-1.486205905675888062e-01,-6.615587711334228516e+00,-9.196826815605163574e-01,-6.588952601305209100e-06,-3.776305198669433594e+00,1.013202667236328125e+00,-5.792425145045854151e-05,-1.985750347375869751e-01,-6.466240286827087402e-01,-8.883654594421386719e+00,1.000000000000000000e+00,-5.690765380859375000e-02,0.000000000000000000e+00
1.450951814651489258e+00,-1.109697952270507812e+02,1.499831085205078125e+02,1.499831085205078125e+02,-1.511862277984619141e-01,-1.702541809082031250e+02,-1.486205905675888062e-01,-6.615587711334228516e+00,-9.196826815605163574e-01,-6.588952601305209100e-06,-3.776305198669433594e+00,1.013202667236328125e+00,-5.792425145045854151e-05,-1.985750347375869751e-01,-6.466240286827087402e-01,-8.883654594421386719e+00,1.000000000000000000e+00,-5.690765380859375000e-02,0.000000000000000000e+00
1.527701377868652344e+00,-1.114221878051757812e+02,1.499190979003906250e+02,1.499190979003906250e+02,-1.677562743425369263e-01,-1.708418426513671875e+02,-1.511535793542861938e-01,-6.670891761779785156e+00,-8.784914016723632812e-01,-4.081171937286853790e-06,-7.205780744552612305e-01,5.366972684860229492e-01,3.267485226388089359e-05,1.434636767953634262e-02,1.430875658988952637e-01,-8.541299819946289062e+00,1.000000000000000000e+00,-5.044686421751976013e-02,0.000000000000000000e+00
1.527701377868652344e+00,-1.114221878051757812e+02,1.499190979003906250e+02,1.499190979003906250e+02,-1.677562743425369263e-01,-1.708418426513671875e+02,-1.511535793542861938e-01,-6.670891761779785156e+00,-8.784914016723632812e-01,-4.081171937286853790e-06,-7.205780744552612305e-01,5.366972684860229492e-01,3.267485226388089359e-05,1.434636767953634262e-02,1.430875658988952637e-01,-8.541299819946289062e+00,1.000000000000000000e+00,-5.044686421751976013e-02,0.000000000000000000e+00
1.527701377868652344e+00,-1.114221878051757812e+02,1.499190979003906250e+02,1.499190979003906250e+02,-1.677562743425369263e-01,-1.708418426513671875e+02,-1.511535793542861938e-01,-6.670891761779785156e+00,-8.784914016723632812e-01,-4.081171937286853790e-06,-7.205780744552612305e-01,5.366972684860229492e-01,3.267485226388089359e-05,1.434636767953634262e-02,1.430875658988952637e-01,-8.541299819946289062e+00,1.000000000000000000e+00,-5.044686421751976013e-02,0.000000000000000000e+00
1.600134611129760742e+00,-1.119350051879882812e+02,1.498501892089843750e+02,1.498501892089843750e+02,-1.436183750629425049e-01,-1.714294281005859375e+02,-1.376953125000000000e-01,-6.705244064331054688e+00,-8.425266742706298828e-01,5.654420874634524807e-06,-4.742616117000579834e-01,4.965224564075469971e-01,1.344078191323205829e-04,7.321759313344955444e-02,3.251735270023345947e-01,-7.243101119995117188e+00,1.000000000000000000e+00,-4.315577819943428040e-02,0.000000000000000000e+00
1.600134611129760742e+00,-1.119350051879882812e+02,1.498501892089843750e+02,1.498501892089843750e+02,-1.436183750629425049e-01,-1.714294281005859375e+02,-1.376953125000000000e-01,-6.705244064331054688e+00,-8.425266742706298828e-01,5.654420874634524807e-06,-4.742616117000579834e-01,4.965224564075469971e-01,1.344078191323205829e-04,7.321759313344955444e-02,3.251735270023345947e-01,-7.243101119995117188e+00,1.000000000000000000e+00,-4.315577819943428040e-02,0.000000000000000000e+00
1.600134611129760742e+00,-1.119350051879882812e+02,1.498501892089843750e+02,1.498501892089843750e+02,-1.436183750629425049e-01,-1.714294281005859375e+02,-1.376953125000000000e-01,-6.705244064331054688e+00,-8.425266742706298828e-01,5.654420874634524807e-06,-4.742616117000579834e-01,4.965224564075469971e-01,1.344078191323205829e-04,7.321759313344955444e-02,3.251735270023345947e-01,-7.243101119995117188e+00,1.000000000000000000e+00,-4.315577819943428040e-02,0.000000000000000000e+00
1.600134611129760742e+00,-1.119350051879882812e+02,1.498501892089843750e+02,1.498501892089843750e+02,-1.436183750629425049e-01,-1.714294281005859375e+02,-1.376953125000000000e-01,-6.705244064331054688e+00,-8.425266742706298828e-01,5.654420874634524807e-06,-4.742616117000579834e-01,4.965224564075469971e-01,1.344078191323205829e-04,7.321759313344955444e-02,3.251735270023345947e-01,-7.243101119995117188e+00,1.000000000000000000e+00,-4.315577819943428040e-02,0.000000000000000000e+00
1.600134611129760742e+00,-1.119350051879882812e+02,1.498501892089843750e+02,1.498501892089843750e+02,-1.436183750629425049e-01,-1.714294281005859375e+02,-1.376953125000000000e-01,-6.705244064331054688e+00,-8.425266742706298828e-01,5.654420874634524807e-06,-4.742616117000579834e-01,4.965224564075469971e-01,1.344078191323205829e-04,7.321759313344955444e-02,3.251735270023345947e-01,-7.243101119995117188e+00,1.000000000000000000e+00,-4.315577819943428040e-02,0.000000000000000000e+00
1.600134611129760742e+00,-1.124181823730468750e+02,1.497880706787109375e+02,1.497880706787109375e+02,-1.088322252035140991e-01,-1.719043426513671875e+02,-1.212768331170082092e-01,-6.655696868896484375e+00,-8.087191581726074219e-01,7.027561423456063494e-06,4.294304549694061279e-01,2.930130958557128906e-01,1.190114471683045849e-05,9.739026427268981934e-02,5.793215632438659668e-01,-6.287213325500488281e+00,1.000000000000000000e+00,-3.565150499343872070e-02,0.000000000000000000e+00
1.715513467788696289e+00,-1.124181823730468750e+02,1.497880706787109375e+02,1.497880706787109375e+02,-1.088322252035140991e-01,-1.719043426513671875e+02,-1.212768331170082092e-01,-6.655696868896484375e+00,-8.087191581726074219e-01,7.027561423456063494e-06,4.294304549694061279e-01,2.930130958557128906e-01,1.190114471683045849e-05,9.739026427268981934e-02,5.793215632438659668e-01,-6.287213325500488281e+00,1.000000000000000000e+00,-3.565150499343872070e-02,0.000000000000000000e+00
1.715513467788696289e+00,-1.124181823730468750e+02,1.497880706787109375e+02,1.497880706787109375e+02,-1.088322252035140991e-01,-1.719043426513671875e+02,-1.212768331170082092e-01,-6.655696868896484375e+00,-8.087191581726074219e-01,7.027561423456063494e-06,4.294304549694061279e-01,2.930130958557128906e-01,1.190114471683045849e-05,9.739026427268981934e-02,5.793215632438659668e-01,-6.287213325500488281e+00,1.000000000000000000e+00,-3.565150499343872070e-02,0.000000000000000000e+00
1.715513467788696289e+00,-1.130852813720703125e+02,1.497126617431640625e+02,1.497126617431640625e+02,-6.559029966592788696e-02,-1.726760253906250000e+02,-1.500244140625000000e-01,-6.625808715820312500e+00,-6.581342816352844238e-01,1.601905751158483326e-06,3.062258958816528320e-01,1.542851805686950684e+00,-5.558979319175705314e-05,-2.536338567733764648e-01,5.942133069038391113e-01,-8.354504585266113281e+00,1.000000000000000000e+00,-5.220838263630867004e-02,0.000000000000000000e+00
1.813115119934082031e+00,-1.130852813720703125e+02,1.497126617431640625e+02,1.497126617431640625e+02,-6.559029966592788696e-02,-1.726760253906250000e+02,-1.500244140625000000e-01,-6.625808715820312500e+00,-6.581342816352844238e-01,1.601905751158483326e-06,3.062258958816528320e-01,1.542851805686950684e+00,-5.558979319175705314e-05,-2.536338567733764648e-01,5.942133069038391113e-01,-8.354504585266113281e+00,1.000000000000000000e+00,-5.220838263630867004e-02,0.000000000000000000e+00
1.813115119934082031e+00,-1.130852813720703125e+02,1.497126617431640625e+02,1.497126617431640625e+02,-6.559029966592788696e-02,-1.726760253906250000e+02,-1.500244140625000000e-01,-6.625808715820312500e+00,-6.581342816352844238e-01,1.601905751158483326e-06,3.062258958816528320e-01,1.542851805686950684e+00,-5.558979319175705314e-05,-2.536338567733764648e-01,5.942133069038391113e-01,-8.354504585266113281e+00,1.000000000000000000e+00,-5.220838263630867004e-02,0.000000000000000000e+00
1.813115119934082031e+00,-1.130852813720703125e+02,1.497126617431640625e+02,1.497126617431640625e+02,-6.559029966592788696e-02,-1.726760253906250000e+02,-1.500244140625000000e-01,-6.625808715820312500e+00,-6.581342816352844238e-01,1.601905751158483326e-06,3.062258958816528320e-01,1.542851805686950684e+00,-5.558979319175705314e-05,-2.536338567733764648e-01,5.942133069038391113e-01,-8.354504585266113281e+00,1.000000000000000000e+00,-5.220838263630867004e-02,0.000000000000000000e+00
1.813115119934082031e+00,-1.137360687255859375e+02,1.496473846435546875e+02,1.496473846435546875e+02,-3.823539614677429199e-02,-1.734210815429687500e+02,-1.418151706457138062e-01,-6.622260093688964844e+00,-5.967081785202026367e-01,2.011925516853807494e-06,4.274431988596916199e-02,7.398976087570190430e-01,4.938823167321970686e-06,4.067056998610496521e-02,4.834414124488830566e-01,-7.498603820800781250e+00,1.000000000000000000e+00,-4.456416517496109009e-02,0.000000000000000000e+00
1.896134853363037109e+00,-1.137360687255859375e+02,1.496473846435546875e+02,1.496473846435546875e+02,-3.823539614677429199e-02,-1.734210815429687500e+02,-1.418151706457138062e-01,-6.622260093688964844e+00,-5.967081785202026367e-01,2.011925516853807494e-06,4.274431988596916199e-02,7.398976087570190430e-01,4.938823167321970686e-06,4.067056998610496521e-02,4.834414124488830566e-01,-7.498603820800781250e+00,1.000000000000000000e+00,-4.456416517496109009e-02,0.000000000000000000e+00
1.896134853363037109e+00,-1.137360687255859375e+02,1.496473846435546875e+02,1.496473846435546875e+02,-3.823539614677429199e-02,-1.734210815429687500e+02,-1.418151706457138062e-01,-6.622260093688964844e+00,-5.967081785202026367e-01,2.011925516853807494e-06,4.274431988596916199e-02,7.398976087570190430e-01,4.938823167321970686e-06,4.067056998610496521e-02,4.834414124488830566e-01,-7.498603820800781250e+00,1.000000000000000000e+00,-4.456416517496109009e-02,0.000000000000000000e+00
1.896134853363037109e+00,-1.137360687255859375e+02,1.496473846435546875e+02,1.496473846435546875e+02,-3.823539614677429199e-02,-1.734210815429687500e+02,-1.418151706457138062e-01,-6.622260093688964844e+00,-5.967081785202026367e-01,2.011925516853807494e-06,4.274431988596916199e-02,7.398976087570190430e-01,4.938823167321970686e-06,4.067056998610496521e-02,4.834414124488830566e-01,-7.498603820800781250e+00,1.000000000000000000e+00,-4.456416517496109009e-02,0.000000000000000000e+00
1.896134853363037109e+00,-1.137360687255859375e+02,1.496473846435546875e+02,1.496473846435546875e+02,-3.823539614677429199e-02,-1.734210815429687500e+02,-1.418151706457138062e-01,-6.622260093688964844e+00,-5.967081785202026367e-01,2.011925516853807494e-06,4.274431988596916199e-02,7.398976087570190430e-01,4.938823167321970686e-06,4.067056998610496521e-02,4.834414124488830566e-01,-7.498603820800781250e+00,1.000000000000000000e+00,-4.456416517496109009e-02,0.000000000000000000e+00
1.896134853363037109e+00,-1.137360687255859375e+02,1.496473846435546875e+02,1.496473846435546875e+02,-3.823539614677429199e-02,-1.734210815429687500e+02,-1.418151706457138062e-01,-6.622260093688964844e+00,-5.967081785202026367e-01,2.011925516853807494e-06,4.274431988596916199e-02,7.398976087570190430e-01,4.938823167321970686e-06,4.067056998610496521e-02,4.834414124488830566e-01,-7.498603820800781250e+00,1.000000000000000000e+00,-4.456416517496109009e-02,0.000000000000000000e+00
1.896134853363037109e+00,-1.137360687255859375e+02,1.496473846435546875e+02,1.496473846435546875e+02,-3.823539614677429199e-02,-1.734210815429687500e+02,-1.418151706457138062e-01,-6.622260093688964844e+00,-5.967081785202026367e-01,2.011925516853807494e-06,4.274431988596916199e-02,7.398976087570190430e-01,4.938823167321970686e-06,4.067056998610496521e-02,4.834414124488830566e-01,-7.498603820800781250e+00,1.000000000000000000e+00,-4.456416517496109009e-02,0.000000000000000000e+00
1.896134853363037109e+00,-1.137360687255859375e+02,1.496473846435546875e+02,1.496473846435546875e+02,-3.823539614677429199e-02,-1.734210815429687500e+02,-1.418151706457138062e-01,-6.622260093688964844e+00,-5.967081785202026367e-01,2.011925516853807494e-06,4.274431988596916199e-02,7.398976087570190430e-01,4.938823167321970686e-06,4.067056998610496521e-02,4.834414124488830566e-01,-7.498603820800781250e+00,1.000000000000000000e+00,-4.456416517496109009e-02,0.000000000000000000e+00
2.195794820785522461e+00,-1.156226959228515625e+02,1.495100402832031250e+02,1.495100402832031250e+02,-1.900021880865097046e-01,-1.756544342041015625e+02,-1.474304050207138062e-01,-7.615860939025878906e+00,-4.186033010482788086e-01,-1.134706599259516224e-05,-9.350500106811523438e+00,2.394847273826599121e-01,-1.351163955405354500e-04,1.863607466220855713e-01,-1.262820005416870117e+00,-7.503162384033203125e+00,1.000000000000000000e+00,-3.792332112789154053e-02,0.000000000000000000e+00
2.195794820785522461e+00,-1.156226959228515625e+02,1.495100402832031250e+02,1.495100402832031250e+02,-1.900021880865097046e-01,-1.756544342041015625e+02,-1.474304050207138062e-01,-7.615860939025878906e+00,-4.186033010482788086e-01,-1.134706599259516224e-05,-9.350500106811523438e+00,2.394847273826599121e-01,-1.351163955405354500e-04,1.863607466220855713e-01,-1.262820005416870117e+00,-7.503162384033203125e+00,1.000000000000000000e+00,-3.792332112789154053e-02,0.000000000000000000e+00
2.195794820785522461e+00,-1.156226959228515625e+02,1.495100402832031250e+02,1.495100402832031250e+02,-1.900021880865097046e-01,-1.756544342041015625e+02,-1.474304050207138062e-01,-7.615860939025878906e+00,-4.186033010482788086e-01,-1.134706599259516224e-05,-9.350500106811523438e+00,2.394847273826599121e-01,-1.351163955405354500e-04,1.863607466220855713e-01,-1.262820005416870117e+00,-7.503162384033203125e+00,1.000000000000000000e+00,-3.792332112789154053e-02,0.000000000000000000e+00
2.195794820785522461e+00,-1.156226959228515625e+02,1.495100402832031250e+02,1.495100402832031250e+02,-1.900021880865097046e-01,-1.756544342041015625e+02,-1.474304050207138062e-01,-7.615860939025878906e+00,-4.186033010482788086e-01,-1.134706599259516224e-05,-9.350500106811523438e+00,2.394847273826599121e-01,-1.351163955405354500e-04,1.863607466220855713e-01,-1.262820005416870117e+00,-7.503162384033203125e+00,1.000000000000000000e+00,-3.792332112789154053e-02,0.000000000000000000e+00
2.195794820785522461e+00,-1.156226959228515625e+02,1.495100402832031250e+02,1.495100402832031250e+02,-1.900021880865097046e-01,-1.756544342041015625e+02,-1.474304050207138062e-01,-7.615860939025878906e+00,-4.186033010482788086e-01,-1.134706599259516224e-05,-9.350500106811523438e+00,2.394847273826599121e-01,-1.351163955405354500e-04,1.863607466220855713e-01,-1.262820005416870117e+00,-7.503162384033203125e+00,1.000000000000000000e+00,-3.792332112789154053e-02,0.000000000000000000e+00
2.195794820785522461e+00,-1.156226959228515625e+02,1.495100402832031250e+02,1.495100402832031250e+02,-1.900021880865097046e-01,-1.756544342041015625e+02,-1.474304050207138062e-01,-7.615860939025878906e+00,-4.186033010482788086e-01,-1.134706599259516224e-05,-9.350500106811523438e+00,2.394847273826599121e-01,-1.351163955405354500e-04,1.863607466220855713e-01,-1.262820005416870117e+00,-7.503162384033203125e+00,1.000000000000000000e+00,-3.792332112789154053e-02,0.000000000000000000e+00
2.195794820785522461e+00,-1.156226959228515625e+02,1.495100402832031250e+02,1.495100402832031250e+02,-1.900021880865097046e-01,-1.756544342041015625e+02,-1.474304050207138062e-01,-7.615860939025878906e+00,-4.186033010482788086e-01,-1.134706599259516224e-05,-9.350500106811523438e+00,2.394847273826599121e-01,-1.351163955405354500e-04,1.863607466220855713e-01,-1.262820005416870117e+00,-7.503162384033203125e+00,1.000000000000000000e+00,-3.792332112789154053e-02,0.000000000000000000e+00
2.195794820785522461e+00,-1.156226959228515625e+02,1.495100402832031250e+02,1.495100402832031250e+02,-1.900021880865097046e-01,-1.756544342041015625e+02,-1.474304050207138062e-01,-7.615860939025878906e+00,-4.186033010482788086e-01,-1.134706599259516224e-05,-9.350500106811523438e+00,2.394847273826599121e-01,-1.351163955405354500e-04,1.863607466220855713e-01,-1.262820005416870117e+00,-7.503162384033203125e+00,1.000000000000000000e+00,-3.792332112789154053e-02,0.000000000000000000e+00
2.195794820785522461e+00,-1.156226959228515625e+02,1.495100402832031250e+02,1.495100402832031250e+02,-1.900021880865097046e-01,-1.756544342041015625e+02,-1.474304050207138062e-01,-7.615860939025878906e+00,-4.186033010482788086e-01,-1.134706599259516224e-05,-9.350500106811523438e+00,2.394847273826599121e-01,-1.351163955405354500e-04,1.863607466220855713e-01,-1.262820005416870117e+00,-7.503162384033203125e+00,1.000000000000000000e+00,-3.792332112789154053e-02,0.000000000000000000e+00
2.195794820785522461e+00,-1.156226959228515625e+02,1.495100402832031250e+02,1.495100402832031250e+02,-1.900021880865097046e-01,-1.756544342041015625e+02,-1.474304050207138062e-01,-7.615860939025878906e+00,-4.186033010482788086e-01,-1.134706599259516224e-05,-9.350500106811523438e+00,2.394847273826599121e-01,-1.351163955405354500e-04,1.863607466220855713e-01,-1.262820005416870117e+00,-7.503162384033203125e+00,1.000000000000000000e+00,-3.792332112789154053e-02,0.000000000000000000e+00
2.374083757400512695e+00,-1.160361099243164062e+02,1.494877777099609375e+02,1.494877777099609375e+02,-2.486598491668701172e-01,-1.760864715576171875e+02,-1.578674614429473877e-01,-7.908997535705566406e+00,-3.561432957649230957e-01,-1.584796518727671355e-05,-1.644165873527526855e+00,3.503302335739135742e-01,-2.524497176636941731e-05,-1.901090890169143677e-01,-1.054587721824645996e+00,-8.422314643859863281e+00,1.000000000000000000e+00,-4.604034498333930969e-02,0.000000000000000000e+00
2.374083757400512695e+00,-1.160361099243164062e+02,1.494877777099609375e+02,1.494877777099609375e+02,-2.486598491668701172e-01,-1.760864715576171875e+02,-1.578674614429473877e-01,-7.908997535705566406e+00,-3.561432957649230957e-01,-1.584796518727671355e-05,-1.644165873527526855e+00,3.503302335739135742e-01,-2.524497176636941731e-05,-1.901090890169143677e-01,-1.054587721824645996e+00,-8.422314643859863281e+00,1.000000000000000000e+00,-4.604034498333930969e-02,0.000000000000000000e+00
2.374083757400512695e+00,-1.160361099243164062e+02,1.494877777099609375e+02,1.494877777099609375e+02,-2.486598491668701172e-01,-1.760864715576171875e+02,-1.578674614429473877e-01,-7.908997535705566406e+00,-3.561432957649230957e-01,-1.584796518727671355e-05,-1.644165873527526855e+00,3.503302335739135742e-01,-2.524497176636941731e-05,-1.901090890169143677e-01,-1.054587721824645996e+00,-8.422314643859863281e+00,1.000000000000000000e+00,-4.604034498333930969e-02,0.000000000000000000e+00
2.447860002517700195e+00,-1.168579635620117188e+02,1.494523620605468750e+02,1.494523620605468750e+02,-3.310865759849548340e-01,-1.769342498779296875e+02,-1.712340861558914185e-01,-8.446774482727050781e+00,-2.743234038352966309e-01,-1.952799539139959961e-05,-7.289297103881835938e+00,1.109027624130249023e+00,-4.988096407032571733e-05,-8.548024296760559082e-02,-6.508083343505859375e-01,-8.570465087890625000e+00,1.000000000000000000e+00,-4.160984605550765991e-02,0.000000000000000000e+00
2.447860002517700195e+00,-1.168579635620117188e+02,1.494523620605468750e+02,1.494523620605468750e+02,-3.310865759849548340e-01,-1.769342498779296875e+02,-1.712340861558914185e-01,-8.446774482727050781e+00,-2.743234038352966309e-01,-1.952799539139959961e-05,-7.289297103881835938e+00,1.109027624130249023e+00,-4.988096407032571733e-05,-8.548024296760559082e-02,-6.508083343505859375e-01,-8.570465087890625000e+00,1.000000000000000000e+00,-4.160984605550765991e-02,0.000000000000000000e+00
2.500878810882568359e+00,-1.174976959228515625e+02,1.494302520751953125e+02,1.494302520751953125e+02,-3.659341931343078613e-01,-1.775044555664062500e+02,-1.615600287914276123e-01,-8.825960159301757812e+00,-2.452670186758041382e-01,-1.134704871219582856e-05,-7.151908397674560547e+00,5.480391979217529297e-01,1.543027174193412066e-04,1.314701139926910400e-01,-3.778755664825439453e-01,-7.379323005676269531e+00,1.000000000000000000e+00,-3.130427747964859009e-02,0.000000000000000000e+00
2.500878810882568359e+00,-1.174976959228515625e+02,1.494302520751953125e+02,1.494302520751953125e+02,-3.659341931343078613e-01,-1.775044555664062500e+02,-1.615600287914276123e-01,-8.825960159301757812e+00,-2.452670186758041382e-01,-1.134704871219582856e-05,-7.151908397674560547e+00,5.480391979217529297e-01,1.543027174193412066e-04,1.314701139926910400e-01,-3.778755664825439453e-01,-7.379323005676269531e+00,1.000000000000000000e+00,-3.130427747964859009e-02,0.000000000000000000e+00
2.560195446014404297e+00,-1.179743728637695312e+02,1.494164733886718750e+02,1.494164733886718750e+02,-3.815889954566955566e-01,-1.778778533935546875e+02,-1.568908393383026123e-01,-9.092495918273925781e+00,-2.103480547666549683e-01,-6.665299679298186675e-06,-4.493440151214599609e+00,5.886875391006469727e-01,7.892809662735089660e-05,6.411069631576538086e-02,-2.489682585000991821e-01,-6.904662132263183594e+00,1.000000000000000000e+00,-2.906777523458003998e-02,0.000000000000000000e+00
2.560195446014404297e+00,-1.179743728637695312e+02,1.494164733886718750e+02,1.494164733886718750e+02,-3.815889954566955566e-01,-1.778778533935546875e+02,-1.568908393383026123e-01,-9.092495918273925781e+00,-2.103480547666549683e-01,-6.665299679298186675e-06,-4.493440151214599609e+00,5.886875391006469727e-01,7.892809662735089660e-05,6.411069631576538086e-02,-2.489682585000991821e-01,-6.904662132263183594e+00,1.000000000000000000e+00,-2.906777523458003998e-02,0.000000000000000000e+00
2.560195446014404297e+00,-1.179743728637695312e+02,1.494164733886718750e+02,1.494164733886718750e+02,-3.815889954566955566e-01,-1.778778533935546875e+02,-1.568908393383026123e-01,-9.092495918273925781e+00,-2.103480547666549683e-01,-6.665299679298186675e-06,-4.493440151214599609e+00,5.886875391006469727e-01,7.892809662735089660e-05,6.411069631576538086e-02,-2.489682585000991821e-01,-6.904662132263183594e+00,1.000000000000000000e+00,-2.906777523458003998e-02,0.000000000000000000e+00
2.618730545043945312e+00,-1.185244674682617188e+02,1.494031829833984375e+02,1.494031829833984375e+02,-3.927563428878784180e-01,-1.782566375732421875e+02,-1.501159369945526123e-01,-9.384353637695312500e+00,-1.784705668687820435e-01,1.621005765173322288e-07,-4.986029148101806641e+00,5.445875525474548340e-01,1.166377187473699450e-04,9.881689399480819702e-02,-1.463942080736160278e-01,-6.169996738433837891e+00,1.000000000000000000e+00,-2.448272705078125000e-02,0.000000000000000000e+00
2.618730545043945312e+00,-1.185244674682617188e+02,1.494031829833984375e+02,1.494031829833984375e+02,-3.927563428878784180e-01,-1.782566375732421875e+02,-1.501159369945526123e-01,-9.384353637695312500e+00,-1.784705668687820435e-01,1.621005765173322288e-07,-4.986029148101806641e+00,5.445875525474548340e-01,1.166377187473699450e-04,9.881689399480819702e-02,-1.463942080736160278e-01,-6.169996738433837891e+00,1.000000000000000000e+00,-2.448272705078125000e-02,0.000000000000000000e+00
2.677334070205688477e+00,-1.190840682983398438e+02,1.493919677734375000e+02,1.493919677734375000e+02,-3.985824882984161377e-01,-1.785830383300781250e+02,-1.407470554113388062e-01,-9.666583061218261719e+00,-1.530586034059524536e-01,5.120482001075288281e-06,-4.815912246704101562e+00,4.336251616477966309e-01,8.460892422590404749e-05,1.441046148538589478e-01,-6.944575160741806030e-02,-5.320559978485107422e+00,1.000000000000000000e+00,-1.969953253865242004e-02,0.000000000000000000e+00
2.677334070205688477e+00,-1.190840682983398438e+02,1.493919677734375000e+02,1.493919677734375000e+02,-3.985824882984161377e-01,-1.785830383300781250e+02,-1.407470554113388062e-01,-9.666583061218261719e+00,-1.530586034059524536e-01,5.120482001075288281e-06,-4.815912246704101562e+00,4.336251616477966309e-01,8.460892422590404749e-05,1.441046148538589478e-01,-6.944575160741806030e-02,-5.320559978485107422e+00,1.000000000000000000e+00,-1.969953253865242004e-02,0.000000000000000000e+00
2.677334070205688477e+00,-1.190840682983398438e+02,1.493919677734375000e+02,1.493919677734375000e+02,-3.985824882984161377e-01,-1.785830383300781250e+02,-1.407470554113388062e-01,-9.666583061218261719e+00,-1.530586034059524536e-01,5.120482001075288281e-06,-4.815912246704101562e+00,4.336251616477966309e-01,8.460892422590404749e-05,1.441046148538589478e-01,-6.944575160741806030e-02,-5.320559978485107422e+00,1.000000000000000000e+00,-1.969953253865242004e-02,0.000000000000000000e+00
2.677334070205688477e+00,-1.190840682983398438e+02,1.493919677734375000e+02,1.493919677734375000e+02,-3.985824882984161377e-01,-1.785830383300781250e+02,-1.407470554113388062e-01,-9.666583061218261719e+00,-1.530586034059524536e-01,5.120482001075288281e-06,-4.815912246704101562e+00,4.336251616477966309e-01,8.460892422590404749e-05,1.441046148538589478e-01,-6.944575160741806030e-02,-5.320559978485107422e+00,1.000000000000000000e+00,-1.969953253865242004e-02,0.000000000000000000e+00
2.755024909973144531e+00,-1.196607208251953125e+02,1.493823394775390625e+02,1.493823394775390625e+02,-4.008774459362030029e-01,-1.788601531982421875e+02,-1.296691745519638062e-01,-9.944025993347167969e+00,-1.313036084175109863e-01,7.256398021127097309e-06,-3.571115255355834961e+00,2.800200879573822021e-01,2.749250779743306339e-05,1.674481332302093506e-01,-1.728434301912784576e-02,-4.466943264007568359e+00,1.000000000000000000e+00,-1.556854229420423508e-02,0.000000000000000000e+00
2.755024909973144531e+00,-1.196607208251953125e+02,1.493823394775390625e+02,1.493823394775390625e+02,-4.008774459362030029e-01,-1.788601531982421875e+02,-1.296691745519638062e-01,-9.944025993347167969e+00,-1.313036084175109863e-01,7.256398021127097309e-06,-3.571115255355834961e+00,2.800200879573822021e-01,2.749250779743306339e-05,1.674481332302093506e-01,-1.728434301912784576e-02,-4.466943264007568359e+00,1.000000000000000000e+00,-1.556854229420423508e-02,0.000000000000000000e+00
2.755024909973144531e+00,-1.196607208251953125e+02,1.493823394775390625e+02,1.493823394775390625e+02,-4.008774459362030029e-01,-1.788601531982421875e+02,-1.296691745519638062e-01,-9.944025993347167969e+00,-1.313036084175109863e-01,7.256398021127097309e-06,-3.571115255355834961e+00,2.800200879573822021e-01,2.749250779743306339e-05,1.674481332302093506e-01,-1.728434301912784576e-02,-4.466943264007568359e+00,1.000000000000000000e+00,-1.556854229420423508e-02,0.000000000000000000e+00
2.830169916152954102e+00,-1.204501342773437500e+02,1.493719635009765625e+02,1.493719635009765625e+02,-4.002695679664611816e-01,-1.791616516113281250e+02,-1.162719577550888062e-01,-1.030487251281738281e+01,-1.006292700767517090e-01,8.762905054027214646e-06,-4.802002429962158203e+00,4.082019329071044922e-01,2.004799898713827133e-05,1.288375854492187500e-01,2.509170211851596832e-02,-3.619725465774536133e+00,1.000000000000000000e+00,-1.266741100698709488e-02,0.000000000000000000e+00
2.830169916152954102e+00,-1.204501342773437500e+02,1.493719635009765625e+02,1.493719635009765625e+02,-4.002695679664611816e-01,-1.791616516113281250e+02,-1.162719577550888062e-01,-1.030487251281738281e+01,-1.006292700767517090e-01,8.762905054027214646e-06,-4.802002429962158203e+00,4.082019329071044922e-01,2.004799898713827133e-05,1.288375854492187500e-01,2.509170211851596832e-02,-3.619725465774536133e+00,1.000000000000000000e+00,-1.266741100698709488e-02,0.000000000000000000e+00
2.830169916152954102e+00,-1.204501342773437500e+02,1.493719635009765625e+02,1.493719635009765625e+02,-4.002695679664611816e-01,-1.791616516113281250e+02,-1.162719577550888062e-01,-1.030487251281738281e+01,-1.006292700767517090e-01,8.762905054027214646e-06,-4.802002429962158203e+00,4.082019329071044922e-01,2.004799898713827133e-05,1.288375854492187500e-01,2.509170211851596832e-02,-3.619725465774536133e+00,1.000000000000000000e+00,-1.266741100698709488e-02,0.000000000000000000e+00
2.830169916152954102e+00,-1.204501342773437500e+02,1.493719635009765625e+02,1.493719635009765625e+02,-4.002695679664611816e-01,-1.791616516113281250e+02,-1.162719577550888062e-01,-1.030487251281738281e+01,-1.006292700767517090e-01,8.762905054027214646e-06,-4.802002429962158203e+00,4.082019329071044922e-01,2.004799898713827133e-05,1.288375854492187500e-01,2.509170211851596832e-02,-3.619725465774536133e+00,1.000000000000000000e+00,-1.266741100698709488e-02,0.000000000000000000e+00
2.830169916152954102e+00,-1.204501342773437500e+02,1.493719635009765625e+02,1.493719635009765625e+02,-4.002695679664611816e-01,-1.791616516113281250e+02,-1.162719577550888062e-01,-1.030487251281738281e+01,-1.006292700767517090e-01,8.762905054027214646e-06,-4.802002429962158203e+00,4.082019329071044922e-01,2.004799898713827133e-05,1.288375854492187500e-01,2.509170211851596832e-02,-3.619725465774536133e+00,1.000000000000000000e+00,-1.266741100698709488e-02,0.000000000000000000e+00
