# Time,X,Y,Z,Roll,Pitch,Yaw,Vx,Vy,Vz,Ax,Ay,Az,Wx,Wy,Wz,Throttle,Steer,Brake
0.000000000000000000e+00,-2.731933288574218750e+02,-1.732635307312011719e+01,-1.732635307312011719e+01,4.472339451313018799e-01,1.726562805175781250e+02,-2.026061862707138062e-01,-1.372545623779296875e+01,1.827749609947204590e+00,7.628316325281048194e-07,1.200744152069091797e+00,1.106544494628906250e+00,4.868715404882095754e-05,2.453441359102725983e-02,-3.849660977721214294e-02,-5.962433338165283203e+00,5.000000000000000000e-01,-2.435804158449172974e-02,0.000000000000000000e+00
1.045818328857421875e-01,-2.731933288574218750e+02,-1.732635307312011719e+01,-1.732635307312011719e+01,4.472339451313018799e-01,1.726562805175781250e+02,-2.026061862707138062e-01,-1.372545623779296875e+01,1.827749609947204590e+00,7.628316325281048194e-07,1.200744152069091797e+00,1.106544494628906250e+00,4.868715404882095754e-05,2.453441359102725983e-02,-3.849660977721214294e-02,-5.962433338165283203e+00,5.000000000000000000e-01,-2.435804158449172974e-02,0.000000000000000000e+00
1.045818328857421875e-01,-2.731933288574218750e+02,-1.732635307312011719e+01,-1.732635307312011719e+01,4.472339451313018799e-01,1.726562805175781250e+02,-2.026061862707138062e-01,-1.372545623779296875e+01,1.827749609947204590e+00,7.628316325281048194e-07,1.200744152069091797e+00,1.106544494628906250e+00,4.868715404882095754e-05,2.453441359102725983e-02,-3.849660977721214294e-02,-5.962433338165283203e+00,5.000000000000000000e-01,-2.435804158449172974e-02,0.000000000000000000e+00
1.045818328857421875e-01,-2.731933288574218750e+02,-1.732635307312011719e+01,-1.732635307312011719e+01,4.472339451313018799e-01,1.726562805175781250e+02,-2.026061862707138062e-01,-1.372545623779296875e+01,1.827749609947204590e+00,7.628316325281048194e-07,1.200744152069091797e+00,1.106544494628906250e+00,4.868715404882095754e-05,2.453441359102725983e-02,-3.849660977721214294e-02,-5.962433338165283203e+00,5.000000000000000000e-01,-2.435804158449172974e-02,0.000000000000000000e+00
1.045818328857421875e-01,-2.731933288574218750e+02,-1.732635307312011719e+01,-1.732635307312011719e+01,4.472339451313018799e-01,1.726562805175781250e+02,-2.026061862707138062e-01,-1.372545623779296875e+01,1.827749609947204590e+00,7.628316325281048194e-07,1.200744152069091797e+00,1.106544494628906250e+00,4.868715404882095754e-05,2.453441359102725983e-02,-3.849660977721214294e-02,-5.962433338165283203e+00,5.000000000000000000e-01,-2.435804158449172974e-02,0.000000000000000000e+00
1.045818328857421875e-01,-2.731933288574218750e+02,-1.732635307312011719e+01,-1.732635307312011719e+01,4.472339451313018799e-01,1.726562805175781250e+02,-2.026061862707138062e-01,-1.372545623779296875e+01,1.827749609947204590e+00,7.628316325281048194e-07,1.200744152069091797e+00,1.106544494628906250e+00,4.868715404882095754e-05,2.453441359102725983e-02,-3.849660977721214294e-02,-5.962433338165283203e+00,5.000000000000000000e-01,-2.435804158449172974e-02,0.000000000000000000e+00
1.045818328857421875e-01,-2.745600280761718750e+02,-1.714109802246093750e+01,-1.714109802246093750e+01,4.401510357856750488e-01,1.720939483642578125e+02,-1.945190131664276123e-01,-1.364021587371826172e+01,1.950605988502502441e+00,6.541115453728707507e-06,8.140698075294494629e-01,1.173313498497009277e+00,5.518425678019411862e-05,6.638222932815551758e-02,-1.197383850812911987e-01,-5.456255912780761719e+00,1.000000000000000000e+00,-2.205374650657176971e-02,0.000000000000000000e+00
2.092907428741455078e-01,-2.745600280761718750e+02,-1.714109802246093750e+01,-1.714109802246093750e+01,4.401510357856750488e-01,1.720939483642578125e+02,-1.945190131664276123e-01,-1.364021587371826172e+01,1.950605988502502441e+00,6.541115453728707507e-06,8.140698075294494629e-01,1.173313498497009277e+00,5.518425678019411862e-05,6.638222932815551758e-02,-1.197383850812911987e-01,-5.456255912780761719e+00,1.000000000000000000e+00,-2.205374650657176971e-02,0.000000000000000000e+00
2.092907428741455078e-01,-2.745600280761718750e+02,-1.714109802246093750e+01,-1.714109802246093750e+01,4.401510357856750488e-01,1.720939483642578125e+02,-1.945190131664276123e-01,-1.364021587371826172e+01,1.950605988502502441e+00,6.541115453728707507e-06,8.140698075294494629e-01,1.173313498497009277e+00,5.518425678019411862e-05,6.638222932815551758e-02,-1.197383850812911987e-01,-5.456255912780761719e+00,1.000000000000000000e+00,-2.205374650657176971e-02,0.000000000000000000e+00
2.092907428741455078e-01,-2.745600280761718750e+02,-1.714109802246093750e+01,-1.714109802246093750e+01,4.401510357856750488e-01,1.720939483642578125e+02,-1.945190131664276123e-01,-1.364021587371826172e+01,1.950605988502502441e+00,6.541115453728707507e-06,8.140698075294494629e-01,1.173313498497009277e+00,5.518425678019411862e-05,6.638222932815551758e-02,-1.197383850812911987e-01,-5.456255912780761719e+00,1.000000000000000000e+00,-2.205374650657176971e-02,0.000000000000000000e+00
2.092907428741455078e-01,-2.745600280761718750e+02,-1.714109802246093750e+01,-1.714109802246093750e+01,4.401510357856750488e-01,1.720939483642578125e+02,-1.945190131664276123e-01,-1.364021587371826172e+01,1.950605988502502441e+00,6.541115453728707507e-06,8.140698075294494629e-01,1.173313498497009277e+00,5.518425678019411862e-05,6.638222932815551758e-02,-1.197383850812911987e-01,-5.456255912780761719e+00,1.000000000000000000e+00,-2.205374650657176971e-02,0.000000000000000000e+00
2.092907428741455078e-01,-2.759260559082031250e+02,-1.694195365905761719e+01,-1.694195365905761719e+01,4.228091835975646973e-01,1.715488433837890625e+02,-1.886291354894638062e-01,-1.368839454650878906e+01,2.097288131713867188e+00,9.382591088069602847e-06,-6.456659436225891113e-01,1.965759038925170898e+00,3.808000110439024866e-05,2.577007934451103210e-02,-2.150247544050216675e-01,-5.442189693450927734e+00,1.000000000000000000e+00,-2.295684814453125000e-02,0.000000000000000000e+00
2.839093208312988281e-01,-2.759260559082031250e+02,-1.694195365905761719e+01,-1.694195365905761719e+01,4.228091835975646973e-01,1.715488433837890625e+02,-1.886291354894638062e-01,-1.368839454650878906e+01,2.097288131713867188e+00,9.382591088069602847e-06,-6.456659436225891113e-01,1.965759038925170898e+00,3.808000110439024866e-05,2.577007934451103210e-02,-2.150247544050216675e-01,-5.442189693450927734e+00,1.000000000000000000e+00,-2.295684814453125000e-02,0.000000000000000000e+00
2.839093208312988281e-01,-2.759260559082031250e+02,-1.694195365905761719e+01,-1.694195365905761719e+01,4.228091835975646973e-01,1.715488433837890625e+02,-1.886291354894638062e-01,-1.368839454650878906e+01,2.097288131713867188e+00,9.382591088069602847e-06,-6.456659436225891113e-01,1.965759038925170898e+00,3.808000110439024866e-05,2.577007934451103210e-02,-2.150247544050216675e-01,-5.442189693450927734e+00,1.000000000000000000e+00,-2.295684814453125000e-02,0.000000000000000000e+00
2.839093208312988281e-01,-2.759260559082031250e+02,-1.694195365905761719e+01,-1.694195365905761719e+01,4.228091835975646973e-01,1.715488433837890625e+02,-1.886291354894638062e-01,-1.368839454650878906e+01,2.097288131713867188e+00,9.382591088069602847e-06,-6.456659436225891113e-01,1.965759038925170898e+00,3.808000110439024866e-05,2.577007934451103210e-02,-2.150247544050216675e-01,-5.442189693450927734e+00,1.000000000000000000e+00,-2.295684814453125000e-02,0.000000000000000000e+00
2.839093208312988281e-01,-2.759260559082031250e+02,-1.694195365905761719e+01,-1.694195365905761719e+01,4.228091835975646973e-01,1.715488433837890625e+02,-1.886291354894638062e-01,-1.368839454650878906e+01,2.097288131713867188e+00,9.382591088069602847e-06,-6.456659436225891113e-01,1.965759038925170898e+00,3.808000110439024866e-05,2.577007934451103210e-02,-2.150247544050216675e-01,-5.442189693450927734e+00,1.000000000000000000e+00,-2.295684814453125000e-02,0.000000000000000000e+00
3.569011688232421875e-01,-2.769515075683593750e+02,-1.678323745727539062e+01,-1.678323745727539062e+01,4.063279330730438232e-01,1.711267242431640625e+02,-1.871948093175888062e-01,-1.378189945220947266e+01,2.223158597946166992e+00,1.184286611533025280e-05,-1.281032204627990723e+00,1.724445581436157227e+00,3.370616104803048074e-05,-2.062638849020004272e-02,-2.286150157451629639e-01,-5.756008625030517578e+00,1.000000000000000000e+00,-2.494223415851593018e-02,0.000000000000000000e+00
3.569011688232421875e-01,-2.769515075683593750e+02,-1.678323745727539062e+01,-1.678323745727539062e+01,4.063279330730438232e-01,1.711267242431640625e+02,-1.871948093175888062e-01,-1.378189945220947266e+01,2.223158597946166992e+00,1.184286611533025280e-05,-1.281032204627990723e+00,1.724445581436157227e+00,3.370616104803048074e-05,-2.062638849020004272e-02,-2.286150157451629639e-01,-5.756008625030517578e+00,1.000000000000000000e+00,-2.494223415851593018e-02,0.000000000000000000e+00
3.569011688232421875e-01,-2.769515075683593750e+02,-1.678323745727539062e+01,-1.678323745727539062e+01,4.063279330730438232e-01,1.711267242431640625e+02,-1.871948093175888062e-01,-1.378189945220947266e+01,2.223158597946166992e+00,1.184286611533025280e-05,-1.281032204627990723e+00,1.724445581436157227e+00,3.370616104803048074e-05,-2.062638849020004272e-02,-2.286150157451629639e-01,-5.756008625030517578e+00,1.000000000000000000e+00,-2.494223415851593018e-02,0.000000000000000000e+00
3.569011688232421875e-01,-2.769515075683593750e+02,-1.678323745727539062e+01,-1.678323745727539062e+01,4.063279330730438232e-01,1.711267242431640625e+02,-1.871948093175888062e-01,-1.378189945220947266e+01,2.223158597946166992e+00,1.184286611533025280e-05,-1.281032204627990723e+00,1.724445581436157227e+00,3.370616104803048074e-05,-2.062638849020004272e-02,-2.286150157451629639e-01,-5.756008625030517578e+00,1.000000000000000000e+00,-2.494223415851593018e-02,0.000000000000000000e+00
4.765405654907226562e-01,-2.779623718261718750e+02,-1.661927032470703125e+01,-1.661927032470703125e+01,3.906389772891998291e-01,1.707135162353515625e+02,-1.838073134422302246e-01,-1.388686466217041016e+01,2.337876319885253906e+00,1.292993511015083641e-05,-8.773465752601623535e-01,9.588624238967895508e-01,9.086213140108156949e-06,1.844778284430503845e-02,-1.958843916654586792e-01,-5.626246452331542969e+00,5.000000000000000000e-01,-2.331564761698246002e-02,0.000000000000000000e+00
4.765405654907226562e-01,-2.779623718261718750e+02,-1.661927032470703125e+01,-1.661927032470703125e+01,3.906389772891998291e-01,1.707135162353515625e+02,-1.838073134422302246e-01,-1.388686466217041016e+01,2.337876319885253906e+00,1.292993511015083641e-05,-8.773465752601623535e-01,9.588624238967895508e-01,9.086213140108156949e-06,1.844778284430503845e-02,-1.958843916654586792e-01,-5.626246452331542969e+00,5.000000000000000000e-01,-2.331564761698246002e-02,0.000000000000000000e+00
4.765405654907226562e-01,-2.779623718261718750e+02,-1.661927032470703125e+01,-1.661927032470703125e+01,3.906389772891998291e-01,1.707135162353515625e+02,-1.838073134422302246e-01,-1.388686466217041016e+01,2.337876319885253906e+00,1.292993511015083641e-05,-8.773465752601623535e-01,9.588624238967895508e-01,9.086213140108156949e-06,1.844778284430503845e-02,-1.958843916654586792e-01,-5.626246452331542969e+00,5.000000000000000000e-01,-2.331564761698246002e-02,0.000000000000000000e+00
4.765405654907226562e-01,-2.779623718261718750e+02,-1.661927032470703125e+01,-1.661927032470703125e+01,3.906389772891998291e-01,1.707135162353515625e+02,-1.838073134422302246e-01,-1.388686466217041016e+01,2.337876319885253906e+00,1.292993511015083641e-05,-8.773465752601623535e-01,9.588624238967895508e-01,9.086213140108156949e-06,1.844778284430503845e-02,-1.958843916654586792e-01,-5.626246452331542969e+00,5.000000000000000000e-01,-2.331564761698246002e-02,0.000000000000000000e+00
4.765405654907226562e-01,-2.779623718261718750e+02,-1.661927032470703125e+01,-1.661927032470703125e+01,3.906389772891998291e-01,1.707135162353515625e+02,-1.838073134422302246e-01,-1.388686466217041016e+01,2.337876319885253906e+00,1.292993511015083641e-05,-8.773465752601623535e-01,9.588624238967895508e-01,9.086213140108156949e-06,1.844778284430503845e-02,-1.958843916654586792e-01,-5.626246452331542969e+00,5.000000000000000000e-01,-2.331564761698246002e-02,0.000000000000000000e+00
4.765405654907226562e-01,-2.779623718261718750e+02,-1.661927032470703125e+01,-1.661927032470703125e+01,3.906389772891998291e-01,1.707135162353515625e+02,-1.838073134422302246e-01,-1.388686466217041016e+01,2.337876319885253906e+00,1.292993511015083641e-05,-8.773465752601623535e-01,9.588624238967895508e-01,9.086213140108156949e-06,1.844778284430503845e-02,-1.958843916654586792e-01,-5.626246452331542969e+00,5.000000000000000000e-01,-2.331564761698246002e-02,0.000000000000000000e+00
4.765405654907226562e-01,-2.779623718261718750e+02,-1.661927032470703125e+01,-1.661927032470703125e+01,3.906389772891998291e-01,1.707135162353515625e+02,-1.838073134422302246e-01,-1.388686466217041016e+01,2.337876319885253906e+00,1.292993511015083641e-05,-8.773465752601623535e-01,9.588624238967895508e-01,9.086213140108156949e-06,1.844778284430503845e-02,-1.958843916654586792e-01,-5.626246452331542969e+00,5.000000000000000000e-01,-2.331564761698246002e-02,0.000000000000000000e+00
6.200885772705078125e-01,-2.793556823730468750e+02,-1.638050460815429688e+01,-1.638050460815429688e+01,3.796970248222351074e-01,1.701189880371093750e+02,-1.847229003906250000e-01,-1.394971656799316406e+01,2.502956867218017578e+00,7.170435765146976337e-06,-4.378458857536315918e-01,1.150002360343933105e+00,-4.012246063211932778e-05,-2.821155451238155365e-02,-4.518343880772590637e-02,-6.095510005950927734e+00,5.000000000000000000e-01,-2.571825310587882996e-02,0.000000000000000000e+00
6.200885772705078125e-01,-2.793556823730468750e+02,-1.638050460815429688e+01,-1.638050460815429688e+01,3.796970248222351074e-01,1.701189880371093750e+02,-1.847229003906250000e-01,-1.394971656799316406e+01,2.502956867218017578e+00,7.170435765146976337e-06,-4.378458857536315918e-01,1.150002360343933105e+00,-4.012246063211932778e-05,-2.821155451238155365e-02,-4.518343880772590637e-02,-6.095510005950927734e+00,5.000000000000000000e-01,-2.571825310587882996e-02,0.000000000000000000e+00
6.200885772705078125e-01,-2.793556823730468750e+02,-1.638050460815429688e+01,-1.638050460815429688e+01,3.796970248222351074e-01,1.701189880371093750e+02,-1.847229003906250000e-01,-1.394971656799316406e+01,2.502956867218017578e+00,7.170435765146976337e-06,-4.378458857536315918e-01,1.150002360343933105e+00,-4.012246063211932778e-05,-2.821155451238155365e-02,-4.518343880772590637e-02,-6.095510005950927734e+00,5.000000000000000000e-01,-2.571825310587882996e-02,0.000000000000000000e+00
6.200885772705078125e-01,-2.793556823730468750e+02,-1.638050460815429688e+01,-1.638050460815429688e+01,3.796970248222351074e-01,1.701189880371093750e+02,-1.847229003906250000e-01,-1.394971656799316406e+01,2.502956867218017578e+00,7.170435765146976337e-06,-4.378458857536315918e-01,1.150002360343933105e+00,-4.012246063211932778e-05,-2.821155451238155365e-02,-4.518343880772590637e-02,-6.095510005950927734e+00,5.000000000000000000e-01,-2.571825310587882996e-02,0.000000000000000000e+00
6.200885772705078125e-01,-2.793556823730468750e+02,-1.638050460815429688e+01,-1.638050460815429688e+01,3.796970248222351074e-01,1.701189880371093750e+02,-1.847229003906250000e-01,-1.394971656799316406e+01,2.502956867218017578e+00,7.170435765146976337e-06,-4.378458857536315918e-01,1.150002360343933105e+00,-4.012246063211932778e-05,-2.821155451238155365e-02,-4.518343880772590637e-02,-6.095510005950927734e+00,5.000000000000000000e-01,-2.571825310587882996e-02,0.000000000000000000e+00
6.200885772705078125e-01,-2.793556823730468750e+02,-1.638050460815429688e+01,-1.638050460815429688e+01,3.796970248222351074e-01,1.701189880371093750e+02,-1.847229003906250000e-01,-1.394971656799316406e+01,2.502956867218017578e+00,7.170435765146976337e-06,-4.378458857536315918e-01,1.150002360343933105e+00,-4.012246063211932778e-05,-2.821155451238155365e-02,-4.518343880772590637e-02,-6.095510005950927734e+00,5.000000000000000000e-01,-2.571825310587882996e-02,0.000000000000000000e+00
7.946169376373291016e-01,-2.807513732910156250e+02,-1.612685966491699219e+01,-1.612685966491699219e+01,3.803049027919769287e-01,1.695276947021484375e+02,-1.829223483800888062e-01,-1.394806480407714844e+01,2.642065763473510742e+00,2.650772785273147747e-06,9.464157745242118835e-03,7.970560789108276367e-01,-2.589643918327055871e-05,2.163015678524971008e-02,3.276478499174118042e-02,-5.840963363647460938e+00,5.000000000000000000e-01,-2.357548289000988007e-02,0.000000000000000000e+00
7.946169376373291016e-01,-2.807513732910156250e+02,-1.612685966491699219e+01,-1.612685966491699219e+01,3.803049027919769287e-01,1.695276947021484375e+02,-1.829223483800888062e-01,-1.394806480407714844e+01,2.642065763473510742e+00,2.650772785273147747e-06,9.464157745242118835e-03,7.970560789108276367e-01,-2.589643918327055871e-05,2.163015678524971008e-02,3.276478499174118042e-02,-5.840963363647460938e+00,5.000000000000000000e-01,-2.357548289000988007e-02,0.000000000000000000e+00
7.946169376373291016e-01,-2.807513732910156250e+02,-1.612685966491699219e+01,-1.612685966491699219e+01,3.803049027919769287e-01,1.695276947021484375e+02,-1.829223483800888062e-01,-1.394806480407714844e+01,2.642065763473510742e+00,2.650772785273147747e-06,9.464157745242118835e-03,7.970560789108276367e-01,-2.589643918327055871e-05,2.163015678524971008e-02,3.276478499174118042e-02,-5.840963363647460938e+00,5.000000000000000000e-01,-2.357548289000988007e-02,0.000000000000000000e+00
8.783230781555175781e-01,-2.821442260742187500e+02,-1.585893440246582031e+01,-1.585893440246582031e+01,3.860627710819244385e-01,1.689286346435546875e+02,-1.849975287914276123e-01,-1.390320301055908203e+01,2.787372112274169922e+00,-3.146600647596642375e-06,5.359438657760620117e-01,1.735910296440124512e+00,-6.925863999640569091e-05,-1.214098837226629257e-02,7.053361833095550537e-02,-6.057406425476074219e+00,5.000000000000000000e-01,-2.493961900472640991e-02,0.000000000000000000e+00
8.783230781555175781e-01,-2.821442260742187500e+02,-1.585893440246582031e+01,-1.585893440246582031e+01,3.860627710819244385e-01,1.689286346435546875e+02,-1.849975287914276123e-01,-1.390320301055908203e+01,2.787372112274169922e+00,-3.146600647596642375e-06,5.359438657760620117e-01,1.735910296440124512e+00,-6.925863999640569091e-05,-1.214098837226629257e-02,7.053361833095550537e-02,-6.057406425476074219e+00,5.000000000000000000e-01,-2.493961900472640991e-02,0.000000000000000000e+00
8.783230781555175781e-01,-2.821442260742187500e+02,-1.585893440246582031e+01,-1.585893440246582031e+01,3.860627710819244385e-01,1.689286346435546875e+02,-1.849975287914276123e-01,-1.390320301055908203e+01,2.787372112274169922e+00,-3.146600647596642375e-06,5.359438657760620117e-01,1.735910296440124512e+00,-6.925863999640569091e-05,-1.214098837226629257e-02,7.053361833095550537e-02,-6.057406425476074219e+00,5.000000000000000000e-01,-2.493961900472640991e-02,0.000000000000000000e+00
9.483780860900878906e-01,-2.833056640625000000e+02,-1.562366008758544922e+01,-1.562366008758544922e+01,3.917318284511566162e-01,1.684026947021484375e+02,-1.893615573644638062e-01,-1.384521961212158203e+01,2.913407802581787109e+00,-4.195581368549028412e-06,8.276838660240173340e-01,1.799096107482910156e+00,-1.497367247793590650e-05,-3.811453282833099365e-02,7.826095074415206909e-02,-6.390409946441650391e+00,5.000000000000000000e-01,-2.661241777241230011e-02,0.000000000000000000e+00
9.483780860900878906e-01,-2.833056640625000000e+02,-1.562366008758544922e+01,-1.562366008758544922e+01,3.917318284511566162e-01,1.684026947021484375e+02,-1.893615573644638062e-01,-1.384521961212158203e+01,2.913407802581787109e+00,-4.195581368549028412e-06,8.276838660240173340e-01,1.799096107482910156e+00,-1.497367247793590650e-05,-3.811453282833099365e-02,7.826095074415206909e-02,-6.390409946441650391e+00,5.000000000000000000e-01,-2.661241777241230011e-02,0.000000000000000000e+00
9.483780860900878906e-01,-2.833056640625000000e+02,-1.562366008758544922e+01,-1.562366008758544922e+01,3.917318284511566162e-01,1.684026947021484375e+02,-1.893615573644638062e-01,-1.384521961212158203e+01,2.913407802581787109e+00,-4.195581368549028412e-06,8.276838660240173340e-01,1.799096107482910156e+00,-1.497367247793590650e-05,-3.811453282833099365e-02,7.826095074415206909e-02,-6.390409946441650391e+00,5.000000000000000000e-01,-2.661241777241230011e-02,0.000000000000000000e+00
9.483780860900878906e-01,-2.833056640625000000e+02,-1.562366008758544922e+01,-1.562366008758544922e+01,3.917318284511566162e-01,1.684026947021484375e+02,-1.893615573644638062e-01,-1.384521961212158203e+01,2.913407802581787109e+00,-4.195581368549028412e-06,8.276838660240173340e-01,1.799096107482910156e+00,-1.497367247793590650e-05,-3.811453282833099365e-02,7.826095074415206909e-02,-6.390409946441650391e+00,5.000000000000000000e-01,-2.661241777241230011e-02,0.000000000000000000e+00
9.483780860900878906e-01,-2.842736816406250000e+02,-1.541905212402343750e+01,-1.541905212402343750e+01,3.963900208473205566e-01,1.679577636718750000e+02,-1.913757473230361938e-01,-1.379014968872070312e+01,3.010913133621215820e+00,-4.205114237265661359e-06,6.988656520843505859e-01,1.237392783164978027e+00,-1.209770061905146576e-07,-8.325404487550258636e-03,6.713306158781051636e-02,-6.331500530242919922e+00,5.000000000000000000e-01,-2.566048689186573029e-02,0.000000000000000000e+00
1.027177095413208008e+00,-2.842736816406250000e+02,-1.541905212402343750e+01,-1.541905212402343750e+01,3.963900208473205566e-01,1.679577636718750000e+02,-1.913757473230361938e-01,-1.379014968872070312e+01,3.010913133621215820e+00,-4.205114237265661359e-06,6.988656520843505859e-01,1.237392783164978027e+00,-1.209770061905146576e-07,-8.325404487550258636e-03,6.713306158781051636e-02,-6.331500530242919922e+00,5.000000000000000000e-01,-2.566048689186573029e-02,0.000000000000000000e+00
1.027177095413208008e+00,-2.842736816406250000e+02,-1.541905212402343750e+01,-1.541905212402343750e+01,3.963900208473205566e-01,1.679577636718750000e+02,-1.913757473230361938e-01,-1.379014968872070312e+01,3.010913133621215820e+00,-4.205114237265661359e-06,6.988656520843505859e-01,1.237392783164978027e+00,-1.209770061905146576e-07,-8.325404487550258636e-03,6.713306158781051636e-02,-6.331500530242919922e+00,5.000000000000000000e-01,-2.566048689186573029e-02,0.000000000000000000e+00
1.095043420791625977e+00,-2.853575744628906250e+02,-1.518049240112304688e+01,-1.518049240112304688e+01,4.010891914367675781e-01,1.674542541503906250e+02,-1.939086914062500000e-01,-1.372131729125976562e+01,3.123900651931762695e+00,-3.747349410332390107e-06,1.014234900474548340e+00,1.664853930473327637e+00,6.745095106452936307e-06,-1.888706535100936890e-02,6.048017367720603943e-02,-6.413312911987304688e+00,5.000000000000000000e-01,-2.633536234498023987e-02,0.000000000000000000e+00
1.095043420791625977e+00,-2.853575744628906250e+02,-1.518049240112304688e+01,-1.518049240112304688e+01,4.010891914367675781e-01,1.674542541503906250e+02,-1.939086914062500000e-01,-1.372131729125976562e+01,3.123900651931762695e+00,-3.747349410332390107e-06,1.014234900474548340e+00,1.664853930473327637e+00,6.745095106452936307e-06,-1.888706535100936890e-02,6.048017367720603943e-02,-6.413312911987304688e+00,5.000000000000000000e-01,-2.633536234498023987e-02,0.000000000000000000e+00
1.095043420791625977e+00,-2.853575744628906250e+02,-1.518049240112304688e+01,-1.518049240112304688e+01,4.010891914367675781e-01,1.674542541503906250e+02,-1.939086914062500000e-01,-1.372131729125976562e+01,3.123900651931762695e+00,-3.747349410332390107e-06,1.014234900474548340e+00,1.664853930473327637e+00,6.745095106452936307e-06,-1.888706535100936890e-02,6.048017367720603943e-02,-6.413312911987304688e+00,5.000000000000000000e-01,-2.633536234498023987e-02,0.000000000000000000e+00
1.095043420791625977e+00,-2.853575744628906250e+02,-1.518049240112304688e+01,-1.518049240112304688e+01,4.010891914367675781e-01,1.674542541503906250e+02,-1.939086914062500000e-01,-1.372131729125976562e+01,3.123900651931762695e+00,-3.747349410332390107e-06,1.014234900474548340e+00,1.664853930473327637e+00,6.745095106452936307e-06,-1.888706535100936890e-02,6.048017367720603943e-02,-6.413312911987304688e+00,5.000000000000000000e-01,-2.633536234498023987e-02,0.000000000000000000e+00
1.168572425842285156e+00,-2.862865905761718750e+02,-1.496793270111083984e+01,-1.496793270111083984e+01,4.043403565883636475e-01,1.670101318359375000e+02,-1.970520019531250000e-01,-1.365744209289550781e+01,3.224878787994384766e+00,-4.329093826527241617e-06,8.687074780464172363e-01,1.373310208320617676e+00,-7.911767170298844576e-06,-3.575504943728446960e-02,5.463626235723495483e-02,-6.603834152221679688e+00,5.000000000000000000e-01,-2.749895304441452026e-02,0.000000000000000000e+00
1.168572425842285156e+00,-2.862865905761718750e+02,-1.496793270111083984e+01,-1.496793270111083984e+01,4.043403565883636475e-01,1.670101318359375000e+02,-1.970520019531250000e-01,-1.365744209289550781e+01,3.224878787994384766e+00,-4.329093826527241617e-06,8.687074780464172363e-01,1.373310208320617676e+00,-7.911767170298844576e-06,-3.575504943728446960e-02,5.463626235723495483e-02,-6.603834152221679688e+00,5.000000000000000000e-01,-2.749895304441452026e-02,0.000000000000000000e+00
1.168572425842285156e+00,-2.862865905761718750e+02,-1.496793270111083984e+01,-1.496793270111083984e+01,4.043403565883636475e-01,1.670101318359375000e+02,-1.970520019531250000e-01,-1.365744209289550781e+01,3.224878787994384766e+00,-4.329093826527241617e-06,8.687074780464172363e-01,1.373310208320617676e+00,-7.911767170298844576e-06,-3.575504943728446960e-02,5.463626235723495483e-02,-6.603834152221679688e+00,5.000000000000000000e-01,-2.749895304441452026e-02,0.000000000000000000e+00
1.168572425842285156e+00,-2.862865905761718750e+02,-1.496793270111083984e+01,-1.496793270111083984e+01,4.043403565883636475e-01,1.670101318359375000e+02,-1.970520019531250000e-01,-1.365744209289550781e+01,3.224878787994384766e+00,-4.329093826527241617e-06,8.687074780464172363e-01,1.373310208320617676e+00,-7.911767170298844576e-06,-3.575504943728446960e-02,5.463626235723495483e-02,-6.603834152221679688e+00,5.000000000000000000e-01,-2.749895304441452026e-02,0.000000000000000000e+00
1.168572425842285156e+00,-2.872882995605468750e+02,-1.473040103912353516e+01,-1.473040103912353516e+01,4.073114693164825439e-01,1.665398559570312500e+02,-1.968993991613388062e-01,-1.358938312530517578e+01,3.320268392562866211e+00,-2.526865273466682993e-06,9.068670868873596191e-01,1.271040320396423340e+00,2.401420169917400926e-05,2.095733210444450378e-02,3.232530504465103149e-02,-6.298558712005615234e+00,5.000000000000000000e-01,-2.515825629234313965e-02,0.000000000000000000e+00
1.243620872497558594e+00,-2.872882995605468750e+02,-1.473040103912353516e+01,-1.473040103912353516e+01,4.073114693164825439e-01,1.665398559570312500e+02,-1.968993991613388062e-01,-1.358938312530517578e+01,3.320268392562866211e+00,-2.526865273466682993e-06,9.068670868873596191e-01,1.271040320396423340e+00,2.401420169917400926e-05,2.095733210444450378e-02,3.232530504465103149e-02,-6.298558712005615234e+00,5.000000000000000000e-01,-2.515825629234313965e-02,0.000000000000000000e+00
1.243620872497558594e+00,-2.872882995605468750e+02,-1.473040103912353516e+01,-1.473040103912353516e+01,4.073114693164825439e-01,1.665398559570312500e+02,-1.968993991613388062e-01,-1.358938312530517578e+01,3.320268392562866211e+00,-2.526865273466682993e-06,9.068670868873596191e-01,1.271040320396423340e+00,2.401420169917400926e-05,2.095733210444450378e-02,3.232530504465103149e-02,-6.298558712005615234e+00,5.000000000000000000e-01,-2.515825629234313965e-02,0.000000000000000000e+00
1.243620872497558594e+00,-2.883053588867187500e+02,-1.448031806945800781e+01,-1.448031806945800781e+01,4.096610546112060547e-01,1.660638885498046875e+02,-1.975097507238388062e-01,-1.351602363586425781e+01,3.424735307693481445e+00,-2.479180921000079252e-06,1.072161078453063965e+00,1.526801228523254395e+00,6.969146966184780467e-07,-4.650485701858997345e-03,3.021693788468837738e-02,-6.359737396240234375e+00,5.000000000000000000e-01,-2.626473642885684967e-02,0.000000000000000000e+00
1.312042951583862305e+00,-2.883053588867187500e+02,-1.448031806945800781e+01,-1.448031806945800781e+01,4.096610546112060547e-01,1.660638885498046875e+02,-1.975097507238388062e-01,-1.351602363586425781e+01,3.424735307693481445e+00,-2.479180921000079252e-06,1.072161078453063965e+00,1.526801228523254395e+00,6.969146966184780467e-07,-4.650485701858997345e-03,3.021693788468837738e-02,-6.359737396240234375e+00,5.000000000000000000e-01,-2.626473642885684967e-02,0.000000000000000000e+00
1.312042951583862305e+00,-2.883053588867187500e+02,-1.448031806945800781e+01,-1.448031806945800781e+01,4.096610546112060547e-01,1.660638885498046875e+02,-1.975097507238388062e-01,-1.351602363586425781e+01,3.424735307693481445e+00,-2.479180921000079252e-06,1.072161078453063965e+00,1.526801228523254395e+00,6.969146966184780467e-07,-4.650485701858997345e-03,3.021693788468837738e-02,-6.359737396240234375e+00,5.000000000000000000e-01,-2.626473642885684967e-02,0.000000000000000000e+00
1.383129358291625977e+00,-2.892280578613281250e+02,-1.424602603912353516e+01,-1.424602603912353516e+01,4.111227095127105713e-01,1.656484069824218750e+02,-1.946716159582138062e-01,-1.345692634582519531e+01,3.506211996078491211e+00,-5.053782388131367043e-07,8.313444256782531738e-01,1.146164059638977051e+00,2.776624569378327578e-05,5.192482098937034607e-02,-2.986425766721367836e-03,-5.930436134338378906e+00,5.000000000000000000e-01,-2.341700904071331024e-02,0.000000000000000000e+00
1.383129358291625977e+00,-2.892280578613281250e+02,-1.424602603912353516e+01,-1.424602603912353516e+01,4.111227095127105713e-01,1.656484069824218750e+02,-1.946716159582138062e-01,-1.345692634582519531e+01,3.506211996078491211e+00,-5.053782388131367043e-07,8.313444256782531738e-01,1.146164059638977051e+00,2.776624569378327578e-05,5.192482098937034607e-02,-2.986425766721367836e-03,-5.930436134338378906e+00,5.000000000000000000e-01,-2.341700904071331024e-02,0.000000000000000000e+00
1.383129358291625977e+00,-2.892280578613281250e+02,-1.424602603912353516e+01,-1.424602603912353516e+01,4.111227095127105713e-01,1.656484069824218750e+02,-1.946716159582138062e-01,-1.345692634582519531e+01,3.506211996078491211e+00,-5.053782388131367043e-07,8.313444256782531738e-01,1.146164059638977051e+00,2.776624569378327578e-05,5.192482098937034607e-02,-2.986425766721367836e-03,-5.930436134338378906e+00,5.000000000000000000e-01,-2.341700904071331024e-02,0.000000000000000000e+00
1.450951814651489258e+00,-2.901832580566406250e+02,-1.399585151672363281e+01,-1.399585151672363281e+01,4.104192256927490234e-01,1.652214508056640625e+02,-1.937865912914276123e-01,-1.341247272491455078e+01,3.607523202896118164e+00,-2.097785198884594138e-07,6.554410457611083984e-01,1.493770837783813477e+00,4.358434125606436282e-06,-1.046719989972189069e-04,-1.733366772532463074e-02,-6.041484832763671875e+00,5.000000000000000000e-01,-2.529602125287055969e-02,0.000000000000000000e+00
1.450951814651489258e+00,-2.901832580566406250e+02,-1.399585151672363281e+01,-1.399585151672363281e+01,4.104192256927490234e-01,1.652214508056640625e+02,-1.937865912914276123e-01,-1.341247272491455078e+01,3.607523202896118164e+00,-2.097785198884594138e-07,6.554410457611083984e-01,1.493770837783813477e+00,4.358434125606436282e-06,-1.046719989972189069e-04,-1.733366772532463074e-02,-6.041484832763671875e+00,5.000000000000000000e-01,-2.529602125287055969e-02,0.000000000000000000e+00
1.450951814651489258e+00,-2.901832580566406250e+02,-1.399585151672363281e+01,-1.399585151672363281e+01,4.104192256927490234e-01,1.652214508056640625e+02,-1.937865912914276123e-01,-1.341247272491455078e+01,3.607523202896118164e+00,-2.097785198884594138e-07,6.554410457611083984e-01,1.493770837783813477e+00,4.358434125606436282e-06,-1.046719989972189069e-04,-1.733366772532463074e-02,-6.041484832763671875e+00,5.000000000000000000e-01,-2.529602125287055969e-02,0.000000000000000000e+00
1.527701377868652344e+00,-2.910918273925781250e+02,-1.375097751617431641e+01,-1.375097751617431641e+01,4.091419577598571777e-01,1.648271026611328125e+02,-1.903991550207138062e-01,-1.337346935272216797e+01,3.690244913101196289e+00,5.530560542865714524e-07,5.081901550292968750e-01,1.077813506126403809e+00,9.939270057657267898e-06,5.159287899732589722e-02,-3.381276875734329224e-02,-5.706847190856933594e+00,1.000000000000000000e+00,-2.284960076212882996e-02,0.000000000000000000e+00
1.527701377868652344e+00,-2.910918273925781250e+02,-1.375097751617431641e+01,-1.375097751617431641e+01,4.091419577598571777e-01,1.648271026611328125e+02,-1.903991550207138062e-01,-1.337346935272216797e+01,3.690244913101196289e+00,5.530560542865714524e-07,5.081901550292968750e-01,1.077813506126403809e+00,9.939270057657267898e-06,5.159287899732589722e-02,-3.381276875734329224e-02,-5.706847190856933594e+00,1.000000000000000000e+00,-2.284960076212882996e-02,0.000000000000000000e+00
1.527701377868652344e+00,-2.910918273925781250e+02,-1.375097751617431641e+01,-1.375097751617431641e+01,4.091419577598571777e-01,1.648271026611328125e+02,-1.903991550207138062e-01,-1.337346935272216797e+01,3.690244913101196289e+00,5.530560542865714524e-07,5.081901550292968750e-01,1.077813506126403809e+00,9.939270057657267898e-06,5.159287899732589722e-02,-3.381276875734329224e-02,-5.706847190856933594e+00,1.000000000000000000e+00,-2.284960076212882996e-02,0.000000000000000000e+00
1.600134611129760742e+00,-2.921165466308593750e+02,-1.346637153625488281e+01,-1.346637153625488281e+01,4.078305661678314209e-01,1.643756713867187500e+02,-1.896361857652664185e-01,-1.332428550720214844e+01,3.797648429870605469e+00,1.544715360068948939e-06,6.790232062339782715e-01,1.482793331146240234e+00,1.369066831102827564e-05,-3.643359523266553879e-03,-1.473760325461626053e-02,-5.959787845611572266e+00,1.000000000000000000e+00,-2.524435892701148987e-02,0.000000000000000000e+00
1.600134611129760742e+00,-2.921165466308593750e+02,-1.346637153625488281e+01,-1.346637153625488281e+01,4.078305661678314209e-01,1.643756713867187500e+02,-1.896361857652664185e-01,-1.332428550720214844e+01,3.797648429870605469e+00,1.544715360068948939e-06,6.790232062339782715e-01,1.482793331146240234e+00,1.369066831102827564e-05,-3.643359523266553879e-03,-1.473760325461626053e-02,-5.959787845611572266e+00,1.000000000000000000e+00,-2.524435892701148987e-02,0.000000000000000000e+00
1.600134611129760742e+00,-2.921165466308593750e+02,-1.346637153625488281e+01,-1.346637153625488281e+01,4.078305661678314209e-01,1.643756713867187500e+02,-1.896361857652664185e-01,-1.332428550720214844e+01,3.797648429870605469e+00,1.544715360068948939e-06,6.790232062339782715e-01,1.482793331146240234e+00,1.369066831102827564e-05,-3.643359523266553879e-03,-1.473760325461626053e-02,-5.959787845611572266e+00,1.000000000000000000e+00,-2.524435892701148987e-02,0.000000000000000000e+00
1.600134611129760742e+00,-2.921165466308593750e+02,-1.346637153625488281e+01,-1.346637153625488281e+01,4.078305661678314209e-01,1.643756713867187500e+02,-1.896361857652664185e-01,-1.332428550720214844e+01,3.797648429870605469e+00,1.544715360068948939e-06,6.790232062339782715e-01,1.482793331146240234e+00,1.369066831102827564e-05,-3.643359523266553879e-03,-1.473760325461626053e-02,-5.959787845611572266e+00,1.000000000000000000e+00,-2.524435892701148987e-02,0.000000000000000000e+00
1.600134611129760742e+00,-2.921165466308593750e+02,-1.346637153625488281e+01,-1.346637153625488281e+01,4.078305661678314209e-01,1.643756713867187500e+02,-1.896361857652664185e-01,-1.332428550720214844e+01,3.797648429870605469e+00,1.544715360068948939e-06,6.790232062339782715e-01,1.482793331146240234e+00,1.369066831102827564e-05,-3.643359523266553879e-03,-1.473760325461626053e-02,-5.959787845611572266e+00,1.000000000000000000e+00,-2.524435892701148987e-02,0.000000000000000000e+00
1.600134611129760742e+00,-2.930804138183593750e+02,-1.319090938568115234e+01,-1.319090938568115234e+01,4.068743586540222168e-01,1.639606018066406250e+02,-1.860045939683914185e-01,-1.328203868865966797e+01,3.883141279220581055e+00,2.107314912791480310e-06,3.661573529243469238e-01,7.409749627113342285e-01,4.876106231677113101e-06,5.204388499259948730e-02,-2.734672836959362030e-02,-5.624633312225341797e+00,1.000000000000000000e+00,-2.264578640460968018e-02,0.000000000000000000e+00
1.715513467788696289e+00,-2.930804138183593750e+02,-1.319090938568115234e+01,-1.319090938568115234e+01,4.068743586540222168e-01,1.639606018066406250e+02,-1.860045939683914185e-01,-1.328203868865966797e+01,3.883141279220581055e+00,2.107314912791480310e-06,3.661573529243469238e-01,7.409749627113342285e-01,4.876106231677113101e-06,5.204388499259948730e-02,-2.734672836959362030e-02,-5.624633312225341797e+00,1.000000000000000000e+00,-2.264578640460968018e-02,0.000000000000000000e+00
1.715513467788696289e+00,-2.930804138183593750e+02,-1.319090938568115234e+01,-1.319090938568115234e+01,4.068743586540222168e-01,1.639606018066406250e+02,-1.860045939683914185e-01,-1.328203868865966797e+01,3.883141279220581055e+00,2.107314912791480310e-06,3.661573529243469238e-01,7.409749627113342285e-01,4.876106231677113101e-06,5.204388499259948730e-02,-2.734672836959362030e-02,-5.624633312225341797e+00,1.000000000000000000e+00,-2.264578640460968018e-02,0.000000000000000000e+00
1.715513467788696289e+00,-2.944056396484375000e+02,-1.279922485351562500e+01,-1.279922485351562500e+01,4.059454500675201416e-01,1.633754577636718750e+02,-1.857910007238388062e-01,-1.321656608581542969e+01,4.019479274749755859e+00,1.334921506668251823e-07,6.708145141601562500e-01,1.396882057189941406e+00,-2.022325134021230042e-05,-6.733734160661697388e-03,-5.767139606177806854e-03,-5.946843624114990234e+00,1.000000000000000000e+00,-2.513558603823184967e-02,0.000000000000000000e+00
1.813115119934082031e+00,-2.944056396484375000e+02,-1.279922485351562500e+01,-1.279922485351562500e+01,4.059454500675201416e-01,1.633754577636718750e+02,-1.857910007238388062e-01,-1.321656608581542969e+01,4.019479274749755859e+00,1.334921506668251823e-07,6.708145141601562500e-01,1.396882057189941406e+00,-2.022325134021230042e-05,-6.733734160661697388e-03,-5.767139606177806854e-03,-5.946843624114990234e+00,1.000000000000000000e+00,-2.513558603823184967e-02,0.000000000000000000e+00
1.813115119934082031e+00,-2.944056396484375000e+02,-1.279922485351562500e+01,-1.279922485351562500e+01,4.059454500675201416e-01,1.633754577636718750e+02,-1.857910007238388062e-01,-1.321656608581542969e+01,4.019479274749755859e+00,1.334921506668251823e-07,6.708145141601562500e-01,1.396882057189941406e+00,-2.022325134021230042e-05,-6.733734160661697388e-03,-5.767139606177806854e-03,-5.946843624114990234e+00,1.000000000000000000e+00,-2.513558603823184967e-02,0.000000000000000000e+00
1.813115119934082031e+00,-2.944056396484375000e+02,-1.279922485351562500e+01,-1.279922485351562500e+01,4.059454500675201416e-01,1.633754577636718750e+02,-1.857910007238388062e-01,-1.321656608581542969e+01,4.019479274749755859e+00,1.334921506668251823e-07,6.708145141601562500e-01,1.396882057189941406e+00,-2.022325134021230042e-05,-6.733734160661697388e-03,-5.767139606177806854e-03,-5.946843624114990234e+00,1.000000000000000000e+00,-2.513558603823184967e-02,0.000000000000000000e+00
1.896134853363037109e+00,-2.956931457519531250e+02,-1.240507793426513672e+01,-1.240507793426513672e+01,4.053170680999755859e-01,1.628303375244140625e+02,-1.801146864891052246e-01,-1.315912818908691406e+01,4.128952980041503906e+00,4.672243960612831870e-07,6.918583512306213379e-01,1.318646788597106934e+00,4.019914740638341755e-06,5.493706092238426208e-02,-2.284930273890495300e-02,-5.429121494293212891e+00,1.000000000000000000e+00,-2.197331003844738007e-02,0.000000000000000000e+00
1.896134853363037109e+00,-2.956931457519531250e+02,-1.240507793426513672e+01,-1.240507793426513672e+01,4.053170680999755859e-01,1.628303375244140625e+02,-1.801146864891052246e-01,-1.315912818908691406e+01,4.128952980041503906e+00,4.672243960612831870e-07,6.918583512306213379e-01,1.318646788597106934e+00,4.019914740638341755e-06,5.493706092238426208e-02,-2.284930273890495300e-02,-5.429121494293212891e+00,1.000000000000000000e+00,-2.197331003844738007e-02,0.000000000000000000e+00
1.896134853363037109e+00,-2.956931457519531250e+02,-1.240507793426513672e+01,-1.240507793426513672e+01,4.053170680999755859e-01,1.628303375244140625e+02,-1.801146864891052246e-01,-1.315912818908691406e+01,4.128952980041503906e+00,4.672243960612831870e-07,6.918583512306213379e-01,1.318646788597106934e+00,4.019914740638341755e-06,5.493706092238426208e-02,-2.284930273890495300e-02,-5.429121494293212891e+00,1.000000000000000000e+00,-2.197331003844738007e-02,0.000000000000000000e+00
1.896134853363037109e+00,-2.956931457519531250e+02,-1.240507793426513672e+01,-1.240507793426513672e+01,4.053170680999755859e-01,1.628303375244140625e+02,-1.801146864891052246e-01,-1.315912818908691406e+01,4.128952980041503906e+00,4.672243960612831870e-07,6.918583512306213379e-01,1.318646788597106934e+00,4.019914740638341755e-06,5.493706092238426208e-02,-2.284930273890495300e-02,-5.429121494293212891e+00,1.000000000000000000e+00,-2.197331003844738007e-02,0.000000000000000000e+00
1.896134853363037109e+00,-2.956931457519531250e+02,-1.240507793426513672e+01,-1.240507793426513672e+01,4.053170680999755859e-01,1.628303375244140625e+02,-1.801146864891052246e-01,-1.315912818908691406e+01,4.128952980041503906e+00,4.672243960612831870e-07,6.918583512306213379e-01,1.318646788597106934e+00,4.019914740638341755e-06,5.493706092238426208e-02,-2.284930273890495300e-02,-5.429121494293212891e+00,1.000000000000000000e+00,-2.197331003844738007e-02,0.000000000000000000e+00
1.896134853363037109e+00,-2.956931457519531250e+02,-1.240507793426513672e+01,-1.240507793426513672e+01,4.053170680999755859e-01,1.628303375244140625e+02,-1.801146864891052246e-01,-1.315912818908691406e+01,4.128952980041503906e+00,4.672243960612831870e-07,6.918583512306213379e-01,1.318646788597106934e+00,4.019914740638341755e-06,5.493706092238426208e-02,-2.284930273890495300e-02,-5.429121494293212891e+00,1.000000000000000000e+00,-2.197331003844738007e-02,0.000000000000000000e+00
1.896134853363037109e+00,-2.956931457519531250e+02,-1.240507793426513672e+01,-1.240507793426513672e+01,4.053170680999755859e-01,1.628303375244140625e+02,-1.801146864891052246e-01,-1.315912818908691406e+01,4.128952980041503906e+00,4.672243960612831870e-07,6.918583512306213379e-01,1.318646788597106934e+00,4.019914740638341755e-06,5.493706092238426208e-02,-2.284930273890495300e-02,-5.429121494293212891e+00,1.000000000000000000e+00,-2.197331003844738007e-02,0.000000000000000000e+00
1.896134853363037109e+00,-2.956931457519531250e+02,-1.240507793426513672e+01,-1.240507793426513672e+01,4.053170680999755859e-01,1.628303375244140625e+02,-1.801146864891052246e-01,-1.315912818908691406e+01,4.128952980041503906e+00,4.672243960612831870e-07,6.918583512306213379e-01,1.318646788597106934e+00,4.019914740638341755e-06,5.493706092238426208e-02,-2.284930273890495300e-02,-5.429121494293212891e+00,1.000000000000000000e+00,-2.197331003844738007e-02,0.000000000000000000e+00
2.195794820785522461e+00,-2.990147705078125000e+02,-1.132235336303710938e+01,-1.132235336303710938e+01,5.098052620887756348e-01,1.612012481689453125e+02,-1.779784858226776123e-01,-1.159529113769531250e+01,4.005703926086425781e+00,-1.570472159073688090e-05,7.006778717041015625e+00,-2.618590891361236572e-01,1.881085918284952641e-04,7.042159140110015869e-02,5.789949744939804077e-02,-5.431715965270996094e+00,1.000000000000000000e+00,-2.191031351685523987e-02,0.000000000000000000e+00
2.195794820785522461e+00,-2.990147705078125000e+02,-1.132235336303710938e+01,-1.132235336303710938e+01,5.098052620887756348e-01,1.612012481689453125e+02,-1.779784858226776123e-01,-1.159529113769531250e+01,4.005703926086425781e+00,-1.570472159073688090e-05,7.006778717041015625e+00,-2.618590891361236572e-01,1.881085918284952641e-04,7.042159140110015869e-02,5.789949744939804077e-02,-5.431715965270996094e+00,1.000000000000000000e+00,-2.191031351685523987e-02,0.000000000000000000e+00
2.195794820785522461e+00,-2.990147705078125000e+02,-1.132235336303710938e+01,-1.132235336303710938e+01,5.098052620887756348e-01,1.612012481689453125e+02,-1.779784858226776123e-01,-1.159529113769531250e+01,4.005703926086425781e+00,-1.570472159073688090e-05,7.006778717041015625e+00,-2.618590891361236572e-01,1.881085918284952641e-04,7.042159140110015869e-02,5.789949744939804077e-02,-5.431715965270996094e+00,1.000000000000000000e+00,-2.191031351685523987e-02,0.000000000000000000e+00
2.195794820785522461e+00,-2.990147705078125000e+02,-1.132235336303710938e+01,-1.132235336303710938e+01,5.098052620887756348e-01,1.612012481689453125e+02,-1.779784858226776123e-01,-1.159529113769531250e+01,4.005703926086425781e+00,-1.570472159073688090e-05,7.006778717041015625e+00,-2.618590891361236572e-01,1.881085918284952641e-04,7.042159140110015869e-02,5.789949744939804077e-02,-5.431715965270996094e+00,1.000000000000000000e+00,-2.191031351685523987e-02,0.000000000000000000e+00
2.195794820785522461e+00,-2.990147705078125000e+02,-1.132235336303710938e+01,-1.132235336303710938e+01,5.098052620887756348e-01,1.612012481689453125e+02,-1.779784858226776123e-01,-1.159529113769531250e+01,4.005703926086425781e+00,-1.570472159073688090e-05,7.006778717041015625e+00,-2.618590891361236572e-01,1.881085918284952641e-04,7.042159140110015869e-02,5.789949744939804077e-02,-5.431715965270996094e+00,1.000000000000000000e+00,-2.191031351685523987e-02,0.000000000000000000e+00
2.195794820785522461e+00,-2.990147705078125000e+02,-1.132235336303710938e+01,-1.132235336303710938e+01,5.098052620887756348e-01,1.612012481689453125e+02,-1.779784858226776123e-01,-1.159529113769531250e+01,4.005703926086425781e+00,-1.570472159073688090e-05,7.006778717041015625e+00,-2.618590891361236572e-01,1.881085918284952641e-04,7.042159140110015869e-02,5.789949744939804077e-02,-5.431715965270996094e+00,1.000000000000000000e+00,-2.191031351685523987e-02,0.000000000000000000e+00
2.195794820785522461e+00,-2.990147705078125000e+02,-1.132235336303710938e+01,-1.132235336303710938e+01,5.098052620887756348e-01,1.612012481689453125e+02,-1.779784858226776123e-01,-1.159529113769531250e+01,4.005703926086425781e+00,-1.570472159073688090e-05,7.006778717041015625e+00,-2.618590891361236572e-01,1.881085918284952641e-04,7.042159140110015869e-02,5.789949744939804077e-02,-5.431715965270996094e+00,1.000000000000000000e+00,-2.191031351685523987e-02,0.000000000000000000e+00
2.195794820785522461e+00,-2.990147705078125000e+02,-1.132235336303710938e+01,-1.132235336303710938e+01,5.098052620887756348e-01,1.612012481689453125e+02,-1.779784858226776123e-01,-1.159529113769531250e+01,4.005703926086425781e+00,-1.570472159073688090e-05,7.006778717041015625e+00,-2.618590891361236572e-01,1.881085918284952641e-04,7.042159140110015869e-02,5.789949744939804077e-02,-5.431715965270996094e+00,1.000000000000000000e+00,-2.191031351685523987e-02,0.000000000000000000e+00
2.195794820785522461e+00,-2.990147705078125000e+02,-1.132235336303710938e+01,-1.132235336303710938e+01,5.098052620887756348e-01,1.612012481689453125e+02,-1.779784858226776123e-01,-1.159529113769531250e+01,4.005703926086425781e+00,-1.570472159073688090e-05,7.006778717041015625e+00,-2.618590891361236572e-01,1.881085918284952641e-04,7.042159140110015869e-02,5.789949744939804077e-02,-5.431715965270996094e+00,1.000000000000000000e+00,-2.191031351685523987e-02,0.000000000000000000e+00
2.195794820785522461e+00,-2.990147705078125000e+02,-1.132235336303710938e+01,-1.132235336303710938e+01,5.098052620887756348e-01,1.612012481689453125e+02,-1.779784858226776123e-01,-1.159529113769531250e+01,4.005703926086425781e+00,-1.570472159073688090e-05,7.006778717041015625e+00,-2.618590891361236572e-01,1.881085918284952641e-04,7.042159140110015869e-02,5.789949744939804077e-02,-5.431715965270996094e+00,1.000000000000000000e+00,-2.191031351685523987e-02,0.000000000000000000e+00
2.374083757400512695e+00,-2.996252136230468750e+02,-1.111143398284912109e+01,-1.111143398284912109e+01,5.091700553894042969e-01,1.609185028076171875e+02,-1.760863512754440308e-01,-1.143924999237060547e+01,4.024128437042236328e+00,-7.161143457778962329e-06,8.752149343490600586e-01,1.033407375216484070e-01,4.791984611074440181e-05,1.464378181844949722e-02,-6.825796514749526978e-02,-5.268412113189697266e+00,1.000000000000000000e+00,-2.297646738588809967e-02,0.000000000000000000e+00
2.374083757400512695e+00,-2.996252136230468750e+02,-1.111143398284912109e+01,-1.111143398284912109e+01,5.091700553894042969e-01,1.609185028076171875e+02,-1.760863512754440308e-01,-1.143924999237060547e+01,4.024128437042236328e+00,-7.161143457778962329e-06,8.752149343490600586e-01,1.033407375216484070e-01,4.791984611074440181e-05,1.464378181844949722e-02,-6.825796514749526978e-02,-5.268412113189697266e+00,1.000000000000000000e+00,-2.297646738588809967e-02,0.000000000000000000e+00
2.374083757400512695e+00,-2.996252136230468750e+02,-1.111143398284912109e+01,-1.111143398284912109e+01,5.091700553894042969e-01,1.609185028076171875e+02,-1.760863512754440308e-01,-1.143924999237060547e+01,4.024128437042236328e+00,-7.161143457778962329e-06,8.752149343490600586e-01,1.033407375216484070e-01,4.791984611074440181e-05,1.464378181844949722e-02,-6.825796514749526978e-02,-5.268412113189697266e+00,1.000000000000000000e+00,-2.297646738588809967e-02,0.000000000000000000e+00
2.447860002517700195e+00,-3.007590637207031250e+02,-1.071004390716552734e+01,-1.071004390716552734e+01,4.924702644348144531e-01,1.604306945800781250e+02,-1.669616401195526123e-01,-1.127161693572998047e+01,4.078733444213867188e+00,8.657919352117460221e-06,2.272181987762451172e+00,7.401434779167175293e-01,2.144194731954485178e-04,2.107637561857700348e-02,-2.458613663911819458e-01,-4.691851615905761719e+00,1.000000000000000000e+00,-2.106388658285140991e-02,0.000000000000000000e+00
2.447860002517700195e+00,-3.007590637207031250e+02,-1.071004390716552734e+01,-1.071004390716552734e+01,4.924702644348144531e-01,1.604306945800781250e+02,-1.669616401195526123e-01,-1.127161693572998047e+01,4.078733444213867188e+00,8.657919352117460221e-06,2.272181987762451172e+00,7.401434779167175293e-01,2.144194731954485178e-04,2.107637561857700348e-02,-2.458613663911819458e-01,-4.691851615905761719e+00,1.000000000000000000e+00,-2.106388658285140991e-02,0.000000000000000000e+00
2.500878810882568359e+00,-3.015889587402343750e+02,-1.040867996215820312e+01,-1.040867996215820312e+01,4.735574722290039062e-01,1.600775146484375000e+02,-1.619567424058914185e-01,-1.122917079925537109e+01,4.153476715087890625e+00,1.534235525468830019e-05,8.005864024162292480e-01,1.409750103950500488e+00,1.260766875930130482e-04,-3.183745965361595154e-02,-2.837921679019927979e-01,-4.820732593536376953e+00,1.000000000000000000e+00,-2.295466884970664978e-02,0.000000000000000000e+00
2.500878810882568359e+00,-3.015889587402343750e+02,-1.040867996215820312e+01,-1.040867996215820312e+01,4.735574722290039062e-01,1.600775146484375000e+02,-1.619567424058914185e-01,-1.122917079925537109e+01,4.153476715087890625e+00,1.534235525468830019e-05,8.005864024162292480e-01,1.409750103950500488e+00,1.260766875930130482e-04,-3.183745965361595154e-02,-2.837921679019927979e-01,-4.820732593536376953e+00,1.000000000000000000e+00,-2.295466884970664978e-02,0.000000000000000000e+00
2.560195446014404297e+00,-3.021848754882812500e+02,-1.018866062164306641e+01,-1.018866062164306641e+01,4.584969282150268555e-01,1.598322296142578125e+02,-1.562194973230361938e-01,-1.123634243011474609e+01,4.207140445709228516e+00,1.807926673791371286e-05,-1.209042072296142578e-01,9.046995043754577637e-01,4.614070712705142796e-05,1.193717867136001587e-02,-3.142901957035064697e-01,-4.540567874908447266e+00,1.000000000000000000e+00,-2.067042700946331024e-02,0.000000000000000000e+00
2.560195446014404297e+00,-3.021848754882812500e+02,-1.018866062164306641e+01,-1.018866062164306641e+01,4.584969282150268555e-01,1.598322296142578125e+02,-1.562194973230361938e-01,-1.123634243011474609e+01,4.207140445709228516e+00,1.807926673791371286e-05,-1.209042072296142578e-01,9.046995043754577637e-01,4.614070712705142796e-05,1.193717867136001587e-02,-3.142901957035064697e-01,-4.540567874908447266e+00,1.000000000000000000e+00,-2.067042700946331024e-02,0.000000000000000000e+00
2.560195446014404297e+00,-3.021848754882812500e+02,-1.018866062164306641e+01,-1.018866062164306641e+01,4.584969282150268555e-01,1.598322296142578125e+02,-1.562194973230361938e-01,-1.123634243011474609e+01,4.207140445709228516e+00,1.807926673791371286e-05,-1.209042072296142578e-01,9.046995043754577637e-01,4.614070712705142796e-05,1.193717867136001587e-02,-3.142901957035064697e-01,-4.540567874908447266e+00,1.000000000000000000e+00,-2.067042700946331024e-02,0.000000000000000000e+00
2.618730545043945312e+00,-3.028529663085937500e+02,-9.938764572143554688e+00,-9.938764572143554688e+00,4.407520890235900879e-01,1.595767669677734375e+02,-1.477050781250000000e-01,-1.127049922943115234e+01,4.271889209747314453e+00,2.108261105604469776e-05,-5.835267901420593262e-01,1.106152772903442383e+00,5.130843419465236366e-05,2.807024121284484863e-02,-3.251198828220367432e-01,-4.209980010986328125e+00,1.000000000000000000e+00,-1.920776441693305969e-02,0.000000000000000000e+00
2.618730545043945312e+00,-3.028529663085937500e+02,-9.938764572143554688e+00,-9.938764572143554688e+00,4.407520890235900879e-01,1.595767669677734375e+02,-1.477050781250000000e-01,-1.127049922943115234e+01,4.271889209747314453e+00,2.108261105604469776e-05,-5.835267901420593262e-01,1.106152772903442383e+00,5.130843419465236366e-05,2.807024121284484863e-02,-3.251198828220367432e-01,-4.209980010986328125e+00,1.000000000000000000e+00,-1.920776441693305969e-02,0.000000000000000000e+00
2.677334070205688477e+00,-3.035147705078125000e+02,-9.687493324279785156e+00,-9.687493324279785156e+00,4.241820573806762695e-01,1.593110504150390625e+02,-1.450195014476776123e-01,-1.131656551361083984e+01,4.362230300903320312e+00,1.855578557297121733e-05,-7.860667705535888672e-01,1.541564106941223145e+00,-4.311729571782052517e-05,-7.499200105667114258e-02,-2.668459117412567139e-01,-4.679065227508544922e+00,1.000000000000000000e+00,-2.350507490336894989e-02,0.000000000000000000e+00
2.677334070205688477e+00,-3.035147705078125000e+02,-9.687493324279785156e+00,-9.687493324279785156e+00,4.241820573806762695e-01,1.593110504150390625e+02,-1.450195014476776123e-01,-1.131656551361083984e+01,4.362230300903320312e+00,1.855578557297121733e-05,-7.860667705535888672e-01,1.541564106941223145e+00,-4.311729571782052517e-05,-7.499200105667114258e-02,-2.668459117412567139e-01,-4.679065227508544922e+00,1.000000000000000000e+00,-2.350507490336894989e-02,0.000000000000000000e+00
2.677334070205688477e+00,-3.035147705078125000e+02,-9.687493324279785156e+00,-9.687493324279785156e+00,4.241820573806762695e-01,1.593110504150390625e+02,-1.450195014476776123e-01,-1.131656551361083984e+01,4.362230300903320312e+00,1.855578557297121733e-05,-7.860667705535888672e-01,1.541564106941223145e+00,-4.311729571782052517e-05,-7.499200105667114258e-02,-2.668459117412567139e-01,-4.679065227508544922e+00,1.000000000000000000e+00,-2.350507490336894989e-02,0.000000000000000000e+00
2.677334070205688477e+00,-3.041807861328125000e+02,-9.430840492248535156e+00,-9.430840492248535156e+00,4.087868034839630127e-01,1.590361633300781250e+02,-1.425170749425888062e-01,-1.138215160369873047e+01,4.449635028839111328e+00,1.772620817064307630e-05,-8.441933393478393555e-01,1.125032663345336914e+00,-1.067793073161737993e-05,-4.716399684548377991e-02,-2.539418935775756836e-01,-4.698164939880371094e+00,1.000000000000000000e+00,-2.232840470969676971e-02,0.000000000000000000e+00
2.755024909973144531e+00,-3.041807861328125000e+02,-9.430840492248535156e+00,-9.430840492248535156e+00,4.087868034839630127e-01,1.590361633300781250e+02,-1.425170749425888062e-01,-1.138215160369873047e+01,4.449635028839111328e+00,1.772620817064307630e-05,-8.441933393478393555e-01,1.125032663345336914e+00,-1.067793073161737993e-05,-4.716399684548377991e-02,-2.539418935775756836e-01,-4.698164939880371094e+00,1.000000000000000000e+00,-2.232840470969676971e-02,0.000000000000000000e+00
2.755024909973144531e+00,-3.041807861328125000e+02,-9.430840492248535156e+00,-9.430840492248535156e+00,4.087868034839630127e-01,1.590361633300781250e+02,-1.425170749425888062e-01,-1.138215160369873047e+01,4.449635028839111328e+00,1.772620817064307630e-05,-8.441933393478393555e-01,1.125032663345336914e+00,-1.067793073161737993e-05,-4.716399684548377991e-02,-2.539418935775756836e-01,-4.698164939880371094e+00,1.000000000000000000e+00,-2.232840470969676971e-02,0.000000000000000000e+00
2.755024909973144531e+00,-3.041807861328125000e+02,-9.430840492248535156e+00,-9.430840492248535156e+00,4.087868034839630127e-01,1.590361633300781250e+02,-1.425170749425888062e-01,-1.138215160369873047e+01,4.449635028839111328e+00,1.772620817064307630e-05,-8.441933393478393555e-01,1.125032663345336914e+00,-1.067793073161737993e-05,-4.716399684548377991e-02,-2.539418935775756836e-01,-4.698164939880371094e+00,1.000000000000000000e+00,-2.232840470969676971e-02,0.000000000000000000e+00
2.830169916152954102e+00,-3.050702209472656250e+02,-9.081580162048339844e+00,-9.081580162048339844e+00,3.904818892478942871e-01,1.586339416503906250e+02,-1.450805664062500000e-01,-1.147853469848632812e+01,4.593833446502685547e+00,1.373077611788176000e-05,-1.282628059387207031e+00,1.918935418128967285e+00,-5.316962779033929110e-05,-1.196359619498252869e-01,-1.895275413990020752e-01,-5.385780334472656250e+00,1.000000000000000000e+00,-2.645154669880867004e-02,0.000000000000000000e+00
2.830169916152954102e+00,-3.050702209472656250e+02,-9.081580162048339844e+00,-9.081580162048339844e+00,3.904818892478942871e-01,1.586339416503906250e+02,-1.450805664062500000e-01,-1.147853469848632812e+01,4.593833446502685547e+00,1.373077611788176000e-05,-1.282628059387207031e+00,1.918935418128967285e+00,-5.316962779033929110e-05,-1.196359619498252869e-01,-1.895275413990020752e-01,-5.385780334472656250e+00,1.000000000000000000e+00,-2.645154669880867004e-02,0.000000000000000000e+00
2.830169916152954102e+00,-3.050702209472656250e+02,-9.081580162048339844e+00,-9.081580162048339844e+00,3.904818892478942871e-01,1.586339416503906250e+02,-1.450805664062500000e-01,-1.147853469848632812e+01,4.593833446502685547e+00,1.373077611788176000e-05,-1.282628059387207031e+00,1.918935418128967285e+00,-5.316962779033929110e-05,-1.196359619498252869e-01,-1.895275413990020752e-01,-5.385780334472656250e+00,1.000000000000000000e+00,-2.645154669880867004e-02,0.000000000000000000e+00
2.830169916152954102e+00,-3.050702209472656250e+02,-9.081580162048339844e+00,-9.081580162048339844e+00,3.904818892478942871e-01,1.586339416503906250e+02,-1.450805664062500000e-01,-1.147853469848632812e+01,4.593833446502685547e+00,1.373077611788176000e-05,-1.282628059387207031e+00,1.918935418128967285e+00,-5.316962779033929110e-05,-1.196359619498252869e-01,-1.895275413990020752e-01,-5.385780334472656250e+00,1.000000000000000000e+00,-2.645154669880867004e-02,0.000000000000000000e+00
2.830169916152954102e+00,-3.050702209472656250e+02,-9.081580162048339844e+00,-9.081580162048339844e+00,3.904818892478942871e-01,1.586339416503906250e+02,-1.450805664062500000e-01,-1.147853469848632812e+01,4.593833446502685547e+00,1.373077611788176000e-05,-1.282628059387207031e+00,1.918935418128967285e+00,-5.316962779033929110e-05,-1.196359619498252869e-01,-1.895275413990020752e-01,-5.385780334472656250e+00,1.000000000000000000e+00,-2.645154669880867004e-02,0.000000000000000000e+00
