# Time,X,Y,Z,Roll,Pitch,Yaw,Vx,Vy,Vz,Ax,Ay,Az,Wx,Wy,Wz,Throttle,Steer,Brake
0.000000000000000000e+00,-3.668630371093750000e+02,7.684552001953125000e+01,7.684552001953125000e+01,4.549588635563850403e-02,9.116451263427734375e+01,5.417159199714660645e-02,-2.080715447664260864e-01,1.028126716613769531e+01,-4.481635642150649801e-06,-4.678723402321338654e-03,-2.954533090814948082e-03,3.391567588550969958e-05,5.188463837839663029e-04,1.508006155490875244e-01,-9.077342227101325989e-03,1.000000000000000000e+00,-1.091003432520665228e-04,0.000000000000000000e+00
1.045818328857421875e-01,-3.668630371093750000e+02,7.684552001953125000e+01,7.684552001953125000e+01,4.549588635563850403e-02,9.116451263427734375e+01,5.417159199714660645e-02,-2.080715447664260864e-01,1.028126716613769531e+01,-4.481635642150649801e-06,-4.678723402321338654e-03,-2.954533090814948082e-03,3.391567588550969958e-05,5.188463837839663029e-04,1.508006155490875244e-01,-9.077342227101325989e-03,1.000000000000000000e+00,-1.091003432520665228e-04,0.000000000000000000e+00
1.045818328857421875e-01,-3.668630371093750000e+02,7.684552001953125000e+01,7.684552001953125000e+01,4.549588635563850403e-02,9.116451263427734375e+01,5.417159199714660645e-02,-2.080715447664260864e-01,1.028126716613769531e+01,-4.481635642150649801e-06,-4.678723402321338654e-03,-2.954533090814948082e-03,3.391567588550969958e-05,5.188463837839663029e-04,1.508006155490875244e-01,-9.077342227101325989e-03,1.000000000000000000e+00,-1.091003432520665228e-04,0.000000000000000000e+00
1.045818328857421875e-01,-3.668630371093750000e+02,7.684552001953125000e+01,7.684552001953125000e+01,4.549588635563850403e-02,9.116451263427734375e+01,5.417159199714660645e-02,-2.080715447664260864e-01,1.028126716613769531e+01,-4.481635642150649801e-06,-4.678723402321338654e-03,-2.954533090814948082e-03,3.391567588550969958e-05,5.188463837839663029e-04,1.508006155490875244e-01,-9.077342227101325989e-03,1.000000000000000000e+00,-1.091003432520665228e-04,0.000000000000000000e+00
1.045818328857421875e-01,-3.668630371093750000e+02,7.684552001953125000e+01,7.684552001953125000e+01,4.549588635563850403e-02,9.116451263427734375e+01,5.417159199714660645e-02,-2.080715447664260864e-01,1.028126716613769531e+01,-4.481635642150649801e-06,-4.678723402321338654e-03,-2.954533090814948082e-03,3.391567588550969958e-05,5.188463837839663029e-04,1.508006155490875244e-01,-9.077342227101325989e-03,1.000000000000000000e+00,-1.091003432520665228e-04,0.000000000000000000e+00
1.045818328857421875e-01,-3.668630371093750000e+02,7.684552001953125000e+01,7.684552001953125000e+01,4.549588635563850403e-02,9.116451263427734375e+01,5.417159199714660645e-02,-2.080715447664260864e-01,1.028126716613769531e+01,-4.481635642150649801e-06,-4.678723402321338654e-03,-2.954533090814948082e-03,3.391567588550969958e-05,5.188463837839663029e-04,1.508006155490875244e-01,-9.077342227101325989e-03,1.000000000000000000e+00,-1.091003432520665228e-04,0.000000000000000000e+00
1.045818328857421875e-01,-3.668839721679687500e+02,7.787368011474609375e+01,7.787368011474609375e+01,4.556418955326080322e-02,9.116637420654296875e+01,3.739755973219871521e-02,-2.083497047424316406e-01,1.028155040740966797e+01,-1.792608941286744084e-06,-2.656507072970271111e-03,2.705035032704472542e-03,2.568097079347353429e-05,-5.195117089897394180e-03,1.720800250768661499e-01,2.710382267832756042e-02,1.000000000000000000e+00,1.164754212368279696e-04,0.000000000000000000e+00
2.092907428741455078e-01,-3.668839721679687500e+02,7.787368011474609375e+01,7.787368011474609375e+01,4.556418955326080322e-02,9.116637420654296875e+01,3.739755973219871521e-02,-2.083497047424316406e-01,1.028155040740966797e+01,-1.792608941286744084e-06,-2.656507072970271111e-03,2.705035032704472542e-03,2.568097079347353429e-05,-5.195117089897394180e-03,1.720800250768661499e-01,2.710382267832756042e-02,1.000000000000000000e+00,1.164754212368279696e-04,0.000000000000000000e+00
2.092907428741455078e-01,-3.668839721679687500e+02,7.787368011474609375e+01,7.787368011474609375e+01,4.556418955326080322e-02,9.116637420654296875e+01,3.739755973219871521e-02,-2.083497047424316406e-01,1.028155040740966797e+01,-1.792608941286744084e-06,-2.656507072970271111e-03,2.705035032704472542e-03,2.568097079347353429e-05,-5.195117089897394180e-03,1.720800250768661499e-01,2.710382267832756042e-02,1.000000000000000000e+00,1.164754212368279696e-04,0.000000000000000000e+00
2.092907428741455078e-01,-3.668839721679687500e+02,7.787368011474609375e+01,7.787368011474609375e+01,4.556418955326080322e-02,9.116637420654296875e+01,3.739755973219871521e-02,-2.083497047424316406e-01,1.028155040740966797e+01,-1.792608941286744084e-06,-2.656507072970271111e-03,2.705035032704472542e-03,2.568097079347353429e-05,-5.195117089897394180e-03,1.720800250768661499e-01,2.710382267832756042e-02,1.000000000000000000e+00,1.164754212368279696e-04,0.000000000000000000e+00
2.092907428741455078e-01,-3.668839721679687500e+02,7.787368011474609375e+01,7.787368011474609375e+01,4.556418955326080322e-02,9.116637420654296875e+01,3.739755973219871521e-02,-2.083497047424316406e-01,1.028155040740966797e+01,-1.792608941286744084e-06,-2.656507072970271111e-03,2.705035032704472542e-03,2.568097079347353429e-05,-5.195117089897394180e-03,1.720800250768661499e-01,2.710382267832756042e-02,1.000000000000000000e+00,1.164754212368279696e-04,0.000000000000000000e+00
2.092907428741455078e-01,-3.669049377441406250e+02,7.890187072753906250e+01,7.890187072753906250e+01,4.535928368568420410e-02,9.116943359375000000e+01,2.145805768668651581e-02,-2.088373154401779175e-01,1.028180122375488281e+01,-1.144218458648538217e-06,-6.534709129482507706e-03,3.361312206834554672e-03,8.689397873240523040e-06,-5.059469025582075119e-03,1.448882222175598145e-01,3.234393894672393799e-02,1.000000000000000000e+00,1.124064147006720304e-04,0.000000000000000000e+00
2.839093208312988281e-01,-3.669049377441406250e+02,7.890187072753906250e+01,7.890187072753906250e+01,4.535928368568420410e-02,9.116943359375000000e+01,2.145805768668651581e-02,-2.088373154401779175e-01,1.028180122375488281e+01,-1.144218458648538217e-06,-6.534709129482507706e-03,3.361312206834554672e-03,8.689397873240523040e-06,-5.059469025582075119e-03,1.448882222175598145e-01,3.234393894672393799e-02,1.000000000000000000e+00,1.124064147006720304e-04,0.000000000000000000e+00
2.839093208312988281e-01,-3.669049377441406250e+02,7.890187072753906250e+01,7.890187072753906250e+01,4.535928368568420410e-02,9.116943359375000000e+01,2.145805768668651581e-02,-2.088373154401779175e-01,1.028180122375488281e+01,-1.144218458648538217e-06,-6.534709129482507706e-03,3.361312206834554672e-03,8.689397873240523040e-06,-5.059469025582075119e-03,1.448882222175598145e-01,3.234393894672393799e-02,1.000000000000000000e+00,1.124064147006720304e-04,0.000000000000000000e+00
2.839093208312988281e-01,-3.669049377441406250e+02,7.890187072753906250e+01,7.890187072753906250e+01,4.535928368568420410e-02,9.116943359375000000e+01,2.145805768668651581e-02,-2.088373154401779175e-01,1.028180122375488281e+01,-1.144218458648538217e-06,-6.534709129482507706e-03,3.361312206834554672e-03,8.689397873240523040e-06,-5.059469025582075119e-03,1.448882222175598145e-01,3.234393894672393799e-02,1.000000000000000000e+00,1.124064147006720304e-04,0.000000000000000000e+00
2.839093208312988281e-01,-3.669049377441406250e+02,7.890187072753906250e+01,7.890187072753906250e+01,4.535928368568420410e-02,9.116943359375000000e+01,2.145805768668651581e-02,-2.088373154401779175e-01,1.028180122375488281e+01,-1.144218458648538217e-06,-6.534709129482507706e-03,3.361312206834554672e-03,8.689397873240523040e-06,-5.059469025582075119e-03,1.448882222175598145e-01,3.234393894672393799e-02,1.000000000000000000e+00,1.124064147006720304e-04,0.000000000000000000e+00
3.569011688232421875e-01,-3.669206542968750000e+02,7.966908264160156250e+01,7.966908264160156250e+01,4.542075470089912415e-02,9.117175292968750000e+01,1.232573017477989197e-02,-2.093695998191833496e-01,1.028162288665771484e+01,-1.201450231747003272e-06,-7.292381022125482559e-03,-2.443246776238083839e-03,-7.840844773454591632e-07,5.739082116633653641e-04,1.073611527681350708e-01,3.133828938007354736e-02,1.000000000000000000e+00,9.714762563817203045e-05,0.000000000000000000e+00
3.569011688232421875e-01,-3.669206542968750000e+02,7.966908264160156250e+01,7.966908264160156250e+01,4.542075470089912415e-02,9.117175292968750000e+01,1.232573017477989197e-02,-2.093695998191833496e-01,1.028162288665771484e+01,-1.201450231747003272e-06,-7.292381022125482559e-03,-2.443246776238083839e-03,-7.840844773454591632e-07,5.739082116633653641e-04,1.073611527681350708e-01,3.133828938007354736e-02,1.000000000000000000e+00,9.714762563817203045e-05,0.000000000000000000e+00
3.569011688232421875e-01,-3.669206542968750000e+02,7.966908264160156250e+01,7.966908264160156250e+01,4.542075470089912415e-02,9.117175292968750000e+01,1.232573017477989197e-02,-2.093695998191833496e-01,1.028162288665771484e+01,-1.201450231747003272e-06,-7.292381022125482559e-03,-2.443246776238083839e-03,-7.840844773454591632e-07,5.739082116633653641e-04,1.073611527681350708e-01,3.133828938007354736e-02,1.000000000000000000e+00,9.714762563817203045e-05,0.000000000000000000e+00
3.569011688232421875e-01,-3.669206542968750000e+02,7.966908264160156250e+01,7.966908264160156250e+01,4.542075470089912415e-02,9.117175292968750000e+01,1.232573017477989197e-02,-2.093695998191833496e-01,1.028162288665771484e+01,-1.201450231747003272e-06,-7.292381022125482559e-03,-2.443246776238083839e-03,-7.840844773454591632e-07,5.739082116633653641e-04,1.073611527681350708e-01,3.133828938007354736e-02,1.000000000000000000e+00,9.714762563817203045e-05,0.000000000000000000e+00
4.765405654907226562e-01,-3.669359436035156250e+02,8.041954040527343750e+01,8.041954040527343750e+01,4.572128504514694214e-02,9.117358398437500000e+01,6.078232545405626297e-03,-2.098909318447113037e-01,1.028137683868408203e+01,-9.344643672193342354e-07,-4.357527941465377808e-03,-2.056579804047942162e-03,2.231588268841733225e-06,3.337766975164413452e-03,7.154978066682815552e-02,2.257739193737506866e-02,1.000000000000000000e+00,5.493163916980847716e-05,0.000000000000000000e+00
4.765405654907226562e-01,-3.669359436035156250e+02,8.041954040527343750e+01,8.041954040527343750e+01,4.572128504514694214e-02,9.117358398437500000e+01,6.078232545405626297e-03,-2.098909318447113037e-01,1.028137683868408203e+01,-9.344643672193342354e-07,-4.357527941465377808e-03,-2.056579804047942162e-03,2.231588268841733225e-06,3.337766975164413452e-03,7.154978066682815552e-02,2.257739193737506866e-02,1.000000000000000000e+00,5.493163916980847716e-05,0.000000000000000000e+00
4.765405654907226562e-01,-3.669359436035156250e+02,8.041954040527343750e+01,8.041954040527343750e+01,4.572128504514694214e-02,9.117358398437500000e+01,6.078232545405626297e-03,-2.098909318447113037e-01,1.028137683868408203e+01,-9.344643672193342354e-07,-4.357527941465377808e-03,-2.056579804047942162e-03,2.231588268841733225e-06,3.337766975164413452e-03,7.154978066682815552e-02,2.257739193737506866e-02,1.000000000000000000e+00,5.493163916980847716e-05,0.000000000000000000e+00
4.765405654907226562e-01,-3.669359436035156250e+02,8.041954040527343750e+01,8.041954040527343750e+01,4.572128504514694214e-02,9.117358398437500000e+01,6.078232545405626297e-03,-2.098909318447113037e-01,1.028137683868408203e+01,-9.344643672193342354e-07,-4.357527941465377808e-03,-2.056579804047942162e-03,2.231588268841733225e-06,3.337766975164413452e-03,7.154978066682815552e-02,2.257739193737506866e-02,1.000000000000000000e+00,5.493163916980847716e-05,0.000000000000000000e+00
4.765405654907226562e-01,-3.669359436035156250e+02,8.041954040527343750e+01,8.041954040527343750e+01,4.572128504514694214e-02,9.117358398437500000e+01,6.078232545405626297e-03,-2.098909318447113037e-01,1.028137683868408203e+01,-9.344643672193342354e-07,-4.357527941465377808e-03,-2.056579804047942162e-03,2.231588268841733225e-06,3.337766975164413452e-03,7.154978066682815552e-02,2.257739193737506866e-02,1.000000000000000000e+00,5.493163916980847716e-05,0.000000000000000000e+00
4.765405654907226562e-01,-3.669359436035156250e+02,8.041954040527343750e+01,8.041954040527343750e+01,4.572128504514694214e-02,9.117358398437500000e+01,6.078232545405626297e-03,-2.098909318447113037e-01,1.028137683868408203e+01,-9.344643672193342354e-07,-4.357527941465377808e-03,-2.056579804047942162e-03,2.231588268841733225e-06,3.337766975164413452e-03,7.154978066682815552e-02,2.257739193737506866e-02,1.000000000000000000e+00,5.493163916980847716e-05,0.000000000000000000e+00
4.765405654907226562e-01,-3.669359436035156250e+02,8.041954040527343750e+01,8.041954040527343750e+01,4.572128504514694214e-02,9.117358398437500000e+01,6.078232545405626297e-03,-2.098909318447113037e-01,1.028137683868408203e+01,-9.344643672193342354e-07,-4.357527941465377808e-03,-2.056579804047942162e-03,2.231588268841733225e-06,3.337766975164413452e-03,7.154978066682815552e-02,2.257739193737506866e-02,1.000000000000000000e+00,5.493163916980847716e-05,0.000000000000000000e+00
6.200885772705078125e-01,-3.669570617675781250e+02,8.144771575927734375e+01,8.144771575927734375e+01,4.581690579652786255e-02,9.117666625976562500e+01,1.519782468676567078e-03,-2.106703519821166992e-01,1.028162097930908203e+01,-5.339686026673007291e-07,-5.429682787507772446e-03,1.700759399682283401e-03,2.789977770589757711e-06,-2.242623129859566689e-03,2.803815528750419617e-02,3.373863920569419861e-02,1.000000000000000000e+00,1.106262207031250000e-04,0.000000000000000000e+00
6.200885772705078125e-01,-3.669570617675781250e+02,8.144771575927734375e+01,8.144771575927734375e+01,4.581690579652786255e-02,9.117666625976562500e+01,1.519782468676567078e-03,-2.106703519821166992e-01,1.028162097930908203e+01,-5.339686026673007291e-07,-5.429682787507772446e-03,1.700759399682283401e-03,2.789977770589757711e-06,-2.242623129859566689e-03,2.803815528750419617e-02,3.373863920569419861e-02,1.000000000000000000e+00,1.106262207031250000e-04,0.000000000000000000e+00
6.200885772705078125e-01,-3.669570617675781250e+02,8.144771575927734375e+01,8.144771575927734375e+01,4.581690579652786255e-02,9.117666625976562500e+01,1.519782468676567078e-03,-2.106703519821166992e-01,1.028162097930908203e+01,-5.339686026673007291e-07,-5.429682787507772446e-03,1.700759399682283401e-03,2.789977770589757711e-06,-2.242623129859566689e-03,2.803815528750419617e-02,3.373863920569419861e-02,1.000000000000000000e+00,1.106262207031250000e-04,0.000000000000000000e+00
6.200885772705078125e-01,-3.669570617675781250e+02,8.144771575927734375e+01,8.144771575927734375e+01,4.581690579652786255e-02,9.117666625976562500e+01,1.519782468676567078e-03,-2.106703519821166992e-01,1.028162097930908203e+01,-5.339686026673007291e-07,-5.429682787507772446e-03,1.700759399682283401e-03,2.789977770589757711e-06,-2.242623129859566689e-03,2.803815528750419617e-02,3.373863920569419861e-02,1.000000000000000000e+00,1.106262207031250000e-04,0.000000000000000000e+00
6.200885772705078125e-01,-3.669570617675781250e+02,8.144771575927734375e+01,8.144771575927734375e+01,4.581690579652786255e-02,9.117666625976562500e+01,1.519782468676567078e-03,-2.106703519821166992e-01,1.028162097930908203e+01,-5.339686026673007291e-07,-5.429682787507772446e-03,1.700759399682283401e-03,2.789977770589757711e-06,-2.242623129859566689e-03,2.803815528750419617e-02,3.373863920569419861e-02,1.000000000000000000e+00,1.106262207031250000e-04,0.000000000000000000e+00
6.200885772705078125e-01,-3.669570617675781250e+02,8.144771575927734375e+01,8.144771575927734375e+01,4.581690579652786255e-02,9.117666625976562500e+01,1.519782468676567078e-03,-2.106703519821166992e-01,1.028162097930908203e+01,-5.339686026673007291e-07,-5.429682787507772446e-03,1.700759399682283401e-03,2.789977770589757711e-06,-2.242623129859566689e-03,2.803815528750419617e-02,3.373863920569419861e-02,1.000000000000000000e+00,1.106262207031250000e-04,0.000000000000000000e+00
7.946169376373291016e-01,-3.669781494140625000e+02,8.247590637207031250e+01,8.247590637207031250e+01,4.559151083230972290e-02,9.117594909667968750e+01,-9.155056613963097334e-05,-2.109421938657760620e-01,1.028184318542480469e+01,-2.669843013336503645e-07,-1.557579962536692619e-03,1.273180590942502022e-03,1.529747351014520973e-06,-2.754357643425464630e-03,1.060662325471639633e-02,-2.093498222529888153e-02,1.000000000000000000e+00,-1.152038603322580457e-04,0.000000000000000000e+00
7.946169376373291016e-01,-3.669781494140625000e+02,8.247590637207031250e+01,8.247590637207031250e+01,4.559151083230972290e-02,9.117594909667968750e+01,-9.155056613963097334e-05,-2.109421938657760620e-01,1.028184318542480469e+01,-2.669843013336503645e-07,-1.557579962536692619e-03,1.273180590942502022e-03,1.529747351014520973e-06,-2.754357643425464630e-03,1.060662325471639633e-02,-2.093498222529888153e-02,1.000000000000000000e+00,-1.152038603322580457e-04,0.000000000000000000e+00
7.946169376373291016e-01,-3.669781494140625000e+02,8.247590637207031250e+01,8.247590637207031250e+01,4.559151083230972290e-02,9.117594909667968750e+01,-9.155056613963097334e-05,-2.109421938657760620e-01,1.028184318542480469e+01,-2.669843013336503645e-07,-1.557579962536692619e-03,1.273180590942502022e-03,1.529747351014520973e-06,-2.754357643425464630e-03,1.060662325471639633e-02,-2.093498222529888153e-02,1.000000000000000000e+00,-1.152038603322580457e-04,0.000000000000000000e+00
8.783230781555175781e-01,-3.669992370605468750e+02,8.350411224365234375e+01,8.350411224365234375e+01,4.540709406137466431e-02,9.117299652099609375e+01,-1.251222332939505577e-03,-2.106574922800064087e-01,1.028201389312744141e+01,-1.087007490241376217e-06,3.401203081011772156e-03,2.039368962869048119e-03,-9.796452104637864977e-06,-1.655119820497930050e-03,1.371899154037237167e-02,-3.324742987751960754e-02,1.000000000000000000e+00,-1.256307004950940609e-04,0.000000000000000000e+00
8.783230781555175781e-01,-3.669992370605468750e+02,8.350411224365234375e+01,8.350411224365234375e+01,4.540709406137466431e-02,9.117299652099609375e+01,-1.251222332939505577e-03,-2.106574922800064087e-01,1.028201389312744141e+01,-1.087007490241376217e-06,3.401203081011772156e-03,2.039368962869048119e-03,-9.796452104637864977e-06,-1.655119820497930050e-03,1.371899154037237167e-02,-3.324742987751960754e-02,1.000000000000000000e+00,-1.256307004950940609e-04,0.000000000000000000e+00
8.783230781555175781e-01,-3.669992370605468750e+02,8.350411224365234375e+01,8.350411224365234375e+01,4.540709406137466431e-02,9.117299652099609375e+01,-1.251222332939505577e-03,-2.106574922800064087e-01,1.028201389312744141e+01,-1.087007490241376217e-06,3.401203081011772156e-03,2.039368962869048119e-03,-9.796452104637864977e-06,-1.655119820497930050e-03,1.371899154037237167e-02,-3.324742987751960754e-02,1.000000000000000000e+00,-1.256307004950940609e-04,0.000000000000000000e+00
9.483780860900878906e-01,-3.670168151855468750e+02,8.436476135253906250e+01,8.436476135253906250e+01,4.568030312657356262e-02,9.117078399658203125e+01,-2.563479356467723846e-03,-2.102573961019515991e-01,1.028156566619873047e+01,-5.816601742480997927e-07,5.711171776056289673e-03,-6.398214027285575867e-03,7.213578555820276961e-06,5.885042250156402588e-03,1.727790758013725281e-02,-2.396292053163051605e-02,1.000000000000000000e+00,-7.197062222985550761e-05,0.000000000000000000e+00
9.483780860900878906e-01,-3.670168151855468750e+02,8.436476135253906250e+01,8.436476135253906250e+01,4.568030312657356262e-02,9.117078399658203125e+01,-2.563479356467723846e-03,-2.102573961019515991e-01,1.028156566619873047e+01,-5.816601742480997927e-07,5.711171776056289673e-03,-6.398214027285575867e-03,7.213578555820276961e-06,5.885042250156402588e-03,1.727790758013725281e-02,-2.396292053163051605e-02,1.000000000000000000e+00,-7.197062222985550761e-05,0.000000000000000000e+00
9.483780860900878906e-01,-3.670168151855468750e+02,8.436476135253906250e+01,8.436476135253906250e+01,4.568030312657356262e-02,9.117078399658203125e+01,-2.563479356467723846e-03,-2.102573961019515991e-01,1.028156566619873047e+01,-5.816601742480997927e-07,5.711171776056289673e-03,-6.398214027285575867e-03,7.213578555820276961e-06,5.885042250156402588e-03,1.727790758013725281e-02,-2.396292053163051605e-02,1.000000000000000000e+00,-7.197062222985550761e-05,0.000000000000000000e+00
9.483780860900878906e-01,-3.670168151855468750e+02,8.436476135253906250e+01,8.436476135253906250e+01,4.568030312657356262e-02,9.117078399658203125e+01,-2.563479356467723846e-03,-2.102573961019515991e-01,1.028156566619873047e+01,-5.816601742480997927e-07,5.711171776056289673e-03,-6.398214027285575867e-03,7.213578555820276961e-06,5.885042250156402588e-03,1.727790758013725281e-02,-2.396292053163051605e-02,1.000000000000000000e+00,-7.197062222985550761e-05,0.000000000000000000e+00
9.483780860900878906e-01,-3.670314636230468750e+02,8.508502960205078125e+01,8.508502960205078125e+01,4.616524651646614075e-02,9.117031860351562500e+01,-3.601073287427425385e-03,-2.100766003131866455e-01,1.028122615814208984e+01,9.535406242378030583e-09,2.294391626492142677e-03,-4.308531992137432098e-03,7.502576409024186432e-06,6.559276487678289413e-03,1.297597866505384445e-02,7.372551772277802229e-05,1.000000000000000000e+00,3.331502375658601522e-05,0.000000000000000000e+00
1.027177095413208008e+00,-3.670314636230468750e+02,8.508502960205078125e+01,8.508502960205078125e+01,4.616524651646614075e-02,9.117031860351562500e+01,-3.601073287427425385e-03,-2.100766003131866455e-01,1.028122615814208984e+01,9.535406242378030583e-09,2.294391626492142677e-03,-4.308531992137432098e-03,7.502576409024186432e-06,6.559276487678289413e-03,1.297597866505384445e-02,7.372551772277802229e-05,1.000000000000000000e+00,3.331502375658601522e-05,0.000000000000000000e+00
1.027177095413208008e+00,-3.670314636230468750e+02,8.508502960205078125e+01,8.508502960205078125e+01,4.616524651646614075e-02,9.117031860351562500e+01,-3.601073287427425385e-03,-2.100766003131866455e-01,1.028122615814208984e+01,9.535406242378030583e-09,2.294391626492142677e-03,-4.308531992137432098e-03,7.502576409024186432e-06,6.559276487678289413e-03,1.297597866505384445e-02,7.372551772277802229e-05,1.000000000000000000e+00,3.331502375658601522e-05,0.000000000000000000e+00
1.095043420791625977e+00,-3.670480651855468750e+02,8.589518737792968750e+01,8.589518737792968750e+01,4.642479494214057922e-02,9.117144012451171875e+01,-4.058837424963712692e-03,-2.101471424102783203e-01,1.028125572204589844e+01,-9.535240508284914540e-08,-1.039427123032510281e-03,4.356196150183677673e-04,-1.545505938338465057e-06,8.047442534007132053e-04,2.304173540323972702e-04,1.945037581026554108e-02,1.000000000000000000e+00,8.799235365586355329e-05,0.000000000000000000e+00
1.095043420791625977e+00,-3.670480651855468750e+02,8.589518737792968750e+01,8.589518737792968750e+01,4.642479494214057922e-02,9.117144012451171875e+01,-4.058837424963712692e-03,-2.101471424102783203e-01,1.028125572204589844e+01,-9.535240508284914540e-08,-1.039427123032510281e-03,4.356196150183677673e-04,-1.545505938338465057e-06,8.047442534007132053e-04,2.304173540323972702e-04,1.945037581026554108e-02,1.000000000000000000e+00,8.799235365586355329e-05,0.000000000000000000e+00
1.095043420791625977e+00,-3.670480651855468750e+02,8.589518737792968750e+01,8.589518737792968750e+01,4.642479494214057922e-02,9.117144012451171875e+01,-4.058837424963712692e-03,-2.101471424102783203e-01,1.028125572204589844e+01,-9.535240508284914540e-08,-1.039427123032510281e-03,4.356196150183677673e-04,-1.545505938338465057e-06,8.047442534007132053e-04,2.304173540323972702e-04,1.945037581026554108e-02,1.000000000000000000e+00,8.799235365586355329e-05,0.000000000000000000e+00
1.095043420791625977e+00,-3.670480651855468750e+02,8.589518737792968750e+01,8.589518737792968750e+01,4.642479494214057922e-02,9.117144012451171875e+01,-4.058837424963712692e-03,-2.101471424102783203e-01,1.028125572204589844e+01,-9.535240508284914540e-08,-1.039427123032510281e-03,4.356196150183677673e-04,-1.545505938338465057e-06,8.047442534007132053e-04,2.304173540323972702e-04,1.945037581026554108e-02,1.000000000000000000e+00,8.799235365586355329e-05,0.000000000000000000e+00
1.168572425842285156e+00,-3.670623474121093750e+02,8.659294128417968750e+01,8.659294128417968750e+01,4.654773697257041931e-02,9.117265319824218750e+01,-3.601073287427425385e-03,-2.103405296802520752e-01,1.028096675872802734e+01,-3.337407008530135499e-07,-2.630081260576844215e-03,-3.929922822862863541e-03,-3.242098728151177056e-06,3.199846018105745316e-03,-1.133512426167726517e-02,1.765070483088493347e-02,1.000000000000000000e+00,5.722045898437500000e-05,0.000000000000000000e+00
1.168572425842285156e+00,-3.670623474121093750e+02,8.659294128417968750e+01,8.659294128417968750e+01,4.654773697257041931e-02,9.117265319824218750e+01,-3.601073287427425385e-03,-2.103405296802520752e-01,1.028096675872802734e+01,-3.337407008530135499e-07,-2.630081260576844215e-03,-3.929922822862863541e-03,-3.242098728151177056e-06,3.199846018105745316e-03,-1.133512426167726517e-02,1.765070483088493347e-02,1.000000000000000000e+00,5.722045898437500000e-05,0.000000000000000000e+00
1.168572425842285156e+00,-3.670623474121093750e+02,8.659294128417968750e+01,8.659294128417968750e+01,4.654773697257041931e-02,9.117265319824218750e+01,-3.601073287427425385e-03,-2.103405296802520752e-01,1.028096675872802734e+01,-3.337407008530135499e-07,-2.630081260576844215e-03,-3.929922822862863541e-03,-3.242098728151177056e-06,3.199846018105745316e-03,-1.133512426167726517e-02,1.765070483088493347e-02,1.000000000000000000e+00,5.722045898437500000e-05,0.000000000000000000e+00
1.168572425842285156e+00,-3.670623474121093750e+02,8.659294128417968750e+01,8.659294128417968750e+01,4.654773697257041931e-02,9.117265319824218750e+01,-3.601073287427425385e-03,-2.103405296802520752e-01,1.028096675872802734e+01,-3.337407008530135499e-07,-2.630081260576844215e-03,-3.929922822862863541e-03,-3.242098728151177056e-06,3.199846018105745316e-03,-1.133512426167726517e-02,1.765070483088493347e-02,1.000000000000000000e+00,5.722045898437500000e-05,0.000000000000000000e+00
1.168572425842285156e+00,-3.670777587890625000e+02,8.734889221191406250e+01,8.734889221191406250e+01,4.667751118540763855e-02,9.117173004150390625e+01,-2.655030228197574615e-03,-2.103378027677536011e-01,1.028085422515869141e+01,-7.246858899634389672e-07,3.633536107372492552e-05,-1.499478938058018684e-03,-5.209237770031904802e-06,8.936374797485768795e-04,-1.263088732957839966e-02,-2.326965332031250000e-02,1.000000000000000000e+00,-1.299540163017809391e-04,0.000000000000000000e+00
1.243620872497558594e+00,-3.670777587890625000e+02,8.734889221191406250e+01,8.734889221191406250e+01,4.667751118540763855e-02,9.117173004150390625e+01,-2.655030228197574615e-03,-2.103378027677536011e-01,1.028085422515869141e+01,-7.246858899634389672e-07,3.633536107372492552e-05,-1.499478938058018684e-03,-5.209237770031904802e-06,8.936374797485768795e-04,-1.263088732957839966e-02,-2.326965332031250000e-02,1.000000000000000000e+00,-1.299540163017809391e-04,0.000000000000000000e+00
1.243620872497558594e+00,-3.670777587890625000e+02,8.734889221191406250e+01,8.734889221191406250e+01,4.667751118540763855e-02,9.117173004150390625e+01,-2.655030228197574615e-03,-2.103378027677536011e-01,1.028085422515869141e+01,-7.246858899634389672e-07,3.633536107372492552e-05,-1.499478938058018684e-03,-5.209237770031904802e-06,8.936374797485768795e-04,-1.263088732957839966e-02,-2.326965332031250000e-02,1.000000000000000000e+00,-1.299540163017809391e-04,0.000000000000000000e+00
1.243620872497558594e+00,-3.670777587890625000e+02,8.734889221191406250e+01,8.734889221191406250e+01,4.667751118540763855e-02,9.117173004150390625e+01,-2.655030228197574615e-03,-2.103378027677536011e-01,1.028085422515869141e+01,-7.246858899634389672e-07,3.633536107372492552e-05,-1.499478938058018684e-03,-5.209237770031904802e-06,8.936374797485768795e-04,-1.263088732957839966e-02,-2.326965332031250000e-02,1.000000000000000000e+00,-1.299540163017809391e-04,0.000000000000000000e+00
1.312042951583862305e+00,-3.670935363769531250e+02,8.812047576904296875e+01,8.812047576904296875e+01,4.661604017019271851e-02,9.116976165771484375e+01,-1.983641879633069038e-03,-2.101309150457382202e-01,1.028086185455322266e+01,-6.484011692009516992e-07,3.023698227480053902e-03,1.115048653446137905e-04,1.114913857236388139e-06,-1.597964554093778133e-03,-5.768181756138801575e-03,-2.804855071008205414e-02,1.000000000000000000e+00,-1.055399552569724619e-04,0.000000000000000000e+00
1.312042951583862305e+00,-3.670935363769531250e+02,8.812047576904296875e+01,8.812047576904296875e+01,4.661604017019271851e-02,9.116976165771484375e+01,-1.983641879633069038e-03,-2.101309150457382202e-01,1.028086185455322266e+01,-6.484011692009516992e-07,3.023698227480053902e-03,1.115048653446137905e-04,1.114913857236388139e-06,-1.597964554093778133e-03,-5.768181756138801575e-03,-2.804855071008205414e-02,1.000000000000000000e+00,-1.055399552569724619e-04,0.000000000000000000e+00
1.383129358291625977e+00,-3.671079711914062500e+02,8.882389068603515625e+01,8.882389068603515625e+01,4.658188670873641968e-02,9.116786956787109375e+01,-1.953124417923390865e-03,-2.098003476858139038e-01,1.028065490722656250e+01,5.053782388131367043e-07,4.650218877941370010e-03,-2.911207964643836021e-03,1.623066054889932275e-05,4.748675855807960033e-04,3.145707072690129280e-03,-2.795391157269477844e-02,1.000000000000000000e+00,-9.384155418956652284e-05,0.000000000000000000e+00
1.383129358291625977e+00,-3.671079711914062500e+02,8.882389068603515625e+01,8.882389068603515625e+01,4.658188670873641968e-02,9.116786956787109375e+01,-1.953124417923390865e-03,-2.098003476858139038e-01,1.028065490722656250e+01,5.053782388131367043e-07,4.650218877941370010e-03,-2.911207964643836021e-03,1.623066054889932275e-05,4.748675855807960033e-04,3.145707072690129280e-03,-2.795391157269477844e-02,1.000000000000000000e+00,-9.384155418956652284e-05,0.000000000000000000e+00
1.383129358291625977e+00,-3.671079711914062500e+02,8.882389068603515625e+01,8.882389068603515625e+01,4.658188670873641968e-02,9.116786956787109375e+01,-1.953124417923390865e-03,-2.098003476858139038e-01,1.028065490722656250e+01,5.053782388131367043e-07,4.650218877941370010e-03,-2.911207964643836021e-03,1.623066054889932275e-05,4.748675855807960033e-04,3.145707072690129280e-03,-2.795391157269477844e-02,1.000000000000000000e+00,-9.384155418956652284e-05,0.000000000000000000e+00
1.450951814651489258e+00,-3.671224670410156250e+02,8.955471801757812500e+01,8.955471801757812500e+01,4.660920798778533936e-02,9.113085174560546875e+01,-7.781981956213712692e-03,-2.050542086362838745e-01,1.028063106536865234e+01,-9.535387448522669729e-07,6.997887045145034790e-02,-3.515333810355514288e-04,-2.151082662749104202e-05,-2.657651901245117188e-03,1.367606073617935181e-01,-7.044370174407958984e-01,1.000000000000000000e+00,-3.229777095839381218e-03,0.000000000000000000e+00
1.450951814651489258e+00,-3.671224670410156250e+02,8.955471801757812500e+01,8.955471801757812500e+01,4.660920798778533936e-02,9.113085174560546875e+01,-7.781981956213712692e-03,-2.050542086362838745e-01,1.028063106536865234e+01,-9.535387448522669729e-07,6.997887045145034790e-02,-3.515333810355514288e-04,-2.151082662749104202e-05,-2.657651901245117188e-03,1.367606073617935181e-01,-7.044370174407958984e-01,1.000000000000000000e+00,-3.229777095839381218e-03,0.000000000000000000e+00
1.450951814651489258e+00,-3.671224670410156250e+02,8.955471801757812500e+01,8.955471801757812500e+01,4.660920798778533936e-02,9.113085174560546875e+01,-7.781981956213712692e-03,-2.050542086362838745e-01,1.028063106536865234e+01,-9.535387448522669729e-07,6.997887045145034790e-02,-3.515333810355514288e-04,-2.151082662749104202e-05,-2.657651901245117188e-03,1.367606073617935181e-01,-7.044370174407958984e-01,1.000000000000000000e+00,-3.229777095839381218e-03,0.000000000000000000e+00
1.527701377868652344e+00,-3.671358642578125000e+02,9.025198364257812500e+01,9.025198364257812500e+01,4.663652926683425903e-02,9.108399963378906250e+01,-2.285766601562500000e-02,-1.982556134462356567e-01,1.028057670593261719e+01,8.486549631925299764e-07,8.858154714107513428e-02,-7.082702941261231899e-04,2.348148518649395555e-05,-4.727557767182588577e-03,2.841804921627044678e-01,-6.953349709510803223e-01,1.000000000000000000e+00,-2.398173091933131218e-03,0.000000000000000000e+00
1.527701377868652344e+00,-3.671358642578125000e+02,9.025198364257812500e+01,9.025198364257812500e+01,4.663652926683425903e-02,9.108399963378906250e+01,-2.285766601562500000e-02,-1.982556134462356567e-01,1.028057670593261719e+01,8.486549631925299764e-07,8.858154714107513428e-02,-7.082702941261231899e-04,2.348148518649395555e-05,-4.727557767182588577e-03,2.841804921627044678e-01,-6.953349709510803223e-01,1.000000000000000000e+00,-2.398173091933131218e-03,0.000000000000000000e+00
1.527701377868652344e+00,-3.671358642578125000e+02,9.025198364257812500e+01,9.025198364257812500e+01,4.663652926683425903e-02,9.108399963378906250e+01,-2.285766601562500000e-02,-1.982556134462356567e-01,1.028057670593261719e+01,8.486549631925299764e-07,8.858154714107513428e-02,-7.082702941261231899e-04,2.348148518649395555e-05,-4.727557767182588577e-03,2.841804921627044678e-01,-6.953349709510803223e-01,1.000000000000000000e+00,-2.398173091933131218e-03,0.000000000000000000e+00
1.600134611129760742e+00,-3.671506042480468750e+02,9.104102325439453125e+01,9.104102325439453125e+01,4.648626595735549927e-02,9.104909515380859375e+01,-4.879760742187500000e-02,-1.908518522977828979e-01,1.028086376190185547e+01,-1.449362457606184762e-06,1.022149771451950073e-01,3.963042516261339188e-03,-3.172600918333046138e-05,-1.018925011157989502e-02,3.602617084980010986e-01,-3.708114624023437500e-01,1.000000000000000000e+00,-8.661905885674059391e-04,0.000000000000000000e+00
1.600134611129760742e+00,-3.671506042480468750e+02,9.104102325439453125e+01,9.104102325439453125e+01,4.648626595735549927e-02,9.104909515380859375e+01,-4.879760742187500000e-02,-1.908518522977828979e-01,1.028086376190185547e+01,-1.449362457606184762e-06,1.022149771451950073e-01,3.963042516261339188e-03,-3.172600918333046138e-05,-1.018925011157989502e-02,3.602617084980010986e-01,-3.708114624023437500e-01,1.000000000000000000e+00,-8.661905885674059391e-04,0.000000000000000000e+00
1.600134611129760742e+00,-3.671506042480468750e+02,9.104102325439453125e+01,9.104102325439453125e+01,4.648626595735549927e-02,9.104909515380859375e+01,-4.879760742187500000e-02,-1.908518522977828979e-01,1.028086376190185547e+01,-1.449362457606184762e-06,1.022149771451950073e-01,3.963042516261339188e-03,-3.172600918333046138e-05,-1.018925011157989502e-02,3.602617084980010986e-01,-3.708114624023437500e-01,1.000000000000000000e+00,-8.661905885674059391e-04,0.000000000000000000e+00
1.600134611129760742e+00,-3.671506042480468750e+02,9.104102325439453125e+01,9.104102325439453125e+01,4.648626595735549927e-02,9.104909515380859375e+01,-4.879760742187500000e-02,-1.908518522977828979e-01,1.028086376190185547e+01,-1.449362457606184762e-06,1.022149771451950073e-01,3.963042516261339188e-03,-3.172600918333046138e-05,-1.018925011157989502e-02,3.602617084980010986e-01,-3.708114624023437500e-01,1.000000000000000000e+00,-8.661905885674059391e-04,0.000000000000000000e+00
1.600134611129760742e+00,-3.671506042480468750e+02,9.104102325439453125e+01,9.104102325439453125e+01,4.648626595735549927e-02,9.104909515380859375e+01,-4.879760742187500000e-02,-1.908518522977828979e-01,1.028086376190185547e+01,-1.449362457606184762e-06,1.022149771451950073e-01,3.963042516261339188e-03,-3.172600918333046138e-05,-1.018925011157989502e-02,3.602617084980010986e-01,-3.708114624023437500e-01,1.000000000000000000e+00,-8.661905885674059391e-04,0.000000000000000000e+00
1.600134611129760742e+00,-3.671635742187500000e+02,9.178571319580078125e+01,9.178571319580078125e+01,4.623354971408843994e-02,9.097531127929687500e+01,-8.135986328125000000e-02,-1.791244447231292725e-01,1.028107357025146484e+01,-1.659152871980040800e-06,1.016426011919975281e-01,1.818429678678512573e-03,-1.818274313336587511e-06,-1.156519632786512375e-02,5.004205107688903809e-01,-1.252800464630126953e+00,1.000000000000000000e+00,-5.241648294031620026e-03,0.000000000000000000e+00
1.715513467788696289e+00,-3.671635742187500000e+02,9.178571319580078125e+01,9.178571319580078125e+01,4.623354971408843994e-02,9.097531127929687500e+01,-8.135986328125000000e-02,-1.791244447231292725e-01,1.028107357025146484e+01,-1.659152871980040800e-06,1.016426011919975281e-01,1.818429678678512573e-03,-1.818274313336587511e-06,-1.156519632786512375e-02,5.004205107688903809e-01,-1.252800464630126953e+00,1.000000000000000000e+00,-5.241648294031620026e-03,0.000000000000000000e+00
1.715513467788696289e+00,-3.671635742187500000e+02,9.178571319580078125e+01,9.178571319580078125e+01,4.623354971408843994e-02,9.097531127929687500e+01,-8.135986328125000000e-02,-1.791244447231292725e-01,1.028107357025146484e+01,-1.659152871980040800e-06,1.016426011919975281e-01,1.818429678678512573e-03,-1.818274313336587511e-06,-1.156519632786512375e-02,5.004205107688903809e-01,-1.252800464630126953e+00,1.000000000000000000e+00,-5.241648294031620026e-03,0.000000000000000000e+00
1.715513467788696289e+00,-3.671799926757812500e+02,9.281388092041015625e+01,9.281388092041015625e+01,4.564615339040756226e-02,9.086734771728515625e+01,-1.382446289062500000e-01,-1.610941588878631592e-01,1.028187084197998047e+01,-5.091771981824422255e-06,1.847334206104278564e-01,8.168629370629787445e-03,-3.516968354233540595e-05,-1.679731905460357666e-02,6.070584058761596680e-01,-1.037343859672546387e+00,1.000000000000000000e+00,-3.379821777343750000e-03,0.000000000000000000e+00
1.813115119934082031e+00,-3.671799926757812500e+02,9.281388092041015625e+01,9.281388092041015625e+01,4.564615339040756226e-02,9.086734771728515625e+01,-1.382446289062500000e-01,-1.610941588878631592e-01,1.028187084197998047e+01,-5.091771981824422255e-06,1.847334206104278564e-01,8.168629370629787445e-03,-3.516968354233540595e-05,-1.679731905460357666e-02,6.070584058761596680e-01,-1.037343859672546387e+00,1.000000000000000000e+00,-3.379821777343750000e-03,0.000000000000000000e+00
1.813115119934082031e+00,-3.671799926757812500e+02,9.281388092041015625e+01,9.281388092041015625e+01,4.564615339040756226e-02,9.086734771728515625e+01,-1.382446289062500000e-01,-1.610941588878631592e-01,1.028187084197998047e+01,-5.091771981824422255e-06,1.847334206104278564e-01,8.168629370629787445e-03,-3.516968354233540595e-05,-1.679731905460357666e-02,6.070584058761596680e-01,-1.037343859672546387e+00,1.000000000000000000e+00,-3.379821777343750000e-03,0.000000000000000000e+00
1.813115119934082031e+00,-3.671799926757812500e+02,9.281388092041015625e+01,9.281388092041015625e+01,4.564615339040756226e-02,9.086734771728515625e+01,-1.382446289062500000e-01,-1.610941588878631592e-01,1.028187084197998047e+01,-5.091771981824422255e-06,1.847334206104278564e-01,8.168629370629787445e-03,-3.516968354233540595e-05,-1.679731905460357666e-02,6.070584058761596680e-01,-1.037343859672546387e+00,1.000000000000000000e+00,-3.379821777343750000e-03,0.000000000000000000e+00
1.813115119934082031e+00,-3.671937866210937500e+02,9.381745910644531250e+01,9.381745910644531250e+01,4.505192488431930542e-02,9.072709655761718750e+01,-2.037658542394638062e-01,-1.378130465745925903e-01,1.028249645233154297e+01,-8.743771104491315782e-06,2.804286479949951172e-01,7.535682525485754013e-03,-4.398953024065122008e-05,-1.399082131683826447e-02,7.059032320976257324e-01,-1.567900538444519043e+00,1.000000000000000000e+00,-5.630747415125370026e-03,0.000000000000000000e+00
1.896134853363037109e+00,-3.671937866210937500e+02,9.381745910644531250e+01,9.381745910644531250e+01,4.505192488431930542e-02,9.072709655761718750e+01,-2.037658542394638062e-01,-1.378130465745925903e-01,1.028249645233154297e+01,-8.743771104491315782e-06,2.804286479949951172e-01,7.535682525485754013e-03,-4.398953024065122008e-05,-1.399082131683826447e-02,7.059032320976257324e-01,-1.567900538444519043e+00,1.000000000000000000e+00,-5.630747415125370026e-03,0.000000000000000000e+00
1.896134853363037109e+00,-3.671937866210937500e+02,9.381745910644531250e+01,9.381745910644531250e+01,4.505192488431930542e-02,9.072709655761718750e+01,-2.037658542394638062e-01,-1.378130465745925903e-01,1.028249645233154297e+01,-8.743771104491315782e-06,2.804286479949951172e-01,7.535682525485754013e-03,-4.398953024065122008e-05,-1.399082131683826447e-02,7.059032320976257324e-01,-1.567900538444519043e+00,1.000000000000000000e+00,-5.630747415125370026e-03,0.000000000000000000e+00
1.896134853363037109e+00,-3.671937866210937500e+02,9.381745910644531250e+01,9.381745910644531250e+01,4.505192488431930542e-02,9.072709655761718750e+01,-2.037658542394638062e-01,-1.378130465745925903e-01,1.028249645233154297e+01,-8.743771104491315782e-06,2.804286479949951172e-01,7.535682525485754013e-03,-4.398953024065122008e-05,-1.399082131683826447e-02,7.059032320976257324e-01,-1.567900538444519043e+00,1.000000000000000000e+00,-5.630747415125370026e-03,0.000000000000000000e+00
1.896134853363037109e+00,-3.671937866210937500e+02,9.381745910644531250e+01,9.381745910644531250e+01,4.505192488431930542e-02,9.072709655761718750e+01,-2.037658542394638062e-01,-1.378130465745925903e-01,1.028249645233154297e+01,-8.743771104491315782e-06,2.804286479949951172e-01,7.535682525485754013e-03,-4.398953024065122008e-05,-1.399082131683826447e-02,7.059032320976257324e-01,-1.567900538444519043e+00,1.000000000000000000e+00,-5.630747415125370026e-03,0.000000000000000000e+00
1.896134853363037109e+00,-3.671937866210937500e+02,9.381745910644531250e+01,9.381745910644531250e+01,4.505192488431930542e-02,9.072709655761718750e+01,-2.037658542394638062e-01,-1.378130465745925903e-01,1.028249645233154297e+01,-8.743771104491315782e-06,2.804286479949951172e-01,7.535682525485754013e-03,-4.398953024065122008e-05,-1.399082131683826447e-02,7.059032320976257324e-01,-1.567900538444519043e+00,1.000000000000000000e+00,-5.630747415125370026e-03,0.000000000000000000e+00
1.896134853363037109e+00,-3.671937866210937500e+02,9.381745910644531250e+01,9.381745910644531250e+01,4.505192488431930542e-02,9.072709655761718750e+01,-2.037658542394638062e-01,-1.378130465745925903e-01,1.028249645233154297e+01,-8.743771104491315782e-06,2.804286479949951172e-01,7.535682525485754013e-03,-4.398953024065122008e-05,-1.399082131683826447e-02,7.059032320976257324e-01,-1.567900538444519043e+00,1.000000000000000000e+00,-5.630747415125370026e-03,0.000000000000000000e+00
1.896134853363037109e+00,-3.671937866210937500e+02,9.381745910644531250e+01,9.381745910644531250e+01,4.505192488431930542e-02,9.072709655761718750e+01,-2.037658542394638062e-01,-1.378130465745925903e-01,1.028249645233154297e+01,-8.743771104491315782e-06,2.804286479949951172e-01,7.535682525485754013e-03,-4.398953024065122008e-05,-1.399082131683826447e-02,7.059032320976257324e-01,-1.567900538444519043e+00,1.000000000000000000e+00,-5.630747415125370026e-03,0.000000000000000000e+00
2.195794820785522461e+00,-3.672225952148437500e+02,9.660076904296875000e+01,9.660076904296875000e+01,4.496313259005546570e-02,9.046459197998046875e+01,-3.117370009422302246e-01,-8.953736722469329834e-02,1.028323173522949219e+01,-6.293330443440936506e-06,2.522647678852081299e-01,-2.911142772063612938e-03,1.024095909087918699e-04,5.727512761950492859e-03,7.385953515768051147e-02,-6.195484995841979980e-01,1.000000000000000000e+00,-1.472473144531250000e-03,0.000000000000000000e+00
2.195794820785522461e+00,-3.672225952148437500e+02,9.660076904296875000e+01,9.660076904296875000e+01,4.496313259005546570e-02,9.046459197998046875e+01,-3.117370009422302246e-01,-8.953736722469329834e-02,1.028323173522949219e+01,-6.293330443440936506e-06,2.522647678852081299e-01,-2.911142772063612938e-03,1.024095909087918699e-04,5.727512761950492859e-03,7.385953515768051147e-02,-6.195484995841979980e-01,1.000000000000000000e+00,-1.472473144531250000e-03,0.000000000000000000e+00
2.195794820785522461e+00,-3.672225952148437500e+02,9.660076904296875000e+01,9.660076904296875000e+01,4.496313259005546570e-02,9.046459197998046875e+01,-3.117370009422302246e-01,-8.953736722469329834e-02,1.028323173522949219e+01,-6.293330443440936506e-06,2.522647678852081299e-01,-2.911142772063612938e-03,1.024095909087918699e-04,5.727512761950492859e-03,7.385953515768051147e-02,-6.195484995841979980e-01,1.000000000000000000e+00,-1.472473144531250000e-03,0.000000000000000000e+00
2.195794820785522461e+00,-3.672225952148437500e+02,9.660076904296875000e+01,9.660076904296875000e+01,4.496313259005546570e-02,9.046459197998046875e+01,-3.117370009422302246e-01,-8.953736722469329834e-02,1.028323173522949219e+01,-6.293330443440936506e-06,2.522647678852081299e-01,-2.911142772063612938e-03,1.024095909087918699e-04,5.727512761950492859e-03,7.385953515768051147e-02,-6.195484995841979980e-01,1.000000000000000000e+00,-1.472473144531250000e-03,0.000000000000000000e+00
2.195794820785522461e+00,-3.672225952148437500e+02,9.660076904296875000e+01,9.660076904296875000e+01,4.496313259005546570e-02,9.046459197998046875e+01,-3.117370009422302246e-01,-8.953736722469329834e-02,1.028323173522949219e+01,-6.293330443440936506e-06,2.522647678852081299e-01,-2.911142772063612938e-03,1.024095909087918699e-04,5.727512761950492859e-03,7.385953515768051147e-02,-6.195484995841979980e-01,1.000000000000000000e+00,-1.472473144531250000e-03,0.000000000000000000e+00
2.195794820785522461e+00,-3.672225952148437500e+02,9.660076904296875000e+01,9.660076904296875000e+01,4.496313259005546570e-02,9.046459197998046875e+01,-3.117370009422302246e-01,-8.953736722469329834e-02,1.028323173522949219e+01,-6.293330443440936506e-06,2.522647678852081299e-01,-2.911142772063612938e-03,1.024095909087918699e-04,5.727512761950492859e-03,7.385953515768051147e-02,-6.195484995841979980e-01,1.000000000000000000e+00,-1.472473144531250000e-03,0.000000000000000000e+00
2.195794820785522461e+00,-3.672225952148437500e+02,9.660076904296875000e+01,9.660076904296875000e+01,4.496313259005546570e-02,9.046459197998046875e+01,-3.117370009422302246e-01,-8.953736722469329834e-02,1.028323173522949219e+01,-6.293330443440936506e-06,2.522647678852081299e-01,-2.911142772063612938e-03,1.024095909087918699e-04,5.727512761950492859e-03,7.385953515768051147e-02,-6.195484995841979980e-01,1.000000000000000000e+00,-1.472473144531250000e-03,0.000000000000000000e+00
2.195794820785522461e+00,-3.672225952148437500e+02,9.660076904296875000e+01,9.660076904296875000e+01,4.496313259005546570e-02,9.046459197998046875e+01,-3.117370009422302246e-01,-8.953736722469329834e-02,1.028323173522949219e+01,-6.293330443440936506e-06,2.522647678852081299e-01,-2.911142772063612938e-03,1.024095909087918699e-04,5.727512761950492859e-03,7.385953515768051147e-02,-6.195484995841979980e-01,1.000000000000000000e+00,-1.472473144531250000e-03,0.000000000000000000e+00
2.195794820785522461e+00,-3.672225952148437500e+02,9.660076904296875000e+01,9.660076904296875000e+01,4.496313259005546570e-02,9.046459197998046875e+01,-3.117370009422302246e-01,-8.953736722469329834e-02,1.028323173522949219e+01,-6.293330443440936506e-06,2.522647678852081299e-01,-2.911142772063612938e-03,1.024095909087918699e-04,5.727512761950492859e-03,7.385953515768051147e-02,-6.195484995841979980e-01,1.000000000000000000e+00,-1.472473144531250000e-03,0.000000000000000000e+00
2.195794820785522461e+00,-3.672225952148437500e+02,9.660076904296875000e+01,9.660076904296875000e+01,4.496313259005546570e-02,9.046459197998046875e+01,-3.117370009422302246e-01,-8.953736722469329834e-02,1.028323173522949219e+01,-6.293330443440936506e-06,2.522647678852081299e-01,-2.911142772063612938e-03,1.024095909087918699e-04,5.727512761950492859e-03,7.385953515768051147e-02,-6.195484995841979980e-01,1.000000000000000000e+00,-1.472473144531250000e-03,0.000000000000000000e+00
2.374083757400512695e+00,-3.672265930175781250e+02,9.714651489257812500e+01,9.714651489257812500e+01,4.539343342185020447e-02,9.040367889404296875e+01,-3.140258193016052246e-01,-7.914223521947860718e-02,1.028296756744384766e+01,-3.213456011508242227e-06,5.830497294664382935e-02,-1.481683575548231602e-03,1.727462404232937843e-05,9.150012396275997162e-03,2.239092066884040833e-02,-1.342630982398986816e+00,1.000000000000000000e+00,-5.903879646211862564e-03,0.000000000000000000e+00
2.374083757400512695e+00,-3.672265930175781250e+02,9.714651489257812500e+01,9.714651489257812500e+01,4.539343342185020447e-02,9.040367889404296875e+01,-3.140258193016052246e-01,-7.914223521947860718e-02,1.028296756744384766e+01,-3.213456011508242227e-06,5.830497294664382935e-02,-1.481683575548231602e-03,1.727462404232937843e-05,9.150012396275997162e-03,2.239092066884040833e-02,-1.342630982398986816e+00,1.000000000000000000e+00,-5.903879646211862564e-03,0.000000000000000000e+00
2.374083757400512695e+00,-3.672265930175781250e+02,9.714651489257812500e+01,9.714651489257812500e+01,4.539343342185020447e-02,9.040367889404296875e+01,-3.140258193016052246e-01,-7.914223521947860718e-02,1.028296756744384766e+01,-3.213456011508242227e-06,5.830497294664382935e-02,-1.481683575548231602e-03,1.727462404232937843e-05,9.150012396275997162e-03,2.239092066884040833e-02,-1.342630982398986816e+00,1.000000000000000000e+00,-5.903879646211862564e-03,0.000000000000000000e+00
2.447860002517700195e+00,-3.672324829101562500e+02,9.817485046386718750e+01,9.817485046386718750e+01,4.578275606036186218e-02,9.027362823486328125e+01,-3.125304877758026123e-01,-5.890930071473121643e-02,1.028337383270263672e+01,-5.721092293242691085e-07,2.742472887039184570e-01,5.506721790879964828e-03,3.580213160603307188e-05,-2.750048297457396984e-04,-1.142692379653453827e-02,-1.303071498870849609e+00,1.000000000000000000e+00,-4.440053366124629974e-03,0.000000000000000000e+00
2.447860002517700195e+00,-3.672324829101562500e+02,9.817485046386718750e+01,9.817485046386718750e+01,4.578275606036186218e-02,9.027362823486328125e+01,-3.125304877758026123e-01,-5.890930071473121643e-02,1.028337383270263672e+01,-5.721092293242691085e-07,2.742472887039184570e-01,5.506721790879964828e-03,3.580213160603307188e-05,-2.750048297457396984e-04,-1.142692379653453827e-02,-1.303071498870849609e+00,1.000000000000000000e+00,-4.440053366124629974e-03,0.000000000000000000e+00
2.500878810882568359e+00,-3.672359924316406250e+02,9.893352508544921875e+01,9.893352508544921875e+01,4.585105553269386292e-02,9.022716522216796875e+01,-3.057555258274078369e-01,-4.812226817011833191e-02,1.028330516815185547e+01,1.840319669099699240e-06,2.034567147493362427e-01,-1.295097987167537212e-03,4.550137600745074451e-05,2.748982748016715050e-03,-1.482505053281784058e-01,-3.849971890449523926e-01,1.000000000000000000e+00,-1.996358187170699239e-04,0.000000000000000000e+00
2.500878810882568359e+00,-3.672359924316406250e+02,9.893352508544921875e+01,9.893352508544921875e+01,4.585105553269386292e-02,9.022716522216796875e+01,-3.057555258274078369e-01,-4.812226817011833191e-02,1.028330516815185547e+01,1.840319669099699240e-06,2.034567147493362427e-01,-1.295097987167537212e-03,4.550137600745074451e-05,2.748982748016715050e-03,-1.482505053281784058e-01,-3.849971890449523926e-01,1.000000000000000000e+00,-1.996358187170699239e-04,0.000000000000000000e+00
2.500878810882568359e+00,-3.672377319335937500e+02,9.947872924804687500e+01,9.947872924804687500e+01,4.606962203979492188e-02,9.016963195800781250e+01,-2.988281250000000000e-01,-3.751689195632934570e-02,1.028303241729736328e+01,4.691455615102313459e-06,1.787926107645034790e-01,-4.598218481987714767e-03,4.806637662113644183e-05,5.546044092625379562e-03,-1.287156343460083008e-01,-1.341968178749084473e+00,1.000000000000000000e+00,-6.283314898610115051e-03,0.000000000000000000e+00
2.560195446014404297e+00,-3.672377319335937500e+02,9.947872924804687500e+01,9.947872924804687500e+01,4.606962203979492188e-02,9.016963195800781250e+01,-2.988281250000000000e-01,-3.751689195632934570e-02,1.028303241729736328e+01,4.691455615102313459e-06,1.787926107645034790e-01,-4.598218481987714767e-03,4.806637662113644183e-05,5.546044092625379562e-03,-1.287156343460083008e-01,-1.341968178749084473e+00,1.000000000000000000e+00,-6.283314898610115051e-03,0.000000000000000000e+00
2.560195446014404297e+00,-3.672377319335937500e+02,9.947872924804687500e+01,9.947872924804687500e+01,4.606962203979492188e-02,9.016963195800781250e+01,-2.988281250000000000e-01,-3.751689195632934570e-02,1.028303241729736328e+01,4.691455615102313459e-06,1.787926107645034790e-01,-4.598218481987714767e-03,4.806637662113644183e-05,5.546044092625379562e-03,-1.287156343460083008e-01,-1.341968178749084473e+00,1.000000000000000000e+00,-6.283314898610115051e-03,0.000000000000000000e+00
2.618730545043945312e+00,-3.672388916015625000e+02,1.000886917114257812e+02,1.000886917114257812e+02,4.632234200835227966e-02,9.008620452880859375e+01,-2.919921576976776123e-01,-2.551635913550853729e-02,1.028297138214111328e+01,3.432718358453712426e-06,2.050143033266067505e-01,-1.042710384353995323e-03,-2.150397449440788478e-05,3.187983995303511620e-03,-9.192196279764175415e-02,-1.441642403602600098e+00,1.000000000000000000e+00,-5.177306942641735077e-03,0.000000000000000000e+00
2.618730545043945312e+00,-3.672388916015625000e+02,1.000886917114257812e+02,1.000886917114257812e+02,4.632234200835227966e-02,9.008620452880859375e+01,-2.919921576976776123e-01,-2.551635913550853729e-02,1.028297138214111328e+01,3.432718358453712426e-06,2.050143033266067505e-01,-1.042710384353995323e-03,-2.150397449440788478e-05,3.187983995303511620e-03,-9.192196279764175415e-02,-1.441642403602600098e+00,1.000000000000000000e+00,-5.177306942641735077e-03,0.000000000000000000e+00
2.677334070205688477e+00,-3.672394714355468750e+02,1.006906051635742188e+02,1.006906051635742188e+02,4.643845185637474060e-02,9.002022552490234375e+01,-2.876586318016052246e-01,-1.375153381377458572e-02,1.028292846679687500e+01,2.746180143731180578e-06,2.007528543472290039e-01,-7.322996971197426319e-04,-1.171496478491462767e-05,1.454671612009406090e-03,-5.843546614050865173e-02,-1.018430709838867188e+00,1.000000000000000000e+00,-2.747853519394993782e-03,0.000000000000000000e+00
2.677334070205688477e+00,-3.672394714355468750e+02,1.006906051635742188e+02,1.006906051635742188e+02,4.643845185637474060e-02,9.002022552490234375e+01,-2.876586318016052246e-01,-1.375153381377458572e-02,1.028292846679687500e+01,2.746180143731180578e-06,2.007528543472290039e-01,-7.322996971197426319e-04,-1.171496478491462767e-05,1.454671612009406090e-03,-5.843546614050865173e-02,-1.018430709838867188e+00,1.000000000000000000e+00,-2.747853519394993782e-03,0.000000000000000000e+00
2.677334070205688477e+00,-3.672394714355468750e+02,1.006906051635742188e+02,1.006906051635742188e+02,4.643845185637474060e-02,9.002022552490234375e+01,-2.876586318016052246e-01,-1.375153381377458572e-02,1.028292846679687500e+01,2.746180143731180578e-06,2.007528543472290039e-01,-7.322996971197426319e-04,-1.171496478491462767e-05,1.454671612009406090e-03,-5.843546614050865173e-02,-1.018430709838867188e+00,1.000000000000000000e+00,-2.747853519394993782e-03,0.000000000000000000e+00
2.677334070205688477e+00,-3.672394714355468750e+02,1.006906051635742188e+02,1.006906051635742188e+02,4.643845185637474060e-02,9.002022552490234375e+01,-2.876586318016052246e-01,-1.375153381377458572e-02,1.028292846679687500e+01,2.746180143731180578e-06,2.007528543472290039e-01,-7.322996971197426319e-04,-1.171496478491462767e-05,1.454671612009406090e-03,-5.843546614050865173e-02,-1.018430709838867188e+00,1.000000000000000000e+00,-2.747853519394993782e-03,0.000000000000000000e+00
2.755024909973144531e+00,-3.672391052246093750e+02,1.012932281494140625e+02,1.012932281494140625e+02,4.645211249589920044e-02,8.992594909667968750e+01,-2.903442382812500000e-01,2.600370673462748528e-03,1.028286361694335938e+01,5.816560815219418146e-07,2.104740440845489502e-01,-8.347168914042413235e-04,-2.786073855531867594e-05,1.635138178244233131e-04,1.021763756871223450e-01,-1.817058563232421875e+00,1.000000000000000000e+00,-7.370757870376110077e-03,0.000000000000000000e+00
2.755024909973144531e+00,-3.672391052246093750e+02,1.012932281494140625e+02,1.012932281494140625e+02,4.645211249589920044e-02,8.992594909667968750e+01,-2.903442382812500000e-01,2.600370673462748528e-03,1.028286361694335938e+01,5.816560815219418146e-07,2.104740440845489502e-01,-8.347168914042413235e-04,-2.786073855531867594e-05,1.635138178244233131e-04,1.021763756871223450e-01,-1.817058563232421875e+00,1.000000000000000000e+00,-7.370757870376110077e-03,0.000000000000000000e+00
2.755024909973144531e+00,-3.672391052246093750e+02,1.012932281494140625e+02,1.012932281494140625e+02,4.645211249589920044e-02,8.992594909667968750e+01,-2.903442382812500000e-01,2.600370673462748528e-03,1.028286361694335938e+01,5.816560815219418146e-07,2.104740440845489502e-01,-8.347168914042413235e-04,-2.786073855531867594e-05,1.635138178244233131e-04,1.021763756871223450e-01,-1.817058563232421875e+00,1.000000000000000000e+00,-7.370757870376110077e-03,0.000000000000000000e+00
2.830169916152954102e+00,-3.672370605468750000e+02,1.020921096801757812e+02,1.020921096801757812e+02,4.631550982594490051e-02,8.980136108398437500e+01,-3.044738471508026123e-01,2.390328980982303619e-02,1.028293895721435547e+01,-3.775963477892219089e-06,2.834908068180084229e-01,1.002598437480628490e-03,-5.798947677249088883e-05,-2.324559492990374565e-03,2.396416366100311279e-01,-1.540800929069519043e+00,1.000000000000000000e+00,-4.937744233757257462e-03,0.000000000000000000e+00
2.830169916152954102e+00,-3.672370605468750000e+02,1.020921096801757812e+02,1.020921096801757812e+02,4.631550982594490051e-02,8.980136108398437500e+01,-3.044738471508026123e-01,2.390328980982303619e-02,1.028293895721435547e+01,-3.775963477892219089e-06,2.834908068180084229e-01,1.002598437480628490e-03,-5.798947677249088883e-05,-2.324559492990374565e-03,2.396416366100311279e-01,-1.540800929069519043e+00,1.000000000000000000e+00,-4.937744233757257462e-03,0.000000000000000000e+00
2.830169916152954102e+00,-3.672370605468750000e+02,1.020921096801757812e+02,1.020921096801757812e+02,4.631550982594490051e-02,8.980136108398437500e+01,-3.044738471508026123e-01,2.390328980982303619e-02,1.028293895721435547e+01,-3.775963477892219089e-06,2.834908068180084229e-01,1.002598437480628490e-03,-5.798947677249088883e-05,-2.324559492990374565e-03,2.396416366100311279e-01,-1.540800929069519043e+00,1.000000000000000000e+00,-4.937744233757257462e-03,0.000000000000000000e+00
2.830169916152954102e+00,-3.672370605468750000e+02,1.020921096801757812e+02,1.020921096801757812e+02,4.631550982594490051e-02,8.980136108398437500e+01,-3.044738471508026123e-01,2.390328980982303619e-02,1.028293895721435547e+01,-3.775963477892219089e-06,2.834908068180084229e-01,1.002598437480628490e-03,-5.798947677249088883e-05,-2.324559492990374565e-03,2.396416366100311279e-01,-1.540800929069519043e+00,1.000000000000000000e+00,-4.937744233757257462e-03,0.000000000000000000e+00
2.830169916152954102e+00,-3.672370605468750000e+02,1.020921096801757812e+02,1.020921096801757812e+02,4.631550982594490051e-02,8.980136108398437500e+01,-3.044738471508026123e-01,2.390328980982303619e-02,1.028293895721435547e+01,-3.775963477892219089e-06,2.834908068180084229e-01,1.002598437480628490e-03,-5.798947677249088883e-05,-2.324559492990374565e-03,2.396416366100311279e-01,-1.540800929069519043e+00,1.000000000000000000e+00,-4.937744233757257462e-03,0.000000000000000000e+00
2.917726278305053711e+00,-3.672342224121093750e+02,1.028648147583007812e+02,1.028648147583007812e+02,4.610377550125122070e-02,8.973750305175781250e+01,-3.187865912914276123e-01,3.909637778997421265e-02,1.028291702270507812e+01,-6.178880994411883876e-06,1.735235154628753662e-01,-2.505187294445931911e-04,-2.744423545664176345e-05,-1.625688164494931698e-03,1.406329572200775146e-01,-5.973429679870605469e-01,1.000000000000000000e+00,-8.595784311182796955e-04,0.000000000000000000e+00
