# Time,X,Y,Z,Roll,Pitch,Yaw,Vx,Vy,Vz,Ax,Ay,Az,Wx,Wy,Wz,Throttle,Steer,Brake
0.000000000000000000e+00,6.523945312500000000e+02,5.381476879119873047e+00,5.381476879119873047e+00,-4.639542400836944580e-01,-1.207547836303710938e+02,-5.102755546569824219e+00,-7.340907573699951172e+00,-1.294875717163085938e+01,-1.809216849505901337e-02,-5.029044151306152344e+00,-8.324214816093444824e-01,1.855155453085899353e-02,-6.133543252944946289e-01,-9.911473274230957031e+00,-2.419977760314941406e+01,5.000000000000000000e-01,-1.629427522420883179e-01,0.000000000000000000e+00
1.045818328857421875e-01,6.523945312500000000e+02,5.381476879119873047e+00,5.381476879119873047e+00,-4.639542400836944580e-01,-1.207547836303710938e+02,-5.102755546569824219e+00,-7.340907573699951172e+00,-1.294875717163085938e+01,-1.809216849505901337e-02,-5.029044151306152344e+00,-8.324214816093444824e-01,1.855155453085899353e-02,-6.133543252944946289e-01,-9.911473274230957031e+00,-2.419977760314941406e+01,5.000000000000000000e-01,-1.629427522420883179e-01,0.000000000000000000e+00
1.045818328857421875e-01,6.523945312500000000e+02,5.381476879119873047e+00,5.381476879119873047e+00,-4.639542400836944580e-01,-1.207547836303710938e+02,-5.102755546569824219e+00,-7.340907573699951172e+00,-1.294875717163085938e+01,-1.809216849505901337e-02,-5.029044151306152344e+00,-8.324214816093444824e-01,1.855155453085899353e-02,-6.133543252944946289e-01,-9.911473274230957031e+00,-2.419977760314941406e+01,5.000000000000000000e-01,-1.629427522420883179e-01,0.000000000000000000e+00
1.045818328857421875e-01,6.523945312500000000e+02,5.381476879119873047e+00,5.381476879119873047e+00,-4.639542400836944580e-01,-1.207547836303710938e+02,-5.102755546569824219e+00,-7.340907573699951172e+00,-1.294875717163085938e+01,-1.809216849505901337e-02,-5.029044151306152344e+00,-8.324214816093444824e-01,1.855155453085899353e-02,-6.133543252944946289e-01,-9.911473274230957031e+00,-2.419977760314941406e+01,5.000000000000000000e-01,-1.629427522420883179e-01,0.000000000000000000e+00
1.045818328857421875e-01,6.523945312500000000e+02,5.381476879119873047e+00,5.381476879119873047e+00,-4.639542400836944580e-01,-1.207547836303710938e+02,-5.102755546569824219e+00,-7.340907573699951172e+00,-1.294875717163085938e+01,-1.809216849505901337e-02,-5.029044151306152344e+00,-8.324214816093444824e-01,1.855155453085899353e-02,-6.133543252944946289e-01,-9.911473274230957031e+00,-2.419977760314941406e+01,5.000000000000000000e-01,-1.629427522420883179e-01,0.000000000000000000e+00
1.045818328857421875e-01,6.523945312500000000e+02,5.381476879119873047e+00,5.381476879119873047e+00,-4.639542400836944580e-01,-1.207547836303710938e+02,-5.102755546569824219e+00,-7.340907573699951172e+00,-1.294875717163085938e+01,-1.809216849505901337e-02,-5.029044151306152344e+00,-8.324214816093444824e-01,1.855155453085899353e-02,-6.133543252944946289e-01,-9.911473274230957031e+00,-2.419977760314941406e+01,5.000000000000000000e-01,-1.629427522420883179e-01,0.000000000000000000e+00
1.045818328857421875e-01,6.516052856445312500e+02,4.091543197631835938e+00,4.091543197631835938e+00,-3.805234730243682861e-01,-1.232199096679687500e+02,-5.833193302154541016e+00,-8.024424552917480469e+00,-1.298497486114501953e+01,-1.575036533176898956e-02,-6.527781963348388672e+00,-3.458892703056335449e-01,2.236488834023475647e-02,-1.941492676734924316e+00,-9.823738098144531250e+00,-2.474788093566894531e+01,5.000000000000000000e-01,-1.406753510236740112e-01,0.000000000000000000e+00
2.092907428741455078e-01,6.516052856445312500e+02,4.091543197631835938e+00,4.091543197631835938e+00,-3.805234730243682861e-01,-1.232199096679687500e+02,-5.833193302154541016e+00,-8.024424552917480469e+00,-1.298497486114501953e+01,-1.575036533176898956e-02,-6.527781963348388672e+00,-3.458892703056335449e-01,2.236488834023475647e-02,-1.941492676734924316e+00,-9.823738098144531250e+00,-2.474788093566894531e+01,5.000000000000000000e-01,-1.406753510236740112e-01,0.000000000000000000e+00
2.092907428741455078e-01,6.516052856445312500e+02,4.091543197631835938e+00,4.091543197631835938e+00,-3.805234730243682861e-01,-1.232199096679687500e+02,-5.833193302154541016e+00,-8.024424552917480469e+00,-1.298497486114501953e+01,-1.575036533176898956e-02,-6.527781963348388672e+00,-3.458892703056335449e-01,2.236488834023475647e-02,-1.941492676734924316e+00,-9.823738098144531250e+00,-2.474788093566894531e+01,5.000000000000000000e-01,-1.406753510236740112e-01,0.000000000000000000e+00
2.092907428741455078e-01,6.516052856445312500e+02,4.091543197631835938e+00,4.091543197631835938e+00,-3.805234730243682861e-01,-1.232199096679687500e+02,-5.833193302154541016e+00,-8.024424552917480469e+00,-1.298497486114501953e+01,-1.575036533176898956e-02,-6.527781963348388672e+00,-3.458892703056335449e-01,2.236488834023475647e-02,-1.941492676734924316e+00,-9.823738098144531250e+00,-2.474788093566894531e+01,5.000000000000000000e-01,-1.406753510236740112e-01,0.000000000000000000e+00
2.092907428741455078e-01,6.516052856445312500e+02,4.091543197631835938e+00,4.091543197631835938e+00,-3.805234730243682861e-01,-1.232199096679687500e+02,-5.833193302154541016e+00,-8.024424552917480469e+00,-1.298497486114501953e+01,-1.575036533176898956e-02,-6.527781963348388672e+00,-3.458892703056335449e-01,2.236488834023475647e-02,-1.941492676734924316e+00,-9.823738098144531250e+00,-2.474788093566894531e+01,5.000000000000000000e-01,-1.406753510236740112e-01,0.000000000000000000e+00
2.092907428741455078e-01,6.507515869140625000e+02,2.809468030929565430e+00,2.809468030929565430e+00,-2.977552413940429688e-01,-1.254308471679687500e+02,-6.217290401458740234e+00,-8.586550712585449219e+00,-1.278067970275878906e+01,-2.145650610327720642e-02,-7.533327102661132812e+00,2.737859249114990234e+00,-7.647077739238739014e-02,2.517826557159423828e+00,-1.906785964965820312e+00,-1.952478599548339844e+01,5.000000000000000000e-01,-1.293869018554687500e-01,0.000000000000000000e+00
2.839093208312988281e-01,6.507515869140625000e+02,2.809468030929565430e+00,2.809468030929565430e+00,-2.977552413940429688e-01,-1.254308471679687500e+02,-6.217290401458740234e+00,-8.586550712585449219e+00,-1.278067970275878906e+01,-2.145650610327720642e-02,-7.533327102661132812e+00,2.737859249114990234e+00,-7.647077739238739014e-02,2.517826557159423828e+00,-1.906785964965820312e+00,-1.952478599548339844e+01,5.000000000000000000e-01,-1.293869018554687500e-01,0.000000000000000000e+00
2.839093208312988281e-01,6.507515869140625000e+02,2.809468030929565430e+00,2.809468030929565430e+00,-2.977552413940429688e-01,-1.254308471679687500e+02,-6.217290401458740234e+00,-8.586550712585449219e+00,-1.278067970275878906e+01,-2.145650610327720642e-02,-7.533327102661132812e+00,2.737859249114990234e+00,-7.647077739238739014e-02,2.517826557159423828e+00,-1.906785964965820312e+00,-1.952478599548339844e+01,5.000000000000000000e-01,-1.293869018554687500e-01,0.000000000000000000e+00
2.839093208312988281e-01,6.507515869140625000e+02,2.809468030929565430e+00,2.809468030929565430e+00,-2.977552413940429688e-01,-1.254308471679687500e+02,-6.217290401458740234e+00,-8.586550712585449219e+00,-1.278067970275878906e+01,-2.145650610327720642e-02,-7.533327102661132812e+00,2.737859249114990234e+00,-7.647077739238739014e-02,2.517826557159423828e+00,-1.906785964965820312e+00,-1.952478599548339844e+01,5.000000000000000000e-01,-1.293869018554687500e-01,0.000000000000000000e+00
2.839093208312988281e-01,6.507515869140625000e+02,2.809468030929565430e+00,2.809468030929565430e+00,-2.977552413940429688e-01,-1.254308471679687500e+02,-6.217290401458740234e+00,-8.586550712585449219e+00,-1.278067970275878906e+01,-2.145650610327720642e-02,-7.533327102661132812e+00,2.737859249114990234e+00,-7.647077739238739014e-02,2.517826557159423828e+00,-1.906785964965820312e+00,-1.952478599548339844e+01,5.000000000000000000e-01,-1.293869018554687500e-01,0.000000000000000000e+00
3.569011688232421875e-01,6.500850830078125000e+02,1.878860473632812500e+00,1.878860473632812500e+00,-3.187853991985321045e-01,-1.270585708618164062e+02,-5.796786308288574219e+00,-8.866160392761230469e+00,-1.248175907135009766e+01,-2.478423155844211578e-02,-3.830697298049926758e+00,4.095260620117187500e+00,-4.559037089347839355e-02,6.552727699279785156e+00,1.611067175865173340e+00,-2.494767379760742188e+01,5.000000000000000000e-01,-1.288874298334121704e-01,0.000000000000000000e+00
3.569011688232421875e-01,6.500850830078125000e+02,1.878860473632812500e+00,1.878860473632812500e+00,-3.187853991985321045e-01,-1.270585708618164062e+02,-5.796786308288574219e+00,-8.866160392761230469e+00,-1.248175907135009766e+01,-2.478423155844211578e-02,-3.830697298049926758e+00,4.095260620117187500e+00,-4.559037089347839355e-02,6.552727699279785156e+00,1.611067175865173340e+00,-2.494767379760742188e+01,5.000000000000000000e-01,-1.288874298334121704e-01,0.000000000000000000e+00
3.569011688232421875e-01,6.500850830078125000e+02,1.878860473632812500e+00,1.878860473632812500e+00,-3.187853991985321045e-01,-1.270585708618164062e+02,-5.796786308288574219e+00,-8.866160392761230469e+00,-1.248175907135009766e+01,-2.478423155844211578e-02,-3.830697298049926758e+00,4.095260620117187500e+00,-4.559037089347839355e-02,6.552727699279785156e+00,1.611067175865173340e+00,-2.494767379760742188e+01,5.000000000000000000e-01,-1.288874298334121704e-01,0.000000000000000000e+00
3.569011688232421875e-01,6.500850830078125000e+02,1.878860473632812500e+00,1.878860473632812500e+00,-3.187853991985321045e-01,-1.270585708618164062e+02,-5.796786308288574219e+00,-8.866160392761230469e+00,-1.248175907135009766e+01,-2.478423155844211578e-02,-3.830697298049926758e+00,4.095260620117187500e+00,-4.559037089347839355e-02,6.552727699279785156e+00,1.611067175865173340e+00,-2.494767379760742188e+01,5.000000000000000000e-01,-1.288874298334121704e-01,0.000000000000000000e+00
4.765405654907226562e-01,6.494023437500000000e+02,9.865255355834960938e-01,9.865255355834960938e-01,-3.394125699996948242e-01,-1.292028198242187500e+02,-5.583255290985107422e+00,-9.321066856384277344e+00,-1.231332874298095703e+01,-1.662799529731273651e-02,-3.802313327789306641e+00,1.407816648483276367e+00,6.817349791526794434e-02,2.490822315216064453e+00,-3.548781633377075195e+00,-3.051869773864746094e+01,5.000000000000000000e-01,-1.079589873552322388e-01,0.000000000000000000e+00
4.765405654907226562e-01,6.494023437500000000e+02,9.865255355834960938e-01,9.865255355834960938e-01,-3.394125699996948242e-01,-1.292028198242187500e+02,-5.583255290985107422e+00,-9.321066856384277344e+00,-1.231332874298095703e+01,-1.662799529731273651e-02,-3.802313327789306641e+00,1.407816648483276367e+00,6.817349791526794434e-02,2.490822315216064453e+00,-3.548781633377075195e+00,-3.051869773864746094e+01,5.000000000000000000e-01,-1.079589873552322388e-01,0.000000000000000000e+00
4.765405654907226562e-01,6.494023437500000000e+02,9.865255355834960938e-01,9.865255355834960938e-01,-3.394125699996948242e-01,-1.292028198242187500e+02,-5.583255290985107422e+00,-9.321066856384277344e+00,-1.231332874298095703e+01,-1.662799529731273651e-02,-3.802313327789306641e+00,1.407816648483276367e+00,6.817349791526794434e-02,2.490822315216064453e+00,-3.548781633377075195e+00,-3.051869773864746094e+01,5.000000000000000000e-01,-1.079589873552322388e-01,0.000000000000000000e+00
4.765405654907226562e-01,6.494023437500000000e+02,9.865255355834960938e-01,9.865255355834960938e-01,-3.394125699996948242e-01,-1.292028198242187500e+02,-5.583255290985107422e+00,-9.321066856384277344e+00,-1.231332874298095703e+01,-1.662799529731273651e-02,-3.802313327789306641e+00,1.407816648483276367e+00,6.817349791526794434e-02,2.490822315216064453e+00,-3.548781633377075195e+00,-3.051869773864746094e+01,5.000000000000000000e-01,-1.079589873552322388e-01,0.000000000000000000e+00
4.765405654907226562e-01,6.494023437500000000e+02,9.865255355834960938e-01,9.865255355834960938e-01,-3.394125699996948242e-01,-1.292028198242187500e+02,-5.583255290985107422e+00,-9.321066856384277344e+00,-1.231332874298095703e+01,-1.662799529731273651e-02,-3.802313327789306641e+00,1.407816648483276367e+00,6.817349791526794434e-02,2.490822315216064453e+00,-3.548781633377075195e+00,-3.051869773864746094e+01,5.000000000000000000e-01,-1.079589873552322388e-01,0.000000000000000000e+00
4.765405654907226562e-01,6.494023437500000000e+02,9.865255355834960938e-01,9.865255355834960938e-01,-3.394125699996948242e-01,-1.292028198242187500e+02,-5.583255290985107422e+00,-9.321066856384277344e+00,-1.231332874298095703e+01,-1.662799529731273651e-02,-3.802313327789306641e+00,1.407816648483276367e+00,6.817349791526794434e-02,2.490822315216064453e+00,-3.548781633377075195e+00,-3.051869773864746094e+01,5.000000000000000000e-01,-1.079589873552322388e-01,0.000000000000000000e+00
4.765405654907226562e-01,6.494023437500000000e+02,9.865255355834960938e-01,9.865255355834960938e-01,-3.394125699996948242e-01,-1.292028198242187500e+02,-5.583255290985107422e+00,-9.321066856384277344e+00,-1.231332874298095703e+01,-1.662799529731273651e-02,-3.802313327789306641e+00,1.407816648483276367e+00,6.817349791526794434e-02,2.490822315216064453e+00,-3.548781633377075195e+00,-3.051869773864746094e+01,5.000000000000000000e-01,-1.079589873552322388e-01,0.000000000000000000e+00
6.200885772705078125e-01,6.484118652343750000e+02,-2.114815413951873779e-01,-2.114815413951873779e-01,-2.832957506179809570e-01,-1.321905670166015625e+02,-6.043308258056640625e+00,-9.976987838745117188e+00,-1.193616199493408203e+01,-1.219314150512218475e-02,-4.569349288940429688e+00,2.627460718154907227e+00,3.089456818997859955e-02,-4.385439872741699219e+00,-8.523067474365234375e+00,-2.908966064453125000e+01,5.000000000000000000e-01,-9.204203635454177856e-02,0.000000000000000000e+00
6.200885772705078125e-01,6.484118652343750000e+02,-2.114815413951873779e-01,-2.114815413951873779e-01,-2.832957506179809570e-01,-1.321905670166015625e+02,-6.043308258056640625e+00,-9.976987838745117188e+00,-1.193616199493408203e+01,-1.219314150512218475e-02,-4.569349288940429688e+00,2.627460718154907227e+00,3.089456818997859955e-02,-4.385439872741699219e+00,-8.523067474365234375e+00,-2.908966064453125000e+01,5.000000000000000000e-01,-9.204203635454177856e-02,0.000000000000000000e+00
6.200885772705078125e-01,6.484118652343750000e+02,-2.114815413951873779e-01,-2.114815413951873779e-01,-2.832957506179809570e-01,-1.321905670166015625e+02,-6.043308258056640625e+00,-9.976987838745117188e+00,-1.193616199493408203e+01,-1.219314150512218475e-02,-4.569349288940429688e+00,2.627460718154907227e+00,3.089456818997859955e-02,-4.385439872741699219e+00,-8.523067474365234375e+00,-2.908966064453125000e+01,5.000000000000000000e-01,-9.204203635454177856e-02,0.000000000000000000e+00
6.200885772705078125e-01,6.484118652343750000e+02,-2.114815413951873779e-01,-2.114815413951873779e-01,-2.832957506179809570e-01,-1.321905670166015625e+02,-6.043308258056640625e+00,-9.976987838745117188e+00,-1.193616199493408203e+01,-1.219314150512218475e-02,-4.569349288940429688e+00,2.627460718154907227e+00,3.089456818997859955e-02,-4.385439872741699219e+00,-8.523067474365234375e+00,-2.908966064453125000e+01,5.000000000000000000e-01,-9.204203635454177856e-02,0.000000000000000000e+00
6.200885772705078125e-01,6.484118652343750000e+02,-2.114815413951873779e-01,-2.114815413951873779e-01,-2.832957506179809570e-01,-1.321905670166015625e+02,-6.043308258056640625e+00,-9.976987838745117188e+00,-1.193616199493408203e+01,-1.219314150512218475e-02,-4.569349288940429688e+00,2.627460718154907227e+00,3.089456818997859955e-02,-4.385439872741699219e+00,-8.523067474365234375e+00,-2.908966064453125000e+01,5.000000000000000000e-01,-9.204203635454177856e-02,0.000000000000000000e+00
6.200885772705078125e-01,6.484118652343750000e+02,-2.114815413951873779e-01,-2.114815413951873779e-01,-2.832957506179809570e-01,-1.321905670166015625e+02,-6.043308258056640625e+00,-9.976987838745117188e+00,-1.193616199493408203e+01,-1.219314150512218475e-02,-4.569349288940429688e+00,2.627460718154907227e+00,3.089456818997859955e-02,-4.385439872741699219e+00,-8.523067474365234375e+00,-2.908966064453125000e+01,5.000000000000000000e-01,-9.204203635454177856e-02,0.000000000000000000e+00
7.946169376373291016e-01,6.473831787109375000e+02,-1.368849158287048340e+00,-1.368849158287048340e+00,-1.995849460363388062e-01,-1.335808258056640625e+02,-6.188176631927490234e+00,-1.031555747985839844e+01,-1.144429874420166016e+01,-1.300698518753051758e-02,-1.939911842346191406e+00,2.818242549896240234e+00,-4.663102794438600540e-03,2.980916023254394531e+00,1.420495986938476562e+00,-7.203172683715820312e+00,5.000000000000000000e-01,-1.016489695757627487e-02,0.000000000000000000e+00
7.946169376373291016e-01,6.473831787109375000e+02,-1.368849158287048340e+00,-1.368849158287048340e+00,-1.995849460363388062e-01,-1.335808258056640625e+02,-6.188176631927490234e+00,-1.031555747985839844e+01,-1.144429874420166016e+01,-1.300698518753051758e-02,-1.939911842346191406e+00,2.818242549896240234e+00,-4.663102794438600540e-03,2.980916023254394531e+00,1.420495986938476562e+00,-7.203172683715820312e+00,5.000000000000000000e-01,-1.016489695757627487e-02,0.000000000000000000e+00
7.946169376373291016e-01,6.473831787109375000e+02,-1.368849158287048340e+00,-1.368849158287048340e+00,-1.995849460363388062e-01,-1.335808258056640625e+02,-6.188176631927490234e+00,-1.031555747985839844e+01,-1.144429874420166016e+01,-1.300698518753051758e-02,-1.939911842346191406e+00,2.818242549896240234e+00,-4.663102794438600540e-03,2.980916023254394531e+00,1.420495986938476562e+00,-7.203172683715820312e+00,5.000000000000000000e-01,-1.016489695757627487e-02,0.000000000000000000e+00
8.783230781555175781e-01,6.463383789062500000e+02,-2.482515096664428711e+00,-2.482515096664428711e+00,-2.631193697452545166e-01,-1.341280212402343750e+02,-5.308169364929199219e+00,-1.036210155487060547e+01,-1.100740623474121094e+01,-8.797381073236465454e-03,-5.560413599014282227e-01,5.219360351562500000e+00,5.029026791453361511e-02,6.130572795867919922e+00,6.907844543457031250e+00,-4.667014598846435547e+00,5.000000000000000000e-01,-2.680613286793231964e-02,0.000000000000000000e+00
8.783230781555175781e-01,6.463383789062500000e+02,-2.482515096664428711e+00,-2.482515096664428711e+00,-2.631193697452545166e-01,-1.341280212402343750e+02,-5.308169364929199219e+00,-1.036210155487060547e+01,-1.100740623474121094e+01,-8.797381073236465454e-03,-5.560413599014282227e-01,5.219360351562500000e+00,5.029026791453361511e-02,6.130572795867919922e+00,6.907844543457031250e+00,-4.667014598846435547e+00,5.000000000000000000e-01,-2.680613286793231964e-02,0.000000000000000000e+00
8.783230781555175781e-01,6.463383789062500000e+02,-2.482515096664428711e+00,-2.482515096664428711e+00,-2.631193697452545166e-01,-1.341280212402343750e+02,-5.308169364929199219e+00,-1.036210155487060547e+01,-1.100740623474121094e+01,-8.797381073236465454e-03,-5.560413599014282227e-01,5.219360351562500000e+00,5.029026791453361511e-02,6.130572795867919922e+00,6.907844543457031250e+00,-4.667014598846435547e+00,5.000000000000000000e-01,-2.680613286793231964e-02,0.000000000000000000e+00
9.483780860900878906e-01,6.454660034179687500e+02,-3.375236034393310547e+00,-3.375236034393310547e+00,-1.038257032632827759e-01,-1.350620117187500000e+02,-4.624513149261474609e+00,-1.027060031890869141e+01,-1.056962013244628906e+01,1.274960930459201336e-03,1.306134104728698730e+00,6.249176502227783203e+00,1.437776237726211548e-01,3.517519235610961914e+00,6.802438735961914062e+00,-1.390512657165527344e+01,5.000000000000000000e-01,-8.933715522289276123e-02,0.000000000000000000e+00
9.483780860900878906e-01,6.454660034179687500e+02,-3.375236034393310547e+00,-3.375236034393310547e+00,-1.038257032632827759e-01,-1.350620117187500000e+02,-4.624513149261474609e+00,-1.027060031890869141e+01,-1.056962013244628906e+01,1.274960930459201336e-03,1.306134104728698730e+00,6.249176502227783203e+00,1.437776237726211548e-01,3.517519235610961914e+00,6.802438735961914062e+00,-1.390512657165527344e+01,5.000000000000000000e-01,-8.933715522289276123e-02,0.000000000000000000e+00
9.483780860900878906e-01,6.454660034179687500e+02,-3.375236034393310547e+00,-3.375236034393310547e+00,-1.038257032632827759e-01,-1.350620117187500000e+02,-4.624513149261474609e+00,-1.027060031890869141e+01,-1.056962013244628906e+01,1.274960930459201336e-03,1.306134104728698730e+00,6.249176502227783203e+00,1.437776237726211548e-01,3.517519235610961914e+00,6.802438735961914062e+00,-1.390512657165527344e+01,5.000000000000000000e-01,-8.933715522289276123e-02,0.000000000000000000e+00
9.483780860900878906e-01,6.454660034179687500e+02,-3.375236034393310547e+00,-3.375236034393310547e+00,-1.038257032632827759e-01,-1.350620117187500000e+02,-4.624513149261474609e+00,-1.027060031890869141e+01,-1.056962013244628906e+01,1.274960930459201336e-03,1.306134104728698730e+00,6.249176502227783203e+00,1.437776237726211548e-01,3.517519235610961914e+00,6.802438735961914062e+00,-1.390512657165527344e+01,5.000000000000000000e-01,-8.933715522289276123e-02,0.000000000000000000e+00
9.483780860900878906e-01,6.447327880859375000e+02,-4.096388339996337891e+00,-4.096388339996337891e+00,-2.276501990854740143e-02,-1.363033599853515625e+02,-4.253174781799316406e+00,-1.038294792175292969e+01,-1.031726646423339844e+01,2.529752906411886215e-03,-1.425748944282531738e+00,3.202497959136962891e+00,1.592395640909671783e-02,2.373574495315551758e+00,2.963195085525512695e+00,-1.972137641906738281e+01,5.000000000000000000e-01,-8.890126645565032959e-02,0.000000000000000000e+00
1.027177095413208008e+00,6.447327880859375000e+02,-4.096388339996337891e+00,-4.096388339996337891e+00,-2.276501990854740143e-02,-1.363033599853515625e+02,-4.253174781799316406e+00,-1.038294792175292969e+01,-1.031726646423339844e+01,2.529752906411886215e-03,-1.425748944282531738e+00,3.202497959136962891e+00,1.592395640909671783e-02,2.373574495315551758e+00,2.963195085525512695e+00,-1.972137641906738281e+01,5.000000000000000000e-01,-8.890126645565032959e-02,0.000000000000000000e+00
1.027177095413208008e+00,6.447327880859375000e+02,-4.096388339996337891e+00,-4.096388339996337891e+00,-2.276501990854740143e-02,-1.363033599853515625e+02,-4.253174781799316406e+00,-1.038294792175292969e+01,-1.031726646423339844e+01,2.529752906411886215e-03,-1.425748944282531738e+00,3.202497959136962891e+00,1.592395640909671783e-02,2.373574495315551758e+00,2.963195085525512695e+00,-1.972137641906738281e+01,5.000000000000000000e-01,-8.890126645565032959e-02,0.000000000000000000e+00
1.095043420791625977e+00,6.438923339843750000e+02,-4.880877971649169922e+00,-4.880877971649169922e+00,-2.093452773988246918e-02,-1.383006744384765625e+02,-4.249482154846191406e+00,-1.059901714324951172e+01,-9.962635040283203125e+00,1.321174320764839649e-03,-3.183747053146362305e+00,5.225440025329589844e+00,-1.780822128057479858e-02,-1.820550799369812012e+00,-1.862681746482849121e+00,-2.759748077392578125e+01,5.000000000000000000e-01,-1.190287247300148010e-01,0.000000000000000000e+00
1.095043420791625977e+00,6.438923339843750000e+02,-4.880877971649169922e+00,-4.880877971649169922e+00,-2.093452773988246918e-02,-1.383006744384765625e+02,-4.249482154846191406e+00,-1.059901714324951172e+01,-9.962635040283203125e+00,1.321174320764839649e-03,-3.183747053146362305e+00,5.225440025329589844e+00,-1.780822128057479858e-02,-1.820550799369812012e+00,-1.862681746482849121e+00,-2.759748077392578125e+01,5.000000000000000000e-01,-1.190287247300148010e-01,0.000000000000000000e+00
1.095043420791625977e+00,6.438923339843750000e+02,-4.880877971649169922e+00,-4.880877971649169922e+00,-2.093452773988246918e-02,-1.383006744384765625e+02,-4.249482154846191406e+00,-1.059901714324951172e+01,-9.962635040283203125e+00,1.321174320764839649e-03,-3.183747053146362305e+00,5.225440025329589844e+00,-1.780822128057479858e-02,-1.820550799369812012e+00,-1.862681746482849121e+00,-2.759748077392578125e+01,5.000000000000000000e-01,-1.190287247300148010e-01,0.000000000000000000e+00
1.095043420791625977e+00,6.438923339843750000e+02,-4.880877971649169922e+00,-4.880877971649169922e+00,-2.093452773988246918e-02,-1.383006744384765625e+02,-4.249482154846191406e+00,-1.059901714324951172e+01,-9.962635040283203125e+00,1.321174320764839649e-03,-3.183747053146362305e+00,5.225440025329589844e+00,-1.780822128057479858e-02,-1.820550799369812012e+00,-1.862681746482849121e+00,-2.759748077392578125e+01,5.000000000000000000e-01,-1.190287247300148010e-01,0.000000000000000000e+00
1.168572425842285156e+00,6.431567382812500000e+02,-5.535038948059082031e+00,-5.535038948059082031e+00,-3.796219080686569214e-02,-1.398877258300781250e+02,-4.608430862426757812e+00,-1.079801082611083984e+01,-9.629261016845703125e+00,-7.423346978612244129e-04,-2.706328868865966797e+00,4.533911705017089844e+00,-2.806387841701507568e-02,-5.172555923461914062e+00,-4.777644157409667969e+00,-2.189011764526367188e+01,5.000000000000000000e-01,-7.349141687154769897e-02,0.000000000000000000e+00
1.168572425842285156e+00,6.431567382812500000e+02,-5.535038948059082031e+00,-5.535038948059082031e+00,-3.796219080686569214e-02,-1.398877258300781250e+02,-4.608430862426757812e+00,-1.079801082611083984e+01,-9.629261016845703125e+00,-7.423346978612244129e-04,-2.706328868865966797e+00,4.533911705017089844e+00,-2.806387841701507568e-02,-5.172555923461914062e+00,-4.777644157409667969e+00,-2.189011764526367188e+01,5.000000000000000000e-01,-7.349141687154769897e-02,0.000000000000000000e+00
1.168572425842285156e+00,6.431567382812500000e+02,-5.535038948059082031e+00,-5.535038948059082031e+00,-3.796219080686569214e-02,-1.398877258300781250e+02,-4.608430862426757812e+00,-1.079801082611083984e+01,-9.629261016845703125e+00,-7.423346978612244129e-04,-2.706328868865966797e+00,4.533911705017089844e+00,-2.806387841701507568e-02,-5.172555923461914062e+00,-4.777644157409667969e+00,-2.189011764526367188e+01,5.000000000000000000e-01,-7.349141687154769897e-02,0.000000000000000000e+00
1.168572425842285156e+00,6.431567382812500000e+02,-5.535038948059082031e+00,-5.535038948059082031e+00,-3.796219080686569214e-02,-1.398877258300781250e+02,-4.608430862426757812e+00,-1.079801082611083984e+01,-9.629261016845703125e+00,-7.423346978612244129e-04,-2.706328868865966797e+00,4.533911705017089844e+00,-2.806387841701507568e-02,-5.172555923461914062e+00,-4.777644157409667969e+00,-2.189011764526367188e+01,5.000000000000000000e-01,-7.349141687154769897e-02,0.000000000000000000e+00
1.168572425842285156e+00,6.423464355468750000e+02,-6.218312263488769531e+00,-6.218312263488769531e+00,-1.601542681455612183e-01,-1.414743041992187500e+02,-5.233218669891357422e+00,-1.101575374603271484e+01,-9.249387741088867188e+00,-1.013102289289236069e-02,-2.901364803314208984e+00,5.061707496643066406e+00,-1.251017004251480103e-01,-6.044136047363281250e+00,-7.145407676696777344e+00,-2.183559989929199219e+01,5.000000000000000000e-01,-8.483937382698059082e-02,0.000000000000000000e+00
1.243620872497558594e+00,6.423464355468750000e+02,-6.218312263488769531e+00,-6.218312263488769531e+00,-1.601542681455612183e-01,-1.414743041992187500e+02,-5.233218669891357422e+00,-1.101575374603271484e+01,-9.249387741088867188e+00,-1.013102289289236069e-02,-2.901364803314208984e+00,5.061707496643066406e+00,-1.251017004251480103e-01,-6.044136047363281250e+00,-7.145407676696777344e+00,-2.183559989929199219e+01,5.000000000000000000e-01,-8.483937382698059082e-02,0.000000000000000000e+00
1.243620872497558594e+00,6.423464355468750000e+02,-6.218312263488769531e+00,-6.218312263488769531e+00,-1.601542681455612183e-01,-1.414743041992187500e+02,-5.233218669891357422e+00,-1.101575374603271484e+01,-9.249387741088867188e+00,-1.013102289289236069e-02,-2.901364803314208984e+00,5.061707496643066406e+00,-1.251017004251480103e-01,-6.044136047363281250e+00,-7.145407676696777344e+00,-2.183559989929199219e+01,5.000000000000000000e-01,-8.483937382698059082e-02,0.000000000000000000e+00
1.243620872497558594e+00,6.423464355468750000e+02,-6.218312263488769531e+00,-6.218312263488769531e+00,-1.601542681455612183e-01,-1.414743041992187500e+02,-5.233218669891357422e+00,-1.101575374603271484e+01,-9.249387741088867188e+00,-1.013102289289236069e-02,-2.901364803314208984e+00,5.061707496643066406e+00,-1.251017004251480103e-01,-6.044136047363281250e+00,-7.145407676696777344e+00,-2.183559989929199219e+01,5.000000000000000000e-01,-8.483937382698059082e-02,0.000000000000000000e+00
1.312042951583862305e+00,6.415065307617187500e+02,-6.891027450561523438e+00,-6.891027450561523438e+00,-1.666839271783828735e-01,-1.427619171142578125e+02,-5.921206951141357422e+00,-1.119190120697021484e+01,-8.899321556091308594e+00,-7.122030481696128845e-03,-2.574424266815185547e+00,5.116275310516357422e+00,4.397692158818244934e-02,-6.965553760528564453e+00,-6.211391925811767578e+00,-1.526093292236328125e+01,5.000000000000000000e-01,-4.588419571518898010e-02,0.000000000000000000e+00
1.312042951583862305e+00,6.415065307617187500e+02,-6.891027450561523438e+00,-6.891027450561523438e+00,-1.666839271783828735e-01,-1.427619171142578125e+02,-5.921206951141357422e+00,-1.119190120697021484e+01,-8.899321556091308594e+00,-7.122030481696128845e-03,-2.574424266815185547e+00,5.116275310516357422e+00,4.397692158818244934e-02,-6.965553760528564453e+00,-6.211391925811767578e+00,-1.526093292236328125e+01,5.000000000000000000e-01,-4.588419571518898010e-02,0.000000000000000000e+00
1.383129358291625977e+00,6.407330932617187500e+02,-7.486348628997802734e+00,-7.486348628997802734e+00,-1.366242617368698120e-01,-1.433759307861328125e+02,-5.990849018096923828e+00,-1.128622245788574219e+01,-8.669904708862304688e+00,-6.966488435864448547e-03,-1.326853513717651367e+00,3.227295398712158203e+00,2.188070211559534073e-03,3.682263612747192383e+00,1.061124801635742188e+00,-5.923274993896484375e+00,5.000000000000000000e-01,-9.946695528924465179e-03,0.000000000000000000e+00
1.383129358291625977e+00,6.407330932617187500e+02,-7.486348628997802734e+00,-7.486348628997802734e+00,-1.366242617368698120e-01,-1.433759307861328125e+02,-5.990849018096923828e+00,-1.128622245788574219e+01,-8.669904708862304688e+00,-6.966488435864448547e-03,-1.326853513717651367e+00,3.227295398712158203e+00,2.188070211559534073e-03,3.682263612747192383e+00,1.061124801635742188e+00,-5.923274993896484375e+00,5.000000000000000000e-01,-9.946695528924465179e-03,0.000000000000000000e+00
1.383129358291625977e+00,6.407330932617187500e+02,-7.486348628997802734e+00,-7.486348628997802734e+00,-1.366242617368698120e-01,-1.433759307861328125e+02,-5.990849018096923828e+00,-1.128622245788574219e+01,-8.669904708862304688e+00,-6.966488435864448547e-03,-1.326853513717651367e+00,3.227295398712158203e+00,2.188070211559534073e-03,3.682263612747192383e+00,1.061124801635742188e+00,-5.923274993896484375e+00,5.000000000000000000e-01,-9.946695528924465179e-03,0.000000000000000000e+00
1.450951814651489258e+00,6.399228515625000000e+02,-8.086528778076171875e+00,-8.086528778076171875e+00,-2.243990153074264526e-01,-1.440593566894531250e+02,-5.411319255828857422e+00,-1.134435367584228516e+01,-8.464581489562988281e+00,-4.738515242934226990e-03,-8.571087121963500977e-01,3.027363300323486328e+00,3.285008296370506287e-02,7.447884559631347656e+00,3.604046344757080078e+00,-1.266415596008300781e+01,5.000000000000000000e-01,-6.592102348804473877e-02,0.000000000000000000e+00
1.450951814651489258e+00,6.399228515625000000e+02,-8.086528778076171875e+00,-8.086528778076171875e+00,-2.243990153074264526e-01,-1.440593566894531250e+02,-5.411319255828857422e+00,-1.134435367584228516e+01,-8.464581489562988281e+00,-4.738515242934226990e-03,-8.571087121963500977e-01,3.027363300323486328e+00,3.285008296370506287e-02,7.447884559631347656e+00,3.604046344757080078e+00,-1.266415596008300781e+01,5.000000000000000000e-01,-6.592102348804473877e-02,0.000000000000000000e+00
1.450951814651489258e+00,6.399228515625000000e+02,-8.086528778076171875e+00,-8.086528778076171875e+00,-2.243990153074264526e-01,-1.440593566894531250e+02,-5.411319255828857422e+00,-1.134435367584228516e+01,-8.464581489562988281e+00,-4.738515242934226990e-03,-8.571087121963500977e-01,3.027363300323486328e+00,3.285008296370506287e-02,7.447884559631347656e+00,3.604046344757080078e+00,-1.266415596008300781e+01,5.000000000000000000e-01,-6.592102348804473877e-02,0.000000000000000000e+00
1.527701377868652344e+00,6.391583251953125000e+02,-8.640208244323730469e+00,-8.640208244323730469e+00,-1.238723024725914001e-01,-1.446092681884765625e+02,-4.835969924926757812e+00,-1.110184192657470703e+01,-8.117509841918945312e+00,3.939656540751457214e-03,3.159780263900756836e+00,4.522131919860839844e+00,1.130712851881980896e-01,5.605260372161865234e+00,7.067959785461425781e+00,-5.471762657165527344e+00,5.000000000000000000e-01,-6.460673362016677856e-02,0.000000000000000000e+00
1.527701377868652344e+00,6.391583251953125000e+02,-8.640208244323730469e+00,-8.640208244323730469e+00,-1.238723024725914001e-01,-1.446092681884765625e+02,-4.835969924926757812e+00,-1.110184192657470703e+01,-8.117509841918945312e+00,3.939656540751457214e-03,3.159780263900756836e+00,4.522131919860839844e+00,1.130712851881980896e-01,5.605260372161865234e+00,7.067959785461425781e+00,-5.471762657165527344e+00,5.000000000000000000e-01,-6.460673362016677856e-02,0.000000000000000000e+00
1.527701377868652344e+00,6.391583251953125000e+02,-8.640208244323730469e+00,-8.640208244323730469e+00,-1.238723024725914001e-01,-1.446092681884765625e+02,-4.835969924926757812e+00,-1.110184192657470703e+01,-8.117509841918945312e+00,3.939656540751457214e-03,3.159780263900756836e+00,4.522131919860839844e+00,1.130712851881980896e-01,5.605260372161865234e+00,7.067959785461425781e+00,-5.471762657165527344e+00,5.000000000000000000e-01,-6.460673362016677856e-02,0.000000000000000000e+00
1.600134611129760742e+00,6.383139038085937500e+02,-9.242991447448730469e+00,-9.242991447448730469e+00,9.057513624429702759e-02,-1.448857879638671875e+02,-4.144257068634033203e+00,-1.083294200897216797e+01,-7.778928279876708984e+00,6.213512271642684937e-03,3.712383270263671875e+00,4.674395084381103516e+00,3.139243647456169128e-02,5.992370128631591797e+00,7.562963008880615234e+00,-2.896818876266479492e+00,1.000000000000000000e+00,-1.265767365694046021e-01,0.000000000000000000e+00
1.600134611129760742e+00,6.383139038085937500e+02,-9.242991447448730469e+00,-9.242991447448730469e+00,9.057513624429702759e-02,-1.448857879638671875e+02,-4.144257068634033203e+00,-1.083294200897216797e+01,-7.778928279876708984e+00,6.213512271642684937e-03,3.712383270263671875e+00,4.674395084381103516e+00,3.139243647456169128e-02,5.992370128631591797e+00,7.562963008880615234e+00,-2.896818876266479492e+00,1.000000000000000000e+00,-1.265767365694046021e-01,0.000000000000000000e+00
1.600134611129760742e+00,6.383139038085937500e+02,-9.242991447448730469e+00,-9.242991447448730469e+00,9.057513624429702759e-02,-1.448857879638671875e+02,-4.144257068634033203e+00,-1.083294200897216797e+01,-7.778928279876708984e+00,6.213512271642684937e-03,3.712383270263671875e+00,4.674395084381103516e+00,3.139243647456169128e-02,5.992370128631591797e+00,7.562963008880615234e+00,-2.896818876266479492e+00,1.000000000000000000e+00,-1.265767365694046021e-01,0.000000000000000000e+00
1.600134611129760742e+00,6.383139038085937500e+02,-9.242991447448730469e+00,-9.242991447448730469e+00,9.057513624429702759e-02,-1.448857879638671875e+02,-4.144257068634033203e+00,-1.083294200897216797e+01,-7.778928279876708984e+00,6.213512271642684937e-03,3.712383270263671875e+00,4.674395084381103516e+00,3.139243647456169128e-02,5.992370128631591797e+00,7.562963008880615234e+00,-2.896818876266479492e+00,1.000000000000000000e+00,-1.265767365694046021e-01,0.000000000000000000e+00
1.600134611129760742e+00,6.383139038085937500e+02,-9.242991447448730469e+00,-9.242991447448730469e+00,9.057513624429702759e-02,-1.448857879638671875e+02,-4.144257068634033203e+00,-1.083294200897216797e+01,-7.778928279876708984e+00,6.213512271642684937e-03,3.712383270263671875e+00,4.674395084381103516e+00,3.139243647456169128e-02,5.992370128631591797e+00,7.562963008880615234e+00,-2.896818876266479492e+00,1.000000000000000000e+00,-1.265767365694046021e-01,0.000000000000000000e+00
1.600134611129760742e+00,6.375354003906250000e+02,-9.789427757263183594e+00,-9.789427757263183594e+00,1.448614746332168579e-01,-1.451932678222656250e+02,-3.403260469436645508e+00,-1.058176231384277344e+01,-7.500007629394531250e+00,7.601304096169769764e-04,2.176999330520629883e+00,2.417432785034179688e+00,-4.726500064134597778e-02,7.735361099243164062e+00,6.939016819000244141e+00,-4.870182991027832031e+00,1.000000000000000000e+00,-1.611048430204391479e-01,0.000000000000000000e+00
1.715513467788696289e+00,6.375354003906250000e+02,-9.789427757263183594e+00,-9.789427757263183594e+00,1.448614746332168579e-01,-1.451932678222656250e+02,-3.403260469436645508e+00,-1.058176231384277344e+01,-7.500007629394531250e+00,7.601304096169769764e-04,2.176999330520629883e+00,2.417432785034179688e+00,-4.726500064134597778e-02,7.735361099243164062e+00,6.939016819000244141e+00,-4.870182991027832031e+00,1.000000000000000000e+00,-1.611048430204391479e-01,0.000000000000000000e+00
1.715513467788696289e+00,6.375354003906250000e+02,-9.789427757263183594e+00,-9.789427757263183594e+00,1.448614746332168579e-01,-1.451932678222656250e+02,-3.403260469436645508e+00,-1.058176231384277344e+01,-7.500007629394531250e+00,7.601304096169769764e-04,2.176999330520629883e+00,2.417432785034179688e+00,-4.726500064134597778e-02,7.735361099243164062e+00,6.939016819000244141e+00,-4.870182991027832031e+00,1.000000000000000000e+00,-1.611048430204391479e-01,0.000000000000000000e+00
1.715513467788696289e+00,6.364908447265625000e+02,-1.050617694854736328e+01,-1.050617694854736328e+01,3.425202965736389160e-01,-1.459219360351562500e+02,-2.498901367187500000e+00,-1.022799491882324219e+01,-7.073622226715087891e+00,5.126651376485824585e-03,3.624604701995849609e+00,4.368628978729248047e+00,4.473818466067314148e-02,5.206402301788330078e+00,5.997129917144775391e+00,-8.914430618286132812e+00,1.000000000000000000e+00,-2.346837371587753296e-01,0.000000000000000000e+00
1.813115119934082031e+00,6.364908447265625000e+02,-1.050617694854736328e+01,-1.050617694854736328e+01,3.425202965736389160e-01,-1.459219360351562500e+02,-2.498901367187500000e+00,-1.022799491882324219e+01,-7.073622226715087891e+00,5.126651376485824585e-03,3.624604701995849609e+00,4.368628978729248047e+00,4.473818466067314148e-02,5.206402301788330078e+00,5.997129917144775391e+00,-8.914430618286132812e+00,1.000000000000000000e+00,-2.346837371587753296e-01,0.000000000000000000e+00
1.813115119934082031e+00,6.364908447265625000e+02,-1.050617694854736328e+01,-1.050617694854736328e+01,3.425202965736389160e-01,-1.459219360351562500e+02,-2.498901367187500000e+00,-1.022799491882324219e+01,-7.073622226715087891e+00,5.126651376485824585e-03,3.624604701995849609e+00,4.368628978729248047e+00,4.473818466067314148e-02,5.206402301788330078e+00,5.997129917144775391e+00,-8.914430618286132812e+00,1.000000000000000000e+00,-2.346837371587753296e-01,0.000000000000000000e+00
1.813115119934082031e+00,6.364908447265625000e+02,-1.050617694854736328e+01,-1.050617694854736328e+01,3.425202965736389160e-01,-1.459219360351562500e+02,-2.498901367187500000e+00,-1.022799491882324219e+01,-7.073622226715087891e+00,5.126651376485824585e-03,3.624604701995849609e+00,4.368628978729248047e+00,4.473818466067314148e-02,5.206402301788330078e+00,5.997129917144775391e+00,-8.914430618286132812e+00,1.000000000000000000e+00,-2.346837371587753296e-01,0.000000000000000000e+00
1.813115119934082031e+00,6.354998168945312500e+02,-1.115953826904296875e+01,-1.115953826904296875e+01,3.669655621051788330e-01,-1.472058715820312500e+02,-1.966369271278381348e+00,-9.956383705139160156e+00,-6.605936050415039062e+00,-1.482941675931215286e-03,3.271646499633789062e+00,5.633433818817138672e+00,-7.961472123861312866e-02,2.331173658370971680e+00,2.268085718154907227e+00,-1.607251358032226562e+01,1.000000000000000000e+00,-2.972758114337921143e-01,0.000000000000000000e+00
1.896134853363037109e+00,6.354998168945312500e+02,-1.115953826904296875e+01,-1.115953826904296875e+01,3.669655621051788330e-01,-1.472058715820312500e+02,-1.966369271278381348e+00,-9.956383705139160156e+00,-6.605936050415039062e+00,-1.482941675931215286e-03,3.271646499633789062e+00,5.633433818817138672e+00,-7.961472123861312866e-02,2.331173658370971680e+00,2.268085718154907227e+00,-1.607251358032226562e+01,1.000000000000000000e+00,-2.972758114337921143e-01,0.000000000000000000e+00
1.896134853363037109e+00,6.354998168945312500e+02,-1.115953826904296875e+01,-1.115953826904296875e+01,3.669655621051788330e-01,-1.472058715820312500e+02,-1.966369271278381348e+00,-9.956383705139160156e+00,-6.605936050415039062e+00,-1.482941675931215286e-03,3.271646499633789062e+00,5.633433818817138672e+00,-7.961472123861312866e-02,2.331173658370971680e+00,2.268085718154907227e+00,-1.607251358032226562e+01,1.000000000000000000e+00,-2.972758114337921143e-01,0.000000000000000000e+00
1.896134853363037109e+00,6.354998168945312500e+02,-1.115953826904296875e+01,-1.115953826904296875e+01,3.669655621051788330e-01,-1.472058715820312500e+02,-1.966369271278381348e+00,-9.956383705139160156e+00,-6.605936050415039062e+00,-1.482941675931215286e-03,3.271646499633789062e+00,5.633433818817138672e+00,-7.961472123861312866e-02,2.331173658370971680e+00,2.268085718154907227e+00,-1.607251358032226562e+01,1.000000000000000000e+00,-2.972758114337921143e-01,0.000000000000000000e+00
1.896134853363037109e+00,6.354998168945312500e+02,-1.115953826904296875e+01,-1.115953826904296875e+01,3.669655621051788330e-01,-1.472058715820312500e+02,-1.966369271278381348e+00,-9.956383705139160156e+00,-6.605936050415039062e+00,-1.482941675931215286e-03,3.271646499633789062e+00,5.633433818817138672e+00,-7.961472123861312866e-02,2.331173658370971680e+00,2.268085718154907227e+00,-1.607251358032226562e+01,1.000000000000000000e+00,-2.972758114337921143e-01,0.000000000000000000e+00
1.896134853363037109e+00,6.354998168945312500e+02,-1.115953826904296875e+01,-1.115953826904296875e+01,3.669655621051788330e-01,-1.472058715820312500e+02,-1.966369271278381348e+00,-9.956383705139160156e+00,-6.605936050415039062e+00,-1.482941675931215286e-03,3.271646499633789062e+00,5.633433818817138672e+00,-7.961472123861312866e-02,2.331173658370971680e+00,2.268085718154907227e+00,-1.607251358032226562e+01,1.000000000000000000e+00,-2.972758114337921143e-01,0.000000000000000000e+00
1.896134853363037109e+00,6.354998168945312500e+02,-1.115953826904296875e+01,-1.115953826904296875e+01,3.669655621051788330e-01,-1.472058715820312500e+02,-1.966369271278381348e+00,-9.956383705139160156e+00,-6.605936050415039062e+00,-1.482941675931215286e-03,3.271646499633789062e+00,5.633433818817138672e+00,-7.961472123861312866e-02,2.331173658370971680e+00,2.268085718154907227e+00,-1.607251358032226562e+01,1.000000000000000000e+00,-2.972758114337921143e-01,0.000000000000000000e+00
1.896134853363037109e+00,6.354998168945312500e+02,-1.115953826904296875e+01,-1.115953826904296875e+01,3.669655621051788330e-01,-1.472058715820312500e+02,-1.966369271278381348e+00,-9.956383705139160156e+00,-6.605936050415039062e+00,-1.482941675931215286e-03,3.271646499633789062e+00,5.633433818817138672e+00,-7.961472123861312866e-02,2.331173658370971680e+00,2.268085718154907227e+00,-1.607251358032226562e+01,1.000000000000000000e+00,-2.972758114337921143e-01,0.000000000000000000e+00
2.195794820785522461e+00,6.328377075195312500e+02,-1.264523124694824219e+01,-1.264523124694824219e+01,9.309547394514083862e-02,-1.553304290771484375e+02,-4.013825893402099609e+00,-9.701647758483886719e+00,-4.733343124389648438e+00,-1.771761290729045868e-02,-9.469839334487915039e-01,1.318972206115722656e+01,-1.570745408535003662e-01,-1.310083961486816406e+01,-1.089360427856445312e+01,-4.557770538330078125e+01,1.000000000000000000e+00,-3.995132446289062500e-01,0.000000000000000000e+00
2.195794820785522461e+00,6.328377075195312500e+02,-1.264523124694824219e+01,-1.264523124694824219e+01,9.309547394514083862e-02,-1.553304290771484375e+02,-4.013825893402099609e+00,-9.701647758483886719e+00,-4.733343124389648438e+00,-1.771761290729045868e-02,-9.469839334487915039e-01,1.318972206115722656e+01,-1.570745408535003662e-01,-1.310083961486816406e+01,-1.089360427856445312e+01,-4.557770538330078125e+01,1.000000000000000000e+00,-3.995132446289062500e-01,0.000000000000000000e+00
2.195794820785522461e+00,6.328377075195312500e+02,-1.264523124694824219e+01,-1.264523124694824219e+01,9.309547394514083862e-02,-1.553304290771484375e+02,-4.013825893402099609e+00,-9.701647758483886719e+00,-4.733343124389648438e+00,-1.771761290729045868e-02,-9.469839334487915039e-01,1.318972206115722656e+01,-1.570745408535003662e-01,-1.310083961486816406e+01,-1.089360427856445312e+01,-4.557770538330078125e+01,1.000000000000000000e+00,-3.995132446289062500e-01,0.000000000000000000e+00
2.195794820785522461e+00,6.328377075195312500e+02,-1.264523124694824219e+01,-1.264523124694824219e+01,9.309547394514083862e-02,-1.553304290771484375e+02,-4.013825893402099609e+00,-9.701647758483886719e+00,-4.733343124389648438e+00,-1.771761290729045868e-02,-9.469839334487915039e-01,1.318972206115722656e+01,-1.570745408535003662e-01,-1.310083961486816406e+01,-1.089360427856445312e+01,-4.557770538330078125e+01,1.000000000000000000e+00,-3.995132446289062500e-01,0.000000000000000000e+00
2.195794820785522461e+00,6.328377075195312500e+02,-1.264523124694824219e+01,-1.264523124694824219e+01,9.309547394514083862e-02,-1.553304290771484375e+02,-4.013825893402099609e+00,-9.701647758483886719e+00,-4.733343124389648438e+00,-1.771761290729045868e-02,-9.469839334487915039e-01,1.318972206115722656e+01,-1.570745408535003662e-01,-1.310083961486816406e+01,-1.089360427856445312e+01,-4.557770538330078125e+01,1.000000000000000000e+00,-3.995132446289062500e-01,0.000000000000000000e+00
2.195794820785522461e+00,6.328377075195312500e+02,-1.264523124694824219e+01,-1.264523124694824219e+01,9.309547394514083862e-02,-1.553304290771484375e+02,-4.013825893402099609e+00,-9.701647758483886719e+00,-4.733343124389648438e+00,-1.771761290729045868e-02,-9.469839334487915039e-01,1.318972206115722656e+01,-1.570745408535003662e-01,-1.310083961486816406e+01,-1.089360427856445312e+01,-4.557770538330078125e+01,1.000000000000000000e+00,-3.995132446289062500e-01,0.000000000000000000e+00
2.195794820785522461e+00,6.328377075195312500e+02,-1.264523124694824219e+01,-1.264523124694824219e+01,9.309547394514083862e-02,-1.553304290771484375e+02,-4.013825893402099609e+00,-9.701647758483886719e+00,-4.733343124389648438e+00,-1.771761290729045868e-02,-9.469839334487915039e-01,1.318972206115722656e+01,-1.570745408535003662e-01,-1.310083961486816406e+01,-1.089360427856445312e+01,-4.557770538330078125e+01,1.000000000000000000e+00,-3.995132446289062500e-01,0.000000000000000000e+00
2.195794820785522461e+00,6.328377075195312500e+02,-1.264523124694824219e+01,-1.264523124694824219e+01,9.309547394514083862e-02,-1.553304290771484375e+02,-4.013825893402099609e+00,-9.701647758483886719e+00,-4.733343124389648438e+00,-1.771761290729045868e-02,-9.469839334487915039e-01,1.318972206115722656e+01,-1.570745408535003662e-01,-1.310083961486816406e+01,-1.089360427856445312e+01,-4.557770538330078125e+01,1.000000000000000000e+00,-3.995132446289062500e-01,0.000000000000000000e+00
2.195794820785522461e+00,6.328377075195312500e+02,-1.264523124694824219e+01,-1.264523124694824219e+01,9.309547394514083862e-02,-1.553304290771484375e+02,-4.013825893402099609e+00,-9.701647758483886719e+00,-4.733343124389648438e+00,-1.771761290729045868e-02,-9.469839334487915039e-01,1.318972206115722656e+01,-1.570745408535003662e-01,-1.310083961486816406e+01,-1.089360427856445312e+01,-4.557770538330078125e+01,1.000000000000000000e+00,-3.995132446289062500e-01,0.000000000000000000e+00
2.195794820785522461e+00,6.328377075195312500e+02,-1.264523124694824219e+01,-1.264523124694824219e+01,9.309547394514083862e-02,-1.553304290771484375e+02,-4.013825893402099609e+00,-9.701647758483886719e+00,-4.733343124389648438e+00,-1.771761290729045868e-02,-9.469839334487915039e-01,1.318972206115722656e+01,-1.570745408535003662e-01,-1.310083961486816406e+01,-1.089360427856445312e+01,-4.557770538330078125e+01,1.000000000000000000e+00,-3.995132446289062500e-01,0.000000000000000000e+00
2.374083757400512695e+00,6.323187866210937500e+02,-1.287033176422119141e+01,-1.287033176422119141e+01,1.799071766436100006e-02,-1.573872070312500000e+02,-4.976716995239257812e+00,-9.652642250061035156e+00,-4.295289039611816406e+00,-6.344573572278022766e-03,2.748656570911407471e-01,2.456989765167236328e+00,6.378993391990661621e-02,-1.731584739685058594e+01,-7.576448440551757812e+00,-3.440423965454101562e+01,1.000000000000000000e+00,-2.246042937040328979e-01,0.000000000000000000e+00
2.374083757400512695e+00,6.323187866210937500e+02,-1.287033176422119141e+01,-1.287033176422119141e+01,1.799071766436100006e-02,-1.573872070312500000e+02,-4.976716995239257812e+00,-9.652642250061035156e+00,-4.295289039611816406e+00,-6.344573572278022766e-03,2.748656570911407471e-01,2.456989765167236328e+00,6.378993391990661621e-02,-1.731584739685058594e+01,-7.576448440551757812e+00,-3.440423965454101562e+01,1.000000000000000000e+00,-2.246042937040328979e-01,0.000000000000000000e+00
2.374083757400512695e+00,6.323187866210937500e+02,-1.287033176422119141e+01,-1.287033176422119141e+01,1.799071766436100006e-02,-1.573872070312500000e+02,-4.976716995239257812e+00,-9.652642250061035156e+00,-4.295289039611816406e+00,-6.344573572278022766e-03,2.748656570911407471e-01,2.456989765167236328e+00,6.378993391990661621e-02,-1.731584739685058594e+01,-7.576448440551757812e+00,-3.440423965454101562e+01,1.000000000000000000e+00,-2.246042937040328979e-01,0.000000000000000000e+00
2.447860002517700195e+00,6.313459472656250000e+02,-1.324859428405761719e+01,-1.324859428405761719e+01,-6.714075803756713867e-03,-1.599799804687500000e+02,-6.398716926574707031e+00,-9.693064689636230469e+00,-3.685977458953857422e+00,-3.297616261988878250e-03,-5.479059219360351562e-01,8.258913040161132812e+00,4.129998013377189636e-02,-7.788707733154296875e+00,-3.882587194442749023e+00,-2.340261077880859375e+01,1.000000000000000000e+00,-1.702763885259628296e-01,0.000000000000000000e+00
2.447860002517700195e+00,6.313459472656250000e+02,-1.324859428405761719e+01,-1.324859428405761719e+01,-6.714075803756713867e-03,-1.599799804687500000e+02,-6.398716926574707031e+00,-9.693064689636230469e+00,-3.685977458953857422e+00,-3.297616261988878250e-03,-5.479059219360351562e-01,8.258913040161132812e+00,4.129998013377189636e-02,-7.788707733154296875e+00,-3.882587194442749023e+00,-2.340261077880859375e+01,1.000000000000000000e+00,-1.702763885259628296e-01,0.000000000000000000e+00
2.500878810882568359e+00,6.306234741210937500e+02,-1.350067806243896484e+01,-1.350067806243896484e+01,-8.940717205405235291e-03,-1.611036834716796875e+02,-6.325504779815673828e+00,-9.762514114379882812e+00,-3.466540813446044922e+00,1.555311609990894794e-04,-1.309901595115661621e+00,4.138845443725585938e+00,6.513060629367828369e-02,6.714478969573974609e+00,3.736153841018676758e-01,-1.168478202819824219e+01,1.000000000000000000e+00,-6.771748512983322144e-02,0.000000000000000000e+00
2.500878810882568359e+00,6.306234741210937500e+02,-1.350067806243896484e+01,-1.350067806243896484e+01,-8.940717205405235291e-03,-1.611036834716796875e+02,-6.325504779815673828e+00,-9.762514114379882812e+00,-3.466540813446044922e+00,1.555311609990894794e-04,-1.309901595115661621e+00,4.138845443725585938e+00,6.513060629367828369e-02,6.714478969573974609e+00,3.736153841018676758e-01,-1.168478202819824219e+01,1.000000000000000000e+00,-6.771748512983322144e-02,0.000000000000000000e+00
2.560195446014404297e+00,6.301029052734375000e+02,-1.367454910278320312e+01,-1.367454910278320312e+01,-1.062913984060287476e-01,-1.615247344970703125e+02,-5.623141288757324219e+00,-9.785727500915527344e+00,-3.390297889709472656e+00,-2.254660008475184441e-03,-3.913469910621643066e-01,1.285354852676391602e+00,-4.063263162970542908e-02,1.683828353881835938e+01,2.229742765426635742e+00,-6.306721210479736328e+00,1.000000000000000000e+00,-3.041229210793972015e-02,0.000000000000000000e+00
2.560195446014404297e+00,6.301029052734375000e+02,-1.367454910278320312e+01,-1.367454910278320312e+01,-1.062913984060287476e-01,-1.615247344970703125e+02,-5.623141288757324219e+00,-9.785727500915527344e+00,-3.390297889709472656e+00,-2.254660008475184441e-03,-3.913469910621643066e-01,1.285354852676391602e+00,-4.063263162970542908e-02,1.683828353881835938e+01,2.229742765426635742e+00,-6.306721210479736328e+00,1.000000000000000000e+00,-3.041229210793972015e-02,0.000000000000000000e+00
2.560195446014404297e+00,6.301029052734375000e+02,-1.367454910278320312e+01,-1.367454910278320312e+01,-1.062913984060287476e-01,-1.615247344970703125e+02,-5.623141288757324219e+00,-9.785727500915527344e+00,-3.390297889709472656e+00,-2.254660008475184441e-03,-3.913469910621643066e-01,1.285354852676391602e+00,-4.063263162970542908e-02,1.683828353881835938e+01,2.229742765426635742e+00,-6.306721210479736328e+00,1.000000000000000000e+00,-3.041229210793972015e-02,0.000000000000000000e+00
2.618730545043945312e+00,6.295148925781250000e+02,-1.386755084991455078e+01,-1.386755084991455078e+01,-2.708989381790161133e-01,-1.618271942138671875e+02,-4.592897415161132812e+00,-9.944624900817871094e+00,-3.390192747116088867e+00,6.682787556201219559e-03,-2.714566230773925781e+00,1.796231605112552643e-03,1.526852697134017944e-01,1.721881484985351562e+01,2.742228984832763672e+00,-4.051447391510009766e+00,1.000000000000000000e+00,-1.821339875459671021e-02,0.000000000000000000e+00
2.618730545043945312e+00,6.295148925781250000e+02,-1.386755084991455078e+01,-1.386755084991455078e+01,-2.708989381790161133e-01,-1.618271942138671875e+02,-4.592897415161132812e+00,-9.944624900817871094e+00,-3.390192747116088867e+00,6.682787556201219559e-03,-2.714566230773925781e+00,1.796231605112552643e-03,1.526852697134017944e-01,1.721881484985351562e+01,2.742228984832763672e+00,-4.051447391510009766e+00,1.000000000000000000e+00,-1.821339875459671021e-02,0.000000000000000000e+00
2.677334070205688477e+00,6.289247436523437500e+02,-1.405966854095458984e+01,-1.405966854095458984e+01,-3.887265324592590332e-01,-1.619998168945312500e+02,-3.604553699493408203e+00,-1.012103939056396484e+01,-3.402516126632690430e+00,1.193929370492696762e-02,-3.010305166244506836e+00,-2.102839350700378418e-01,8.969607204198837280e-02,1.629284286499023438e+01,3.628489017486572266e+00,-2.476474761962890625e+00,1.000000000000000000e+00,-1.234792079776525497e-02,0.000000000000000000e+00
2.677334070205688477e+00,6.289247436523437500e+02,-1.405966854095458984e+01,-1.405966854095458984e+01,-3.887265324592590332e-01,-1.619998168945312500e+02,-3.604553699493408203e+00,-1.012103939056396484e+01,-3.402516126632690430e+00,1.193929370492696762e-02,-3.010305166244506836e+00,-2.102839350700378418e-01,8.969607204198837280e-02,1.629284286499023438e+01,3.628489017486572266e+00,-2.476474761962890625e+00,1.000000000000000000e+00,-1.234792079776525497e-02,0.000000000000000000e+00
2.677334070205688477e+00,6.289247436523437500e+02,-1.405966854095458984e+01,-1.405966854095458984e+01,-3.887265324592590332e-01,-1.619998168945312500e+02,-3.604553699493408203e+00,-1.012103939056396484e+01,-3.402516126632690430e+00,1.193929370492696762e-02,-3.010305166244506836e+00,-2.102839350700378418e-01,8.969607204198837280e-02,1.629284286499023438e+01,3.628489017486572266e+00,-2.476474761962890625e+00,1.000000000000000000e+00,-1.234792079776525497e-02,0.000000000000000000e+00
2.677334070205688477e+00,6.289247436523437500e+02,-1.405966854095458984e+01,-1.405966854095458984e+01,-3.887265324592590332e-01,-1.619998168945312500e+02,-3.604553699493408203e+00,-1.012103939056396484e+01,-3.402516126632690430e+00,1.193929370492696762e-02,-3.010305166244506836e+00,-2.102839350700378418e-01,8.969607204198837280e-02,1.629284286499023438e+01,3.628489017486572266e+00,-2.476474761962890625e+00,1.000000000000000000e+00,-1.234792079776525497e-02,0.000000000000000000e+00
2.755024909973144531e+00,6.283225708007812500e+02,-1.425143146514892578e+01,-1.425143146514892578e+01,-4.659418165683746338e-01,-1.623261260986328125e+02,-2.706909418106079102e+00,-1.031269359588623047e+01,-3.397783517837524414e+00,1.165119186043739319e-02,-2.466882944107055664e+00,6.091591715812683105e-02,-3.708311589434742928e-03,1.411346054077148438e+01,3.278933286666870117e+00,-6.409720897674560547e+00,1.000000000000000000e+00,-4.078369215130805969e-02,0.000000000000000000e+00
2.755024909973144531e+00,6.283225708007812500e+02,-1.425143146514892578e+01,-1.425143146514892578e+01,-4.659418165683746338e-01,-1.623261260986328125e+02,-2.706909418106079102e+00,-1.031269359588623047e+01,-3.397783517837524414e+00,1.165119186043739319e-02,-2.466882944107055664e+00,6.091591715812683105e-02,-3.708311589434742928e-03,1.411346054077148438e+01,3.278933286666870117e+00,-6.409720897674560547e+00,1.000000000000000000e+00,-4.078369215130805969e-02,0.000000000000000000e+00
2.755024909973144531e+00,6.283225708007812500e+02,-1.425143146514892578e+01,-1.425143146514892578e+01,-4.659418165683746338e-01,-1.623261260986328125e+02,-2.706909418106079102e+00,-1.031269359588623047e+01,-3.397783517837524414e+00,1.165119186043739319e-02,-2.466882944107055664e+00,6.091591715812683105e-02,-3.708311589434742928e-03,1.411346054077148438e+01,3.278933286666870117e+00,-6.409720897674560547e+00,1.000000000000000000e+00,-4.078369215130805969e-02,0.000000000000000000e+00
2.830169916152954102e+00,6.275062866210937500e+02,-1.450521945953369141e+01,-1.450521945953369141e+01,-5.395507812500000000e-01,-1.628589324951171875e+02,-1.759429693222045898e+00,-1.058123302459716797e+01,-3.378620624542236328e+00,8.756745606660842896e-03,-3.573616266250610352e+00,2.550121843814849854e-01,-3.851814568042755127e-02,1.028150653839111328e+01,2.335859060287475586e+00,-6.908771038055419922e+00,1.000000000000000000e+00,-3.795216977596282959e-02,0.000000000000000000e+00
2.830169916152954102e+00,6.275062866210937500e+02,-1.450521945953369141e+01,-1.450521945953369141e+01,-5.395507812500000000e-01,-1.628589324951171875e+02,-1.759429693222045898e+00,-1.058123302459716797e+01,-3.378620624542236328e+00,8.756745606660842896e-03,-3.573616266250610352e+00,2.550121843814849854e-01,-3.851814568042755127e-02,1.028150653839111328e+01,2.335859060287475586e+00,-6.908771038055419922e+00,1.000000000000000000e+00,-3.795216977596282959e-02,0.000000000000000000e+00
2.830169916152954102e+00,6.275062866210937500e+02,-1.450521945953369141e+01,-1.450521945953369141e+01,-5.395507812500000000e-01,-1.628589324951171875e+02,-1.759429693222045898e+00,-1.058123302459716797e+01,-3.378620624542236328e+00,8.756745606660842896e-03,-3.573616266250610352e+00,2.550121843814849854e-01,-3.851814568042755127e-02,1.028150653839111328e+01,2.335859060287475586e+00,-6.908771038055419922e+00,1.000000000000000000e+00,-3.795216977596282959e-02,0.000000000000000000e+00
2.830169916152954102e+00,6.275062866210937500e+02,-1.450521945953369141e+01,-1.450521945953369141e+01,-5.395507812500000000e-01,-1.628589324951171875e+02,-1.759429693222045898e+00,-1.058123302459716797e+01,-3.378620624542236328e+00,8.756745606660842896e-03,-3.573616266250610352e+00,2.550121843814849854e-01,-3.851814568042755127e-02,1.028150653839111328e+01,2.335859060287475586e+00,-6.908771038055419922e+00,1.000000000000000000e+00,-3.795216977596282959e-02,0.000000000000000000e+00
2.830169916152954102e+00,6.275062866210937500e+02,-1.450521945953369141e+01,-1.450521945953369141e+01,-5.395507812500000000e-01,-1.628589324951171875e+02,-1.759429693222045898e+00,-1.058123302459716797e+01,-3.378620624542236328e+00,8.756745606660842896e-03,-3.573616266250610352e+00,2.550121843814849854e-01,-3.851814568042755127e-02,1.028150653839111328e+01,2.335859060287475586e+00,-6.908771038055419922e+00,1.000000000000000000e+00,-3.795216977596282959e-02,0.000000000000000000e+00
