# Time,X,Y,Z,Roll,Pitch,Yaw,Vx,Vy,Vz,Ax,Ay,Az,Wx,Wy,Wz,Throttle,Steer,Brake
0.000000000000000000e+00,-2.264482727050781250e+02,1.543130798339843750e+02,1.543130798339843750e+02,-1.806653290987014771e-01,1.526474456787109375e+02,1.550500541925430298e-01,-4.246160984039306641e+00,2.398718118667602539e+00,-7.651019375771284103e-03,3.714176416397094727e+00,-1.831069588661193848e+00,-7.319376617670059204e-02,-6.206697821617126465e-01,-4.212304055690765381e-01,-6.255957126617431641e+00,1.000000000000000000e+00,-4.915542528033256531e-02,0.000000000000000000e+00
1.045818328857421875e-01,-2.264482727050781250e+02,1.543130798339843750e+02,1.543130798339843750e+02,-1.806653290987014771e-01,1.526474456787109375e+02,1.550500541925430298e-01,-4.246160984039306641e+00,2.398718118667602539e+00,-7.651019375771284103e-03,3.714176416397094727e+00,-1.831069588661193848e+00,-7.319376617670059204e-02,-6.206697821617126465e-01,-4.212304055690765381e-01,-6.255957126617431641e+00,1.000000000000000000e+00,-4.915542528033256531e-02,0.000000000000000000e+00
1.045818328857421875e-01,-2.264482727050781250e+02,1.543130798339843750e+02,1.543130798339843750e+02,-1.806653290987014771e-01,1.526474456787109375e+02,1.550500541925430298e-01,-4.246160984039306641e+00,2.398718118667602539e+00,-7.651019375771284103e-03,3.714176416397094727e+00,-1.831069588661193848e+00,-7.319376617670059204e-02,-6.206697821617126465e-01,-4.212304055690765381e-01,-6.255957126617431641e+00,1.000000000000000000e+00,-4.915542528033256531e-02,0.000000000000000000e+00
1.045818328857421875e-01,-2.264482727050781250e+02,1.543130798339843750e+02,1.543130798339843750e+02,-1.806653290987014771e-01,1.526474456787109375e+02,1.550500541925430298e-01,-4.246160984039306641e+00,2.398718118667602539e+00,-7.651019375771284103e-03,3.714176416397094727e+00,-1.831069588661193848e+00,-7.319376617670059204e-02,-6.206697821617126465e-01,-4.212304055690765381e-01,-6.255957126617431641e+00,1.000000000000000000e+00,-4.915542528033256531e-02,0.000000000000000000e+00
1.045818328857421875e-01,-2.264482727050781250e+02,1.543130798339843750e+02,1.543130798339843750e+02,-1.806653290987014771e-01,1.526474456787109375e+02,1.550500541925430298e-01,-4.246160984039306641e+00,2.398718118667602539e+00,-7.651019375771284103e-03,3.714176416397094727e+00,-1.831069588661193848e+00,-7.319376617670059204e-02,-6.206697821617126465e-01,-4.212304055690765381e-01,-6.255957126617431641e+00,1.000000000000000000e+00,-4.915542528033256531e-02,0.000000000000000000e+00
1.045818328857421875e-01,-2.264482727050781250e+02,1.543130798339843750e+02,1.543130798339843750e+02,-1.806653290987014771e-01,1.526474456787109375e+02,1.550500541925430298e-01,-4.246160984039306641e+00,2.398718118667602539e+00,-7.651019375771284103e-03,3.714176416397094727e+00,-1.831069588661193848e+00,-7.319376617670059204e-02,-6.206697821617126465e-01,-4.212304055690765381e-01,-6.255957126617431641e+00,1.000000000000000000e+00,-4.915542528033256531e-02,0.000000000000000000e+00
1.045818328857421875e-01,-2.268652954101562500e+02,1.545464324951171875e+02,1.545464324951171875e+02,-1.980891376733779907e-01,1.520071563720703125e+02,1.459328085184097290e-01,-4.115880489349365234e+00,2.413400650024414062e+00,-2.776503097265958786e-03,1.244215846061706543e+00,1.402223706245422363e-01,4.655302315950393677e-02,4.143542051315307617e-02,1.894652247428894043e-01,-6.451620578765869141e+00,1.000000000000000000e+00,-5.639304965734481812e-02,0.000000000000000000e+00
2.092907428741455078e-01,-2.268652954101562500e+02,1.545464324951171875e+02,1.545464324951171875e+02,-1.980891376733779907e-01,1.520071563720703125e+02,1.459328085184097290e-01,-4.115880489349365234e+00,2.413400650024414062e+00,-2.776503097265958786e-03,1.244215846061706543e+00,1.402223706245422363e-01,4.655302315950393677e-02,4.143542051315307617e-02,1.894652247428894043e-01,-6.451620578765869141e+00,1.000000000000000000e+00,-5.639304965734481812e-02,0.000000000000000000e+00
2.092907428741455078e-01,-2.268652954101562500e+02,1.545464324951171875e+02,1.545464324951171875e+02,-1.980891376733779907e-01,1.520071563720703125e+02,1.459328085184097290e-01,-4.115880489349365234e+00,2.413400650024414062e+00,-2.776503097265958786e-03,1.244215846061706543e+00,1.402223706245422363e-01,4.655302315950393677e-02,4.143542051315307617e-02,1.894652247428894043e-01,-6.451620578765869141e+00,1.000000000000000000e+00,-5.639304965734481812e-02,0.000000000000000000e+00
2.092907428741455078e-01,-2.268652954101562500e+02,1.545464324951171875e+02,1.545464324951171875e+02,-1.980891376733779907e-01,1.520071563720703125e+02,1.459328085184097290e-01,-4.115880489349365234e+00,2.413400650024414062e+00,-2.776503097265958786e-03,1.244215846061706543e+00,1.402223706245422363e-01,4.655302315950393677e-02,4.143542051315307617e-02,1.894652247428894043e-01,-6.451620578765869141e+00,1.000000000000000000e+00,-5.639304965734481812e-02,0.000000000000000000e+00
2.092907428741455078e-01,-2.268652954101562500e+02,1.545464324951171875e+02,1.545464324951171875e+02,-1.980891376733779907e-01,1.520071563720703125e+02,1.459328085184097290e-01,-4.115880489349365234e+00,2.413400650024414062e+00,-2.776503097265958786e-03,1.244215846061706543e+00,1.402223706245422363e-01,4.655302315950393677e-02,4.143542051315307617e-02,1.894652247428894043e-01,-6.451620578765869141e+00,1.000000000000000000e+00,-5.639304965734481812e-02,0.000000000000000000e+00
2.092907428741455078e-01,-2.272874755859375000e+02,1.547876281738281250e+02,1.547876281738281250e+02,-1.412346512079238892e-01,1.514064025878906250e+02,1.281957924365997314e-01,-4.254975318908691406e+00,2.526360511779785156e+00,3.571677953004837036e-04,-1.864077687263488770e+00,1.513830304145812988e+00,4.199585318565368652e-02,2.608306407928466797e-01,7.391960620880126953e-01,-5.919500827789306641e+00,1.000000000000000000e+00,-4.931812360882759094e-02,0.000000000000000000e+00
2.839093208312988281e-01,-2.272874755859375000e+02,1.547876281738281250e+02,1.547876281738281250e+02,-1.412346512079238892e-01,1.514064025878906250e+02,1.281957924365997314e-01,-4.254975318908691406e+00,2.526360511779785156e+00,3.571677953004837036e-04,-1.864077687263488770e+00,1.513830304145812988e+00,4.199585318565368652e-02,2.608306407928466797e-01,7.391960620880126953e-01,-5.919500827789306641e+00,1.000000000000000000e+00,-4.931812360882759094e-02,0.000000000000000000e+00
2.839093208312988281e-01,-2.272874755859375000e+02,1.547876281738281250e+02,1.547876281738281250e+02,-1.412346512079238892e-01,1.514064025878906250e+02,1.281957924365997314e-01,-4.254975318908691406e+00,2.526360511779785156e+00,3.571677953004837036e-04,-1.864077687263488770e+00,1.513830304145812988e+00,4.199585318565368652e-02,2.608306407928466797e-01,7.391960620880126953e-01,-5.919500827789306641e+00,1.000000000000000000e+00,-4.931812360882759094e-02,0.000000000000000000e+00
2.839093208312988281e-01,-2.272874755859375000e+02,1.547876281738281250e+02,1.547876281738281250e+02,-1.412346512079238892e-01,1.514064025878906250e+02,1.281957924365997314e-01,-4.254975318908691406e+00,2.526360511779785156e+00,3.571677953004837036e-04,-1.864077687263488770e+00,1.513830304145812988e+00,4.199585318565368652e-02,2.608306407928466797e-01,7.391960620880126953e-01,-5.919500827789306641e+00,1.000000000000000000e+00,-4.931812360882759094e-02,0.000000000000000000e+00
2.839093208312988281e-01,-2.272874755859375000e+02,1.547876281738281250e+02,1.547876281738281250e+02,-1.412346512079238892e-01,1.514064025878906250e+02,1.281957924365997314e-01,-4.254975318908691406e+00,2.526360511779785156e+00,3.571677953004837036e-04,-1.864077687263488770e+00,1.513830304145812988e+00,4.199585318565368652e-02,2.608306407928466797e-01,7.391960620880126953e-01,-5.919500827789306641e+00,1.000000000000000000e+00,-4.931812360882759094e-02,0.000000000000000000e+00
3.569011688232421875e-01,-2.276156463623046875e+02,1.549773559570312500e+02,1.549773559570312500e+02,-7.138230651617050171e-02,1.509974365234375000e+02,1.107971444725990295e-01,-4.436232566833496094e+00,2.644927263259887695e+00,9.946329519152641296e-03,-2.483253240585327148e+00,1.624383449554443359e+00,1.313730478286743164e-01,3.276444673538208008e-01,9.663044810295104980e-01,-5.345492362976074219e+00,1.000000000000000000e+00,-4.213485866785049438e-02,0.000000000000000000e+00
3.569011688232421875e-01,-2.276156463623046875e+02,1.549773559570312500e+02,1.549773559570312500e+02,-7.138230651617050171e-02,1.509974365234375000e+02,1.107971444725990295e-01,-4.436232566833496094e+00,2.644927263259887695e+00,9.946329519152641296e-03,-2.483253240585327148e+00,1.624383449554443359e+00,1.313730478286743164e-01,3.276444673538208008e-01,9.663044810295104980e-01,-5.345492362976074219e+00,1.000000000000000000e+00,-4.213485866785049438e-02,0.000000000000000000e+00
3.569011688232421875e-01,-2.276156463623046875e+02,1.549773559570312500e+02,1.549773559570312500e+02,-7.138230651617050171e-02,1.509974365234375000e+02,1.107971444725990295e-01,-4.436232566833496094e+00,2.644927263259887695e+00,9.946329519152641296e-03,-2.483253240585327148e+00,1.624383449554443359e+00,1.313730478286743164e-01,3.276444673538208008e-01,9.663044810295104980e-01,-5.345492362976074219e+00,1.000000000000000000e+00,-4.213485866785049438e-02,0.000000000000000000e+00
3.569011688232421875e-01,-2.276156463623046875e+02,1.549773559570312500e+02,1.549773559570312500e+02,-7.138230651617050171e-02,1.509974365234375000e+02,1.107971444725990295e-01,-4.436232566833496094e+00,2.644927263259887695e+00,9.946329519152641296e-03,-2.483253240585327148e+00,1.624383449554443359e+00,1.313730478286743164e-01,3.276444673538208008e-01,9.663044810295104980e-01,-5.345492362976074219e+00,1.000000000000000000e+00,-4.213485866785049438e-02,0.000000000000000000e+00
4.765405654907226562e-01,-2.279509582519531250e+02,1.551728820800781250e+02,1.551728820800781250e+02,-5.190943484194576740e-04,1.506320343017578125e+02,9.684969484806060791e-02,-4.643328666687011719e+00,2.782479286193847656e+00,3.210047027096152306e-03,-1.731002569198608398e+00,1.149721860885620117e+00,-5.630488321185112000e-02,3.602344691753387451e-01,8.736907839775085449e-01,-4.915843963623046875e+00,1.000000000000000000e+00,-3.722419589757919312e-02,0.000000000000000000e+00
4.765405654907226562e-01,-2.279509582519531250e+02,1.551728820800781250e+02,1.551728820800781250e+02,-5.190943484194576740e-04,1.506320343017578125e+02,9.684969484806060791e-02,-4.643328666687011719e+00,2.782479286193847656e+00,3.210047027096152306e-03,-1.731002569198608398e+00,1.149721860885620117e+00,-5.630488321185112000e-02,3.602344691753387451e-01,8.736907839775085449e-01,-4.915843963623046875e+00,1.000000000000000000e+00,-3.722419589757919312e-02,0.000000000000000000e+00
4.765405654907226562e-01,-2.279509582519531250e+02,1.551728820800781250e+02,1.551728820800781250e+02,-5.190943484194576740e-04,1.506320343017578125e+02,9.684969484806060791e-02,-4.643328666687011719e+00,2.782479286193847656e+00,3.210047027096152306e-03,-1.731002569198608398e+00,1.149721860885620117e+00,-5.630488321185112000e-02,3.602344691753387451e-01,8.736907839775085449e-01,-4.915843963623046875e+00,1.000000000000000000e+00,-3.722419589757919312e-02,0.000000000000000000e+00
4.765405654907226562e-01,-2.279509582519531250e+02,1.551728820800781250e+02,1.551728820800781250e+02,-5.190943484194576740e-04,1.506320343017578125e+02,9.684969484806060791e-02,-4.643328666687011719e+00,2.782479286193847656e+00,3.210047027096152306e-03,-1.731002569198608398e+00,1.149721860885620117e+00,-5.630488321185112000e-02,3.602344691753387451e-01,8.736907839775085449e-01,-4.915843963623046875e+00,1.000000000000000000e+00,-3.722419589757919312e-02,0.000000000000000000e+00
4.765405654907226562e-01,-2.279509582519531250e+02,1.551728820800781250e+02,1.551728820800781250e+02,-5.190943484194576740e-04,1.506320343017578125e+02,9.684969484806060791e-02,-4.643328666687011719e+00,2.782479286193847656e+00,3.210047027096152306e-03,-1.731002569198608398e+00,1.149721860885620117e+00,-5.630488321185112000e-02,3.602344691753387451e-01,8.736907839775085449e-01,-4.915843963623046875e+00,1.000000000000000000e+00,-3.722419589757919312e-02,0.000000000000000000e+00
4.765405654907226562e-01,-2.279509582519531250e+02,1.551728820800781250e+02,1.551728820800781250e+02,-5.190943484194576740e-04,1.506320343017578125e+02,9.684969484806060791e-02,-4.643328666687011719e+00,2.782479286193847656e+00,3.210047027096152306e-03,-1.731002569198608398e+00,1.149721860885620117e+00,-5.630488321185112000e-02,3.602344691753387451e-01,8.736907839775085449e-01,-4.915843963623046875e+00,1.000000000000000000e+00,-3.722419589757919312e-02,0.000000000000000000e+00
4.765405654907226562e-01,-2.279509582519531250e+02,1.551728820800781250e+02,1.551728820800781250e+02,-5.190943484194576740e-04,1.506320343017578125e+02,9.684969484806060791e-02,-4.643328666687011719e+00,2.782479286193847656e+00,3.210047027096152306e-03,-1.731002569198608398e+00,1.149721860885620117e+00,-5.630488321185112000e-02,3.602344691753387451e-01,8.736907839775085449e-01,-4.915843963623046875e+00,1.000000000000000000e+00,-3.722419589757919312e-02,0.000000000000000000e+00
6.200885772705078125e-01,-2.284362640380859375e+02,1.554589843750000000e+02,1.554589843750000000e+02,8.461237698793411255e-02,1.501714477539062500e+02,8.656373620033264160e-02,-4.950444698333740234e+00,2.994347095489501953e+00,5.246241562417708337e-05,-2.139465570449829102e+00,1.475936889648437500e+00,-2.199671603739261627e-02,3.716562986373901367e-01,6.653510928153991699e-01,-4.564434051513671875e+00,1.000000000000000000e+00,-3.298492357134819031e-02,0.000000000000000000e+00
6.200885772705078125e-01,-2.284362640380859375e+02,1.554589843750000000e+02,1.554589843750000000e+02,8.461237698793411255e-02,1.501714477539062500e+02,8.656373620033264160e-02,-4.950444698333740234e+00,2.994347095489501953e+00,5.246241562417708337e-05,-2.139465570449829102e+00,1.475936889648437500e+00,-2.199671603739261627e-02,3.716562986373901367e-01,6.653510928153991699e-01,-4.564434051513671875e+00,1.000000000000000000e+00,-3.298492357134819031e-02,0.000000000000000000e+00
6.200885772705078125e-01,-2.284362640380859375e+02,1.554589843750000000e+02,1.554589843750000000e+02,8.461237698793411255e-02,1.501714477539062500e+02,8.656373620033264160e-02,-4.950444698333740234e+00,2.994347095489501953e+00,5.246241562417708337e-05,-2.139465570449829102e+00,1.475936889648437500e+00,-2.199671603739261627e-02,3.716562986373901367e-01,6.653510928153991699e-01,-4.564434051513671875e+00,1.000000000000000000e+00,-3.298492357134819031e-02,0.000000000000000000e+00
6.200885772705078125e-01,-2.284362640380859375e+02,1.554589843750000000e+02,1.554589843750000000e+02,8.461237698793411255e-02,1.501714477539062500e+02,8.656373620033264160e-02,-4.950444698333740234e+00,2.994347095489501953e+00,5.246241562417708337e-05,-2.139465570449829102e+00,1.475936889648437500e+00,-2.199671603739261627e-02,3.716562986373901367e-01,6.653510928153991699e-01,-4.564434051513671875e+00,1.000000000000000000e+00,-3.298492357134819031e-02,0.000000000000000000e+00
6.200885772705078125e-01,-2.284362640380859375e+02,1.554589843750000000e+02,1.554589843750000000e+02,8.461237698793411255e-02,1.501714477539062500e+02,8.656373620033264160e-02,-4.950444698333740234e+00,2.994347095489501953e+00,5.246241562417708337e-05,-2.139465570449829102e+00,1.475936889648437500e+00,-2.199671603739261627e-02,3.716562986373901367e-01,6.653510928153991699e-01,-4.564434051513671875e+00,1.000000000000000000e+00,-3.298492357134819031e-02,0.000000000000000000e+00
6.200885772705078125e-01,-2.284362640380859375e+02,1.554589843750000000e+02,1.554589843750000000e+02,8.461237698793411255e-02,1.501714477539062500e+02,8.656373620033264160e-02,-4.950444698333740234e+00,2.994347095489501953e+00,5.246241562417708337e-05,-2.139465570449829102e+00,1.475936889648437500e+00,-2.199671603739261627e-02,3.716562986373901367e-01,6.653510928153991699e-01,-4.564434051513671875e+00,1.000000000000000000e+00,-3.298492357134819031e-02,0.000000000000000000e+00
7.946169376373291016e-01,-2.289498901367187500e+02,1.557673645019531250e+02,1.557673645019531250e+02,1.425733566284179688e-01,1.496916961669921875e+02,9.629370272159576416e-02,-5.197520732879638672e+00,3.205448627471923828e+00,-6.359374965541064739e-04,-1.415678381919860840e+00,1.209554314613342285e+00,-3.944343887269496918e-03,2.957861423492431641e-01,2.900646328926086426e-01,-4.921186923980712891e+00,5.000000000000000000e-01,-3.443832322955131531e-02,0.000000000000000000e+00
7.946169376373291016e-01,-2.289498901367187500e+02,1.557673645019531250e+02,1.557673645019531250e+02,1.425733566284179688e-01,1.496916961669921875e+02,9.629370272159576416e-02,-5.197520732879638672e+00,3.205448627471923828e+00,-6.359374965541064739e-04,-1.415678381919860840e+00,1.209554314613342285e+00,-3.944343887269496918e-03,2.957861423492431641e-01,2.900646328926086426e-01,-4.921186923980712891e+00,5.000000000000000000e-01,-3.443832322955131531e-02,0.000000000000000000e+00
7.946169376373291016e-01,-2.289498901367187500e+02,1.557673645019531250e+02,1.557673645019531250e+02,1.425733566284179688e-01,1.496916961669921875e+02,9.629370272159576416e-02,-5.197520732879638672e+00,3.205448627471923828e+00,-6.359374965541064739e-04,-1.415678381919860840e+00,1.209554314613342285e+00,-3.944343887269496918e-03,2.957861423492431641e-01,2.900646328926086426e-01,-4.921186923980712891e+00,5.000000000000000000e-01,-3.443832322955131531e-02,0.000000000000000000e+00
7.946169376373291016e-01,-2.289498901367187500e+02,1.557673645019531250e+02,1.557673645019531250e+02,1.425733566284179688e-01,1.496916961669921875e+02,9.629370272159576416e-02,-5.197520732879638672e+00,3.205448627471923828e+00,-6.359374965541064739e-04,-1.415678381919860840e+00,1.209554314613342285e+00,-3.944343887269496918e-03,2.957861423492431641e-01,2.900646328926086426e-01,-4.921186923980712891e+00,5.000000000000000000e-01,-3.443832322955131531e-02,0.000000000000000000e+00
8.783230781555175781e-01,-2.294796447753906250e+02,1.560897979736328125e+02,1.560897979736328125e+02,1.539797782897949219e-01,1.492381286621093750e+02,9.207631647586822510e-02,-5.303264617919921875e+00,3.303997516632080078e+00,-6.010388606227934361e-04,-1.263275146484375000e+00,1.177319765090942383e+00,4.169184830971062183e-04,-4.599260166287422180e-02,-5.962439998984336853e-02,-4.413868427276611328e+00,5.000000000000000000e-01,-2.929191663861274719e-02,0.000000000000000000e+00
8.783230781555175781e-01,-2.294796447753906250e+02,1.560897979736328125e+02,1.560897979736328125e+02,1.539797782897949219e-01,1.492381286621093750e+02,9.207631647586822510e-02,-5.303264617919921875e+00,3.303997516632080078e+00,-6.010388606227934361e-04,-1.263275146484375000e+00,1.177319765090942383e+00,4.169184830971062183e-04,-4.599260166287422180e-02,-5.962439998984336853e-02,-4.413868427276611328e+00,5.000000000000000000e-01,-2.929191663861274719e-02,0.000000000000000000e+00
9.483780860900878906e-01,-2.299263305664062500e+02,1.563643646240234375e+02,1.563643646240234375e+02,1.345342248678207397e-01,1.489089965820312500e+02,8.184867352247238159e-02,-5.314425945281982422e+00,3.328398704528808594e+00,-4.515780310612171888e-04,-1.593223363161087036e-01,3.483146727085113525e-01,2.133478177711367607e-03,-2.411207407712936401e-01,-2.351918667554855347e-01,-3.743449211120605469e+00,5.000000000000000000e-01,-2.403965033590793610e-02,0.000000000000000000e+00
9.483780860900878906e-01,-2.299263305664062500e+02,1.563643646240234375e+02,1.563643646240234375e+02,1.345342248678207397e-01,1.489089965820312500e+02,8.184867352247238159e-02,-5.314425945281982422e+00,3.328398704528808594e+00,-4.515780310612171888e-04,-1.593223363161087036e-01,3.483146727085113525e-01,2.133478177711367607e-03,-2.411207407712936401e-01,-2.351918667554855347e-01,-3.743449211120605469e+00,5.000000000000000000e-01,-2.403965033590793610e-02,0.000000000000000000e+00
9.483780860900878906e-01,-2.299263305664062500e+02,1.563643646240234375e+02,1.563643646240234375e+02,1.345342248678207397e-01,1.489089965820312500e+02,8.184867352247238159e-02,-5.314425945281982422e+00,3.328398704528808594e+00,-4.515780310612171888e-04,-1.593223363161087036e-01,3.483146727085113525e-01,2.133478177711367607e-03,-2.411207407712936401e-01,-2.351918667554855347e-01,-3.743449211120605469e+00,5.000000000000000000e-01,-2.403965033590793610e-02,0.000000000000000000e+00
9.483780860900878906e-01,-2.299263305664062500e+02,1.563643646240234375e+02,1.563643646240234375e+02,1.345342248678207397e-01,1.489089965820312500e+02,8.184867352247238159e-02,-5.314425945281982422e+00,3.328398704528808594e+00,-4.515780310612171888e-04,-1.593223363161087036e-01,3.483146727085113525e-01,2.133478177711367607e-03,-2.411207407712936401e-01,-2.351918667554855347e-01,-3.743449211120605469e+00,5.000000000000000000e-01,-2.403965033590793610e-02,0.000000000000000000e+00
9.483780860900878906e-01,-2.302981719970703125e+02,1.565961608886718750e+02,1.565961608886718750e+02,1.069197729229927063e-01,1.486300506591796875e+02,8.813142031431198120e-02,-5.270743846893310547e+00,3.353276491165161133e+00,-3.417298721615225077e-04,5.543482899665832520e-01,3.157119154930114746e-01,1.394029706716537476e-03,-1.309191733598709106e-01,-4.196467697620391846e-01,-4.073167324066162109e+00,5.000000000000000000e-01,-2.836666069924831390e-02,0.000000000000000000e+00
1.027177095413208008e+00,-2.302981719970703125e+02,1.565961608886718750e+02,1.565961608886718750e+02,1.069197729229927063e-01,1.486300506591796875e+02,8.813142031431198120e-02,-5.270743846893310547e+00,3.353276491165161133e+00,-3.417298721615225077e-04,5.543482899665832520e-01,3.157119154930114746e-01,1.394029706716537476e-03,-1.309191733598709106e-01,-4.196467697620391846e-01,-4.073167324066162109e+00,5.000000000000000000e-01,-2.836666069924831390e-02,0.000000000000000000e+00
1.027177095413208008e+00,-2.302981719970703125e+02,1.565961608886718750e+02,1.565961608886718750e+02,1.069197729229927063e-01,1.486300506591796875e+02,8.813142031431198120e-02,-5.270743846893310547e+00,3.353276491165161133e+00,-3.417298721615225077e-04,5.543482899665832520e-01,3.157119154930114746e-01,1.394029706716537476e-03,-1.309191733598709106e-01,-4.196467697620391846e-01,-4.073167324066162109e+00,5.000000000000000000e-01,-2.836666069924831390e-02,0.000000000000000000e+00
1.095043420791625977e+00,-2.307123718261718750e+02,1.568570251464843750e+02,1.568570251464843750e+02,7.149158418178558350e-02,1.483213348388671875e+02,8.759762346744537354e-02,-5.211524963378906250e+00,3.345203161239624023e+00,-2.440067910356447101e-04,8.725812435150146484e-01,-1.189592927694320679e-01,1.439934712834656239e-03,-2.505239844322204590e-01,-3.720553517341613770e-01,-3.901176214218139648e+00,5.000000000000000000e-01,-2.560729905962944031e-02,0.000000000000000000e+00
1.095043420791625977e+00,-2.307123718261718750e+02,1.568570251464843750e+02,1.568570251464843750e+02,7.149158418178558350e-02,1.483213348388671875e+02,8.759762346744537354e-02,-5.211524963378906250e+00,3.345203161239624023e+00,-2.440067910356447101e-04,8.725812435150146484e-01,-1.189592927694320679e-01,1.439934712834656239e-03,-2.505239844322204590e-01,-3.720553517341613770e-01,-3.901176214218139648e+00,5.000000000000000000e-01,-2.560729905962944031e-02,0.000000000000000000e+00
1.095043420791625977e+00,-2.307123718261718750e+02,1.568570251464843750e+02,1.568570251464843750e+02,7.149158418178558350e-02,1.483213348388671875e+02,8.759762346744537354e-02,-5.211524963378906250e+00,3.345203161239624023e+00,-2.440067910356447101e-04,8.725812435150146484e-01,-1.189592927694320679e-01,1.439934712834656239e-03,-2.505239844322204590e-01,-3.720553517341613770e-01,-3.901176214218139648e+00,5.000000000000000000e-01,-2.560729905962944031e-02,0.000000000000000000e+00
1.095043420791625977e+00,-2.307123718261718750e+02,1.568570251464843750e+02,1.568570251464843750e+02,7.149158418178558350e-02,1.483213348388671875e+02,8.759762346744537354e-02,-5.211524963378906250e+00,3.345203161239624023e+00,-2.440067910356447101e-04,8.725812435150146484e-01,-1.189592927694320679e-01,1.439934712834656239e-03,-2.505239844322204590e-01,-3.720553517341613770e-01,-3.901176214218139648e+00,5.000000000000000000e-01,-2.560729905962944031e-02,0.000000000000000000e+00
1.168572425842285156e+00,-2.310649719238281250e+02,1.570807800292968750e+02,1.570807800292968750e+02,4.311215132474899292e-02,1.480831298828125000e+02,8.048015087842941284e-02,-5.153789520263671875e+00,3.323796033859252930e+00,-1.707608171273022890e-04,7.852063179016113281e-01,-2.911385297775268555e-01,9.961507748812437057e-04,-2.939409315586090088e-01,-2.920622527599334717e-01,-3.292500734329223633e+00,5.000000000000000000e-01,-2.217254601418972015e-02,0.000000000000000000e+00
1.168572425842285156e+00,-2.310649719238281250e+02,1.570807800292968750e+02,1.570807800292968750e+02,4.311215132474899292e-02,1.480831298828125000e+02,8.048015087842941284e-02,-5.153789520263671875e+00,3.323796033859252930e+00,-1.707608171273022890e-04,7.852063179016113281e-01,-2.911385297775268555e-01,9.961507748812437057e-04,-2.939409315586090088e-01,-2.920622527599334717e-01,-3.292500734329223633e+00,5.000000000000000000e-01,-2.217254601418972015e-02,0.000000000000000000e+00
1.168572425842285156e+00,-2.310649719238281250e+02,1.570807800292968750e+02,1.570807800292968750e+02,4.311215132474899292e-02,1.480831298828125000e+02,8.048015087842941284e-02,-5.153789520263671875e+00,3.323796033859252930e+00,-1.707608171273022890e-04,7.852063179016113281e-01,-2.911385297775268555e-01,9.961507748812437057e-04,-2.939409315586090088e-01,-2.920622527599334717e-01,-3.292500734329223633e+00,5.000000000000000000e-01,-2.217254601418972015e-02,0.000000000000000000e+00
1.168572425842285156e+00,-2.310649719238281250e+02,1.570807800292968750e+02,1.570807800292968750e+02,4.311215132474899292e-02,1.480831298828125000e+02,8.048015087842941284e-02,-5.153789520263671875e+00,3.323796033859252930e+00,-1.707608171273022890e-04,7.852063179016113281e-01,-2.911385297775268555e-01,9.961507748812437057e-04,-2.939409315586090088e-01,-2.920622527599334717e-01,-3.292500734329223633e+00,5.000000000000000000e-01,-2.217254601418972015e-02,0.000000000000000000e+00
1.168572425842285156e+00,-2.314420776367187500e+02,1.573214721679687500e+02,1.573214721679687500e+02,1.553867943584918976e-02,1.478538513183593750e+02,7.054322957992553711e-02,-5.083465576171875000e+00,3.292948484420776367e+00,-1.215183801832608879e-04,9.370473027229309082e-01,-4.110351502895355225e-01,6.561419577337801456e-04,-2.770136594772338867e-01,-2.396282553672790527e-01,-3.232703208923339844e+00,5.000000000000000000e-01,-1.942234113812446594e-02,0.000000000000000000e+00
1.243620872497558594e+00,-2.314420776367187500e+02,1.573214721679687500e+02,1.573214721679687500e+02,1.553867943584918976e-02,1.478538513183593750e+02,7.054322957992553711e-02,-5.083465576171875000e+00,3.292948484420776367e+00,-1.215183801832608879e-04,9.370473027229309082e-01,-4.110351502895355225e-01,6.561419577337801456e-04,-2.770136594772338867e-01,-2.396282553672790527e-01,-3.232703208923339844e+00,5.000000000000000000e-01,-1.942234113812446594e-02,0.000000000000000000e+00
1.243620872497558594e+00,-2.314420776367187500e+02,1.573214721679687500e+02,1.573214721679687500e+02,1.553867943584918976e-02,1.478538513183593750e+02,7.054322957992553711e-02,-5.083465576171875000e+00,3.292948484420776367e+00,-1.215183801832608879e-04,9.370473027229309082e-01,-4.110351502895355225e-01,6.561419577337801456e-04,-2.770136594772338867e-01,-2.396282553672790527e-01,-3.232703208923339844e+00,5.000000000000000000e-01,-1.942234113812446594e-02,0.000000000000000000e+00
1.243620872497558594e+00,-2.314420776367187500e+02,1.573214721679687500e+02,1.573214721679687500e+02,1.553867943584918976e-02,1.478538513183593750e+02,7.054322957992553711e-02,-5.083465576171875000e+00,3.292948484420776367e+00,-1.215183801832608879e-04,9.370473027229309082e-01,-4.110351502895355225e-01,6.561419577337801456e-04,-2.770136594772338867e-01,-2.396282553672790527e-01,-3.232703208923339844e+00,5.000000000000000000e-01,-1.942234113812446594e-02,0.000000000000000000e+00
1.312042951583862305e+00,-2.318187866210937500e+02,1.575683593750000000e+02,1.575683593750000000e+02,-8.271358907222747803e-03,1.475267944335937500e+02,1.080546975135803223e-01,-4.951922416687011719e+00,3.334450006484985352e+00,-8.658063597977161407e-05,1.922525048255920410e+00,6.065516471862792969e-01,5.106209428049623966e-04,2.327230423688888550e-01,-4.932335317134857178e-01,-4.485925674438476562e+00,5.000000000000000000e-01,-3.979206085205078125e-02,0.000000000000000000e+00
1.312042951583862305e+00,-2.318187866210937500e+02,1.575683593750000000e+02,1.575683593750000000e+02,-8.271358907222747803e-03,1.475267944335937500e+02,1.080546975135803223e-01,-4.951922416687011719e+00,3.334450006484985352e+00,-8.658063597977161407e-05,1.922525048255920410e+00,6.065516471862792969e-01,5.106209428049623966e-04,2.327230423688888550e-01,-4.932335317134857178e-01,-4.485925674438476562e+00,5.000000000000000000e-01,-3.979206085205078125e-02,0.000000000000000000e+00
1.312042951583862305e+00,-2.321559295654296875e+02,1.577926635742187500e+02,1.577926635742187500e+02,-2.517607621848583221e-02,1.471666412353515625e+02,1.211002096533775330e-01,-4.866010189056396484e+00,3.320888519287109375e+00,-6.321995169855654240e-05,1.208560466766357422e+00,-1.907746791839599609e-01,3.286237770225852728e-04,-4.359713196754455566e-02,-2.343001514673233032e-01,-5.692806243896484375e+00,5.000000000000000000e-01,-3.752784803509712219e-02,0.000000000000000000e+00
1.383129358291625977e+00,-2.321559295654296875e+02,1.577926635742187500e+02,1.577926635742187500e+02,-2.517607621848583221e-02,1.471666412353515625e+02,1.211002096533775330e-01,-4.866010189056396484e+00,3.320888519287109375e+00,-6.321995169855654240e-05,1.208560466766357422e+00,-1.907746791839599609e-01,3.286237770225852728e-04,-4.359713196754455566e-02,-2.343001514673233032e-01,-5.692806243896484375e+00,5.000000000000000000e-01,-3.752784803509712219e-02,0.000000000000000000e+00
1.383129358291625977e+00,-2.321559295654296875e+02,1.577926635742187500e+02,1.577926635742187500e+02,-2.517607621848583221e-02,1.471666412353515625e+02,1.211002096533775330e-01,-4.866010189056396484e+00,3.320888519287109375e+00,-6.321995169855654240e-05,1.208560466766357422e+00,-1.907746791839599609e-01,3.286237770225852728e-04,-4.359713196754455566e-02,-2.343001514673233032e-01,-5.692806243896484375e+00,5.000000000000000000e-01,-3.752784803509712219e-02,0.000000000000000000e+00
1.450951814651489258e+00,-2.325004577636718750e+02,1.580244140625000000e+02,1.580244140625000000e+02,-3.820807486772537231e-02,1.468227691650390625e+02,1.162155047059059143e-01,-4.786903858184814453e+00,3.296601295471191406e+00,-4.008676842204295099e-05,1.166373729705810547e+00,-3.581000268459320068e-01,3.410844365134835243e-04,-1.590876430273056030e-01,-8.867543935775756836e-02,-4.202755928039550781e+00,5.000000000000000000e-01,-3.384323045611381531e-02,0.000000000000000000e+00
1.450951814651489258e+00,-2.325004577636718750e+02,1.580244140625000000e+02,1.580244140625000000e+02,-3.820807486772537231e-02,1.468227691650390625e+02,1.162155047059059143e-01,-4.786903858184814453e+00,3.296601295471191406e+00,-4.008676842204295099e-05,1.166373729705810547e+00,-3.581000268459320068e-01,3.410844365134835243e-04,-1.590876430273056030e-01,-8.867543935775756836e-02,-4.202755928039550781e+00,5.000000000000000000e-01,-3.384323045611381531e-02,0.000000000000000000e+00
1.450951814651489258e+00,-2.325004577636718750e+02,1.580244140625000000e+02,1.580244140625000000e+02,-3.820807486772537231e-02,1.468227691650390625e+02,1.162155047059059143e-01,-4.786903858184814453e+00,3.296601295471191406e+00,-4.008676842204295099e-05,1.166373729705810547e+00,-3.581000268459320068e-01,3.410844365134835243e-04,-1.590876430273056030e-01,-8.867543935775756836e-02,-4.202755928039550781e+00,5.000000000000000000e-01,-3.384323045611381531e-02,0.000000000000000000e+00
1.527701377868652344e+00,-2.328240814208984375e+02,1.582437591552734375e+02,1.582437591552734375e+02,-4.708732292056083679e-02,1.465113525390625000e+02,1.045616790652275085e-01,-4.715260505676269531e+00,3.267264366149902344e+00,-2.516405220376327634e-05,9.334691762924194336e-01,-3.822422921657562256e-01,1.944338873727247119e-04,-1.919805258512496948e-01,-7.109038531780242920e-03,-4.860835552215576172e+00,5.000000000000000000e-01,-2.998809888958930969e-02,0.000000000000000000e+00
1.527701377868652344e+00,-2.328240814208984375e+02,1.582437591552734375e+02,1.582437591552734375e+02,-4.708732292056083679e-02,1.465113525390625000e+02,1.045616790652275085e-01,-4.715260505676269531e+00,3.267264366149902344e+00,-2.516405220376327634e-05,9.334691762924194336e-01,-3.822422921657562256e-01,1.944338873727247119e-04,-1.919805258512496948e-01,-7.109038531780242920e-03,-4.860835552215576172e+00,5.000000000000000000e-01,-2.998809888958930969e-02,0.000000000000000000e+00
1.527701377868652344e+00,-2.328240814208984375e+02,1.582437591552734375e+02,1.582437591552734375e+02,-4.708732292056083679e-02,1.465113525390625000e+02,1.045616790652275085e-01,-4.715260505676269531e+00,3.267264366149902344e+00,-2.516405220376327634e-05,9.334691762924194336e-01,-3.822422921657562256e-01,1.944338873727247119e-04,-1.919805258512496948e-01,-7.109038531780242920e-03,-4.860835552215576172e+00,5.000000000000000000e-01,-2.998809888958930969e-02,0.000000000000000000e+00
1.600134611129760742e+00,-2.331806945800781250e+02,1.584941406250000000e+02,1.584941406250000000e+02,-5.520158633589744568e-02,1.460512695312500000e+02,1.487791538238525391e-01,-4.560180187225341797e+00,3.322128772735595703e+00,-2.503010910004377365e-05,2.141010522842407227e+00,7.574480175971984863e-01,1.849194063652248587e-06,3.636064827442169189e-01,-3.652911186218261719e-01,-5.866824626922607422e+00,5.000000000000000000e-01,-5.585575103759765625e-02,0.000000000000000000e+00
1.600134611129760742e+00,-2.331806945800781250e+02,1.584941406250000000e+02,1.584941406250000000e+02,-5.520158633589744568e-02,1.460512695312500000e+02,1.487791538238525391e-01,-4.560180187225341797e+00,3.322128772735595703e+00,-2.503010910004377365e-05,2.141010522842407227e+00,7.574480175971984863e-01,1.849194063652248587e-06,3.636064827442169189e-01,-3.652911186218261719e-01,-5.866824626922607422e+00,5.000000000000000000e-01,-5.585575103759765625e-02,0.000000000000000000e+00
1.600134611129760742e+00,-2.331806945800781250e+02,1.584941406250000000e+02,1.584941406250000000e+02,-5.520158633589744568e-02,1.460512695312500000e+02,1.487791538238525391e-01,-4.560180187225341797e+00,3.322128772735595703e+00,-2.503010910004377365e-05,2.141010522842407227e+00,7.574480175971984863e-01,1.849194063652248587e-06,3.636064827442169189e-01,-3.652911186218261719e-01,-5.866824626922607422e+00,5.000000000000000000e-01,-5.585575103759765625e-02,0.000000000000000000e+00
1.600134611129760742e+00,-2.331806945800781250e+02,1.584941406250000000e+02,1.584941406250000000e+02,-5.520158633589744568e-02,1.460512695312500000e+02,1.487791538238525391e-01,-4.560180187225341797e+00,3.322128772735595703e+00,-2.503010910004377365e-05,2.141010522842407227e+00,7.574480175971984863e-01,1.849194063652248587e-06,3.636064827442169189e-01,-3.652911186218261719e-01,-5.866824626922607422e+00,5.000000000000000000e-01,-5.585575103759765625e-02,0.000000000000000000e+00
1.600134611129760742e+00,-2.331806945800781250e+02,1.584941406250000000e+02,1.584941406250000000e+02,-5.520158633589744568e-02,1.460512695312500000e+02,1.487791538238525391e-01,-4.560180187225341797e+00,3.322128772735595703e+00,-2.503010910004377365e-05,2.141010522842407227e+00,7.574480175971984863e-01,1.849194063652248587e-06,3.636064827442169189e-01,-3.652911186218261719e-01,-5.866824626922607422e+00,5.000000000000000000e-01,-5.585575103759765625e-02,0.000000000000000000e+00
1.600134611129760742e+00,-2.335097045898437500e+02,1.587295227050781250e+02,1.587295227050781250e+02,-6.097309663891792297e-02,1.455368499755859375e+02,1.597607284784317017e-01,-4.462688922882080078e+00,3.308043718338012695e+00,-1.909932871058117598e-05,8.449664115905761719e-01,-1.220765635371208191e-01,5.140266148373484612e-05,-7.991357706487178802e-03,-7.204012572765350342e-02,-7.780158996582031250e+00,5.000000000000000000e-01,-5.216007307171821594e-02,0.000000000000000000e+00
1.715513467788696289e+00,-2.335097045898437500e+02,1.587295227050781250e+02,1.587295227050781250e+02,-6.097309663891792297e-02,1.455368499755859375e+02,1.597607284784317017e-01,-4.462688922882080078e+00,3.308043718338012695e+00,-1.909932871058117598e-05,8.449664115905761719e-01,-1.220765635371208191e-01,5.140266148373484612e-05,-7.991357706487178802e-03,-7.204012572765350342e-02,-7.780158996582031250e+00,5.000000000000000000e-01,-5.216007307171821594e-02,0.000000000000000000e+00
1.715513467788696289e+00,-2.335097045898437500e+02,1.587295227050781250e+02,1.587295227050781250e+02,-6.097309663891792297e-02,1.455368499755859375e+02,1.597607284784317017e-01,-4.462688922882080078e+00,3.308043718338012695e+00,-1.909932871058117598e-05,8.449664115905761719e-01,-1.220765635371208191e-01,5.140266148373484612e-05,-7.991357706487178802e-03,-7.204012572765350342e-02,-7.780158996582031250e+00,5.000000000000000000e-01,-5.216007307171821594e-02,0.000000000000000000e+00
1.715513467788696289e+00,-2.335097045898437500e+02,1.587295227050781250e+02,1.587295227050781250e+02,-6.097309663891792297e-02,1.455368499755859375e+02,1.597607284784317017e-01,-4.462688922882080078e+00,3.308043718338012695e+00,-1.909932871058117598e-05,8.449664115905761719e-01,-1.220765635371208191e-01,5.140266148373484612e-05,-7.991357706487178802e-03,-7.204012572765350342e-02,-7.780158996582031250e+00,5.000000000000000000e-01,-5.216007307171821594e-02,0.000000000000000000e+00
1.813115119934082031e+00,-2.339532623291015625e+02,1.590521697998046875e+02,1.590521697998046875e+02,-6.546053290367126465e-02,1.448881378173828125e+02,1.436334103345870972e-01,-4.349258899688720703e+00,3.276874542236328125e+00,-6.216920155566185713e-06,1.162173271179199219e+00,-3.193509280681610107e-01,1.319896546192467213e-04,-1.247762069106101990e-01,7.393521815538406372e-02,-7.752171039581298828e+00,1.000000000000000000e+00,-4.666709899902343750e-02,0.000000000000000000e+00
1.813115119934082031e+00,-2.339532623291015625e+02,1.590521697998046875e+02,1.590521697998046875e+02,-6.546053290367126465e-02,1.448881378173828125e+02,1.436334103345870972e-01,-4.349258899688720703e+00,3.276874542236328125e+00,-6.216920155566185713e-06,1.162173271179199219e+00,-3.193509280681610107e-01,1.319896546192467213e-04,-1.247762069106101990e-01,7.393521815538406372e-02,-7.752171039581298828e+00,1.000000000000000000e+00,-4.666709899902343750e-02,0.000000000000000000e+00
1.813115119934082031e+00,-2.339532623291015625e+02,1.590521697998046875e+02,1.590521697998046875e+02,-6.546053290367126465e-02,1.448881378173828125e+02,1.436334103345870972e-01,-4.349258899688720703e+00,3.276874542236328125e+00,-6.216920155566185713e-06,1.162173271179199219e+00,-3.193509280681610107e-01,1.319896546192467213e-04,-1.247762069106101990e-01,7.393521815538406372e-02,-7.752171039581298828e+00,1.000000000000000000e+00,-4.666709899902343750e-02,0.000000000000000000e+00
1.813115119934082031e+00,-2.339532623291015625e+02,1.590521697998046875e+02,1.590521697998046875e+02,-6.546053290367126465e-02,1.448881378173828125e+02,1.436334103345870972e-01,-4.349258899688720703e+00,3.276874542236328125e+00,-6.216920155566185713e-06,1.162173271179199219e+00,-3.193509280681610107e-01,1.319896546192467213e-04,-1.247762069106101990e-01,7.393521815538406372e-02,-7.752171039581298828e+00,1.000000000000000000e+00,-4.666709899902343750e-02,0.000000000000000000e+00
1.896134853363037109e+00,-2.343813171386718750e+02,1.593683013916015625e+02,1.593683013916015625e+02,-5.227826535701751709e-02,1.443470611572265625e+02,1.198141053318977356e-01,-4.361599445343017578e+00,3.316735267639160156e+00,1.830756787057907786e-06,-1.486459374427795410e-01,4.801355600357055664e-01,9.693691390566527843e-05,1.568282395601272583e-02,2.962591648101806641e-01,-6.618590354919433594e+00,1.000000000000000000e+00,-3.922329097986221313e-02,0.000000000000000000e+00
1.896134853363037109e+00,-2.343813171386718750e+02,1.593683013916015625e+02,1.593683013916015625e+02,-5.227826535701751709e-02,1.443470611572265625e+02,1.198141053318977356e-01,-4.361599445343017578e+00,3.316735267639160156e+00,1.830756787057907786e-06,-1.486459374427795410e-01,4.801355600357055664e-01,9.693691390566527843e-05,1.568282395601272583e-02,2.962591648101806641e-01,-6.618590354919433594e+00,1.000000000000000000e+00,-3.922329097986221313e-02,0.000000000000000000e+00
1.896134853363037109e+00,-2.343813171386718750e+02,1.593683013916015625e+02,1.593683013916015625e+02,-5.227826535701751709e-02,1.443470611572265625e+02,1.198141053318977356e-01,-4.361599445343017578e+00,3.316735267639160156e+00,1.830756787057907786e-06,-1.486459374427795410e-01,4.801355600357055664e-01,9.693691390566527843e-05,1.568282395601272583e-02,2.962591648101806641e-01,-6.618590354919433594e+00,1.000000000000000000e+00,-3.922329097986221313e-02,0.000000000000000000e+00
1.896134853363037109e+00,-2.343813171386718750e+02,1.593683013916015625e+02,1.593683013916015625e+02,-5.227826535701751709e-02,1.443470611572265625e+02,1.198141053318977356e-01,-4.361599445343017578e+00,3.316735267639160156e+00,1.830756787057907786e-06,-1.486459374427795410e-01,4.801355600357055664e-01,9.693691390566527843e-05,1.568282395601272583e-02,2.962591648101806641e-01,-6.618590354919433594e+00,1.000000000000000000e+00,-3.922329097986221313e-02,0.000000000000000000e+00
1.896134853363037109e+00,-2.343813171386718750e+02,1.593683013916015625e+02,1.593683013916015625e+02,-5.227826535701751709e-02,1.443470611572265625e+02,1.198141053318977356e-01,-4.361599445343017578e+00,3.316735267639160156e+00,1.830756787057907786e-06,-1.486459374427795410e-01,4.801355600357055664e-01,9.693691390566527843e-05,1.568282395601272583e-02,2.962591648101806641e-01,-6.618590354919433594e+00,1.000000000000000000e+00,-3.922329097986221313e-02,0.000000000000000000e+00
1.896134853363037109e+00,-2.343813171386718750e+02,1.593683013916015625e+02,1.593683013916015625e+02,-5.227826535701751709e-02,1.443470611572265625e+02,1.198141053318977356e-01,-4.361599445343017578e+00,3.316735267639160156e+00,1.830756787057907786e-06,-1.486459374427795410e-01,4.801355600357055664e-01,9.693691390566527843e-05,1.568282395601272583e-02,2.962591648101806641e-01,-6.618590354919433594e+00,1.000000000000000000e+00,-3.922329097986221313e-02,0.000000000000000000e+00
1.896134853363037109e+00,-2.343813171386718750e+02,1.593683013916015625e+02,1.593683013916015625e+02,-5.227826535701751709e-02,1.443470611572265625e+02,1.198141053318977356e-01,-4.361599445343017578e+00,3.316735267639160156e+00,1.830756787057907786e-06,-1.486459374427795410e-01,4.801355600357055664e-01,9.693691390566527843e-05,1.568282395601272583e-02,2.962591648101806641e-01,-6.618590354919433594e+00,1.000000000000000000e+00,-3.922329097986221313e-02,0.000000000000000000e+00
2.195794820785522461e+00,-2.356004638671875000e+02,1.603310852050781250e+02,1.603310852050781250e+02,5.804977566003799438e-02,1.422303161621093750e+02,1.744459271430969238e-01,-4.588282585144042969e+00,3.835681915283203125e+00,-5.625856260849104729e-07,-1.778627276420593262e+00,2.375573158264160156e+00,1.550551969558000565e-04,9.083608537912368774e-02,3.171764016151428223e-01,-7.145621776580810547e+00,5.000000000000000000e-01,-5.284671857953071594e-02,0.000000000000000000e+00
2.195794820785522461e+00,-2.356004638671875000e+02,1.603310852050781250e+02,1.603310852050781250e+02,5.804977566003799438e-02,1.422303161621093750e+02,1.744459271430969238e-01,-4.588282585144042969e+00,3.835681915283203125e+00,-5.625856260849104729e-07,-1.778627276420593262e+00,2.375573158264160156e+00,1.550551969558000565e-04,9.083608537912368774e-02,3.171764016151428223e-01,-7.145621776580810547e+00,5.000000000000000000e-01,-5.284671857953071594e-02,0.000000000000000000e+00
2.195794820785522461e+00,-2.356004638671875000e+02,1.603310852050781250e+02,1.603310852050781250e+02,5.804977566003799438e-02,1.422303161621093750e+02,1.744459271430969238e-01,-4.588282585144042969e+00,3.835681915283203125e+00,-5.625856260849104729e-07,-1.778627276420593262e+00,2.375573158264160156e+00,1.550551969558000565e-04,9.083608537912368774e-02,3.171764016151428223e-01,-7.145621776580810547e+00,5.000000000000000000e-01,-5.284671857953071594e-02,0.000000000000000000e+00
2.195794820785522461e+00,-2.356004638671875000e+02,1.603310852050781250e+02,1.603310852050781250e+02,5.804977566003799438e-02,1.422303161621093750e+02,1.744459271430969238e-01,-4.588282585144042969e+00,3.835681915283203125e+00,-5.625856260849104729e-07,-1.778627276420593262e+00,2.375573158264160156e+00,1.550551969558000565e-04,9.083608537912368774e-02,3.171764016151428223e-01,-7.145621776580810547e+00,5.000000000000000000e-01,-5.284671857953071594e-02,0.000000000000000000e+00
2.195794820785522461e+00,-2.356004638671875000e+02,1.603310852050781250e+02,1.603310852050781250e+02,5.804977566003799438e-02,1.422303161621093750e+02,1.744459271430969238e-01,-4.588282585144042969e+00,3.835681915283203125e+00,-5.625856260849104729e-07,-1.778627276420593262e+00,2.375573158264160156e+00,1.550551969558000565e-04,9.083608537912368774e-02,3.171764016151428223e-01,-7.145621776580810547e+00,5.000000000000000000e-01,-5.284671857953071594e-02,0.000000000000000000e+00
2.195794820785522461e+00,-2.356004638671875000e+02,1.603310852050781250e+02,1.603310852050781250e+02,5.804977566003799438e-02,1.422303161621093750e+02,1.744459271430969238e-01,-4.588282585144042969e+00,3.835681915283203125e+00,-5.625856260849104729e-07,-1.778627276420593262e+00,2.375573158264160156e+00,1.550551969558000565e-04,9.083608537912368774e-02,3.171764016151428223e-01,-7.145621776580810547e+00,5.000000000000000000e-01,-5.284671857953071594e-02,0.000000000000000000e+00
2.195794820785522461e+00,-2.356004638671875000e+02,1.603310852050781250e+02,1.603310852050781250e+02,5.804977566003799438e-02,1.422303161621093750e+02,1.744459271430969238e-01,-4.588282585144042969e+00,3.835681915283203125e+00,-5.625856260849104729e-07,-1.778627276420593262e+00,2.375573158264160156e+00,1.550551969558000565e-04,9.083608537912368774e-02,3.171764016151428223e-01,-7.145621776580810547e+00,5.000000000000000000e-01,-5.284671857953071594e-02,0.000000000000000000e+00
2.195794820785522461e+00,-2.356004638671875000e+02,1.603310852050781250e+02,1.603310852050781250e+02,5.804977566003799438e-02,1.422303161621093750e+02,1.744459271430969238e-01,-4.588282585144042969e+00,3.835681915283203125e+00,-5.625856260849104729e-07,-1.778627276420593262e+00,2.375573158264160156e+00,1.550551969558000565e-04,9.083608537912368774e-02,3.171764016151428223e-01,-7.145621776580810547e+00,5.000000000000000000e-01,-5.284671857953071594e-02,0.000000000000000000e+00
2.195794820785522461e+00,-2.356004638671875000e+02,1.603310852050781250e+02,1.603310852050781250e+02,5.804977566003799438e-02,1.422303161621093750e+02,1.744459271430969238e-01,-4.588282585144042969e+00,3.835681915283203125e+00,-5.625856260849104729e-07,-1.778627276420593262e+00,2.375573158264160156e+00,1.550551969558000565e-04,9.083608537912368774e-02,3.171764016151428223e-01,-7.145621776580810547e+00,5.000000000000000000e-01,-5.284671857953071594e-02,0.000000000000000000e+00
2.195794820785522461e+00,-2.356004638671875000e+02,1.603310852050781250e+02,1.603310852050781250e+02,5.804977566003799438e-02,1.422303161621093750e+02,1.744459271430969238e-01,-4.588282585144042969e+00,3.835681915283203125e+00,-5.625856260849104729e-07,-1.778627276420593262e+00,2.375573158264160156e+00,1.550551969558000565e-04,9.083608537912368774e-02,3.171764016151428223e-01,-7.145621776580810547e+00,5.000000000000000000e-01,-5.284671857953071594e-02,0.000000000000000000e+00
2.374083757400512695e+00,-2.358456420898437500e+02,1.605357208251953125e+02,1.605357208251953125e+02,6.944253295660018921e-02,1.417424468994140625e+02,2.077882438898086548e-01,-4.553225040435791016e+00,3.973882675170898438e+00,-1.046995475917356089e-05,1.966333091259002686e-01,7.751504778861999512e-01,-5.556917676585726440e-05,6.721425056457519531e-01,-3.149201273918151855e-01,-9.680203437805175781e+00,5.000000000000000000e-01,-7.867946475744247437e-02,0.000000000000000000e+00
2.374083757400512695e+00,-2.358456420898437500e+02,1.605357208251953125e+02,1.605357208251953125e+02,6.944253295660018921e-02,1.417424468994140625e+02,2.077882438898086548e-01,-4.553225040435791016e+00,3.973882675170898438e+00,-1.046995475917356089e-05,1.966333091259002686e-01,7.751504778861999512e-01,-5.556917676585726440e-05,6.721425056457519531e-01,-3.149201273918151855e-01,-9.680203437805175781e+00,5.000000000000000000e-01,-7.867946475744247437e-02,0.000000000000000000e+00
2.374083757400512695e+00,-2.358456420898437500e+02,1.605357208251953125e+02,1.605357208251953125e+02,6.944253295660018921e-02,1.417424468994140625e+02,2.077882438898086548e-01,-4.553225040435791016e+00,3.973882675170898438e+00,-1.046995475917356089e-05,1.966333091259002686e-01,7.751504778861999512e-01,-5.556917676585726440e-05,6.721425056457519531e-01,-3.149201273918151855e-01,-9.680203437805175781e+00,5.000000000000000000e-01,-7.867946475744247437e-02,0.000000000000000000e+00
2.447860002517700195e+00,-2.363054656982421875e+02,1.609316711425781250e+02,1.609316711425781250e+02,7.077441364526748657e-02,1.407132110595703125e+02,2.408342212438583374e-01,-4.501372814178466797e+00,4.080438613891601562e+00,-9.592364222044125199e-06,7.028309106826782227e-01,1.444312334060668945e+00,1.189529939438216388e-05,3.322339057922363281e-02,-1.761583983898162842e-01,-9.614670753479003906e+00,5.000000000000000000e-01,-7.469081878662109375e-02,0.000000000000000000e+00
2.447860002517700195e+00,-2.363054656982421875e+02,1.609316711425781250e+02,1.609316711425781250e+02,7.077441364526748657e-02,1.407132110595703125e+02,2.408342212438583374e-01,-4.501372814178466797e+00,4.080438613891601562e+00,-9.592364222044125199e-06,7.028309106826782227e-01,1.444312334060668945e+00,1.189529939438216388e-05,3.322339057922363281e-02,-1.761583983898162842e-01,-9.614670753479003906e+00,5.000000000000000000e-01,-7.469081878662109375e-02,0.000000000000000000e+00
2.500878810882568359e+00,-2.366405181884765625e+02,1.612263793945312500e+02,1.612263793945312500e+02,5.593241751194000244e-02,1.399808197021484375e+02,2.236029952764511108e-01,-4.450242996215820312e+00,4.085217952728271484e+00,1.601936332917830441e-06,9.643713235855102539e-01,9.014420956373214722e-02,2.111382927978411317e-04,-3.317844569683074951e-01,-3.586585074663162231e-02,-1.013614845275878906e+01,5.000000000000000000e-01,-6.361732631921768188e-02,0.000000000000000000e+00
2.500878810882568359e+00,-2.366405181884765625e+02,1.612263793945312500e+02,1.612263793945312500e+02,5.593241751194000244e-02,1.399808197021484375e+02,2.236029952764511108e-01,-4.450242996215820312e+00,4.085217952728271484e+00,1.601936332917830441e-06,9.643713235855102539e-01,9.014420956373214722e-02,2.111382927978411317e-04,-3.317844569683074951e-01,-3.586585074663162231e-02,-1.013614845275878906e+01,5.000000000000000000e-01,-6.361732631921768188e-02,0.000000000000000000e+00
2.500878810882568359e+00,-2.366405181884765625e+02,1.612263793945312500e+02,1.612263793945312500e+02,5.593241751194000244e-02,1.399808197021484375e+02,2.236029952764511108e-01,-4.450242996215820312e+00,4.085217952728271484e+00,1.601936332917830441e-06,9.643713235855102539e-01,9.014420956373214722e-02,2.111382927978411317e-04,-3.317844569683074951e-01,-3.586585074663162231e-02,-1.013614845275878906e+01,5.000000000000000000e-01,-6.361732631921768188e-02,0.000000000000000000e+00
2.560195446014404297e+00,-2.368787384033203125e+02,1.614387817382812500e+02,1.614387817382812500e+02,4.269551113247871399e-02,1.395191650390625000e+02,2.038419395685195923e-01,-4.418564796447753906e+00,4.082669258117675781e+00,7.456744697265094146e-06,5.340525507926940918e-01,-4.296761751174926758e-02,9.870432404568418860e-05,-4.302629828453063965e-01,3.358774632215499878e-02,-8.823779106140136719e+00,5.000000000000000000e-01,-5.523185804486274719e-02,0.000000000000000000e+00
2.560195446014404297e+00,-2.368787384033203125e+02,1.614387817382812500e+02,1.614387817382812500e+02,4.269551113247871399e-02,1.395191650390625000e+02,2.038419395685195923e-01,-4.418564796447753906e+00,4.082669258117675781e+00,7.456744697265094146e-06,5.340525507926940918e-01,-4.296761751174926758e-02,9.870432404568418860e-05,-4.302629828453063965e-01,3.358774632215499878e-02,-8.823779106140136719e+00,5.000000000000000000e-01,-5.523185804486274719e-02,0.000000000000000000e+00
2.560195446014404297e+00,-2.371425781250000000e+02,1.616766052246093750e+02,1.616766052246093750e+02,2.725245244801044464e-02,1.390570220947265625e+02,1.807884871959686279e-01,-4.373283386230468750e+00,4.073554992675781250e+00,1.009791230899281800e-05,7.735770344734191895e-01,-1.557059884071350098e-01,4.512109080678783357e-05,-4.176310002803802490e-01,1.330629177391529083e-02,-8.150170326232910156e+00,5.000000000000000000e-01,-4.989166185259819031e-02,0.000000000000000000e+00
2.618730545043945312e+00,-2.371425781250000000e+02,1.616766052246093750e+02,1.616766052246093750e+02,2.725245244801044464e-02,1.390570220947265625e+02,1.807884871959686279e-01,-4.373283386230468750e+00,4.073554992675781250e+00,1.009791230899281800e-05,7.735770344734191895e-01,-1.557059884071350098e-01,4.512109080678783357e-05,-4.176310002803802490e-01,1.330629177391529083e-02,-8.150170326232910156e+00,5.000000000000000000e-01,-4.989166185259819031e-02,0.000000000000000000e+00
2.618730545043945312e+00,-2.373962402343750000e+02,1.619138793945312500e+02,1.619138793945312500e+02,1.097611337900161743e-02,1.385089416503906250e+02,2.184297293424606323e-01,-4.225986957550048828e+00,4.144923686981201172e+00,4.195552776309341425e-07,2.513439655303955078e+00,1.217822551727294922e+00,-1.651497441343963146e-04,3.579824864864349365e-01,-6.845140457153320312e-01,-1.078866863250732422e+01,5.000000000000000000e-01,-8.150005340576171875e-02,0.000000000000000000e+00
2.677334070205688477e+00,-2.373962402343750000e+02,1.619138793945312500e+02,1.619138793945312500e+02,1.097611337900161743e-02,1.385089416503906250e+02,2.184297293424606323e-01,-4.225986957550048828e+00,4.144923686981201172e+00,4.195552776309341425e-07,2.513439655303955078e+00,1.217822551727294922e+00,-1.651497441343963146e-04,3.579824864864349365e-01,-6.845140457153320312e-01,-1.078866863250732422e+01,5.000000000000000000e-01,-8.150005340576171875e-02,0.000000000000000000e+00
2.677334070205688477e+00,-2.373962402343750000e+02,1.619138793945312500e+02,1.619138793945312500e+02,1.097611337900161743e-02,1.385089416503906250e+02,2.184297293424606323e-01,-4.225986957550048828e+00,4.144923686981201172e+00,4.195552776309341425e-07,2.513439655303955078e+00,1.217822551727294922e+00,-1.651497441343963146e-04,3.579824864864349365e-01,-6.845140457153320312e-01,-1.078866863250732422e+01,5.000000000000000000e-01,-8.150005340576171875e-02,0.000000000000000000e+00
2.677334070205688477e+00,-2.373962402343750000e+02,1.619138793945312500e+02,1.619138793945312500e+02,1.097611337900161743e-02,1.385089416503906250e+02,2.184297293424606323e-01,-4.225986957550048828e+00,4.144923686981201172e+00,4.195552776309341425e-07,2.513439655303955078e+00,1.217822551727294922e+00,-1.651497441343963146e-04,3.579824864864349365e-01,-6.845140457153320312e-01,-1.078866863250732422e+01,5.000000000000000000e-01,-8.150005340576171875e-02,0.000000000000000000e+00
2.755024909973144531e+00,-2.376448364257812500e+02,1.621522674560546875e+02,1.621522674560546875e+02,-4.118603654205799103e-03,1.378985595703125000e+02,2.399649769067764282e-01,-4.138071060180664062e+00,4.152465820312500000e+00,-1.067005177901592106e-05,1.131612181663513184e+00,9.707880020141601562e-02,-1.427402166882529855e-04,-4.032599274069070816e-03,-3.285108804702758789e-01,-1.124190330505371094e+01,5.000000000000000000e-01,-7.717609405517578125e-02,0.000000000000000000e+00
2.755024909973144531e+00,-2.376448364257812500e+02,1.621522674560546875e+02,1.621522674560546875e+02,-4.118603654205799103e-03,1.378985595703125000e+02,2.399649769067764282e-01,-4.138071060180664062e+00,4.152465820312500000e+00,-1.067005177901592106e-05,1.131612181663513184e+00,9.707880020141601562e-02,-1.427402166882529855e-04,-4.032599274069070816e-03,-3.285108804702758789e-01,-1.124190330505371094e+01,5.000000000000000000e-01,-7.717609405517578125e-02,0.000000000000000000e+00
2.755024909973144531e+00,-2.376448364257812500e+02,1.621522674560546875e+02,1.621522674560546875e+02,-4.118603654205799103e-03,1.378985595703125000e+02,2.399649769067764282e-01,-4.138071060180664062e+00,4.152465820312500000e+00,-1.067005177901592106e-05,1.131612181663513184e+00,9.707880020141601562e-02,-1.427402166882529855e-04,-4.032599274069070816e-03,-3.285108804702758789e-01,-1.124190330505371094e+01,5.000000000000000000e-01,-7.717609405517578125e-02,0.000000000000000000e+00
2.830169916152954102e+00,-2.379672393798828125e+02,1.624677276611328125e+02,1.624677276611328125e+02,-2.176098152995109558e-02,1.371276550292968750e+02,2.329226732254028320e-01,-4.035512447357177734e+00,4.135740280151367188e+00,-1.067949256139399949e-06,1.364809393882751465e+00,-2.225768566131591797e-01,1.277809788007289171e-04,-2.391609847545623779e-01,-7.298445701599121094e-02,-8.930212020874023438e+00,5.000000000000000000e-01,-7.091808319091796875e-02,0.000000000000000000e+00
2.830169916152954102e+00,-2.379672393798828125e+02,1.624677276611328125e+02,1.624677276611328125e+02,-2.176098152995109558e-02,1.371276550292968750e+02,2.329226732254028320e-01,-4.035512447357177734e+00,4.135740280151367188e+00,-1.067949256139399949e-06,1.364809393882751465e+00,-2.225768566131591797e-01,1.277809788007289171e-04,-2.391609847545623779e-01,-7.298445701599121094e-02,-8.930212020874023438e+00,5.000000000000000000e-01,-7.091808319091796875e-02,0.000000000000000000e+00
2.830169916152954102e+00,-2.379672393798828125e+02,1.624677276611328125e+02,1.624677276611328125e+02,-2.176098152995109558e-02,1.371276550292968750e+02,2.329226732254028320e-01,-4.035512447357177734e+00,4.135740280151367188e+00,-1.067949256139399949e-06,1.364809393882751465e+00,-2.225768566131591797e-01,1.277809788007289171e-04,-2.391609847545623779e-01,-7.298445701599121094e-02,-8.930212020874023438e+00,5.000000000000000000e-01,-7.091808319091796875e-02,0.000000000000000000e+00
2.830169916152954102e+00,-2.379672393798828125e+02,1.624677276611328125e+02,1.624677276611328125e+02,-2.176098152995109558e-02,1.371276550292968750e+02,2.329226732254028320e-01,-4.035512447357177734e+00,4.135740280151367188e+00,-1.067949256139399949e-06,1.364809393882751465e+00,-2.225768566131591797e-01,1.277809788007289171e-04,-2.391609847545623779e-01,-7.298445701599121094e-02,-8.930212020874023438e+00,5.000000000000000000e-01,-7.091808319091796875e-02,0.000000000000000000e+00
2.830169916152954102e+00,-2.379672393798828125e+02,1.624677276611328125e+02,1.624677276611328125e+02,-2.176098152995109558e-02,1.371276550292968750e+02,2.329226732254028320e-01,-4.035512447357177734e+00,4.135740280151367188e+00,-1.067949256139399949e-06,1.364809393882751465e+00,-2.225768566131591797e-01,1.277809788007289171e-04,-2.391609847545623779e-01,-7.298445701599121094e-02,-8.930212020874023438e+00,5.000000000000000000e-01,-7.091808319091796875e-02,0.000000000000000000e+00
2.917726278305053711e+00,-2.382718963623046875e+02,1.627709197998046875e+02,1.627709197998046875e+02,-3.570822626352310181e-02,1.364266357421875000e+02,2.084831297397613525e-01,-3.947418928146362305e+00,4.100718021392822266e+00,6.579363798664417118e-06,1.006134986877441406e+00,-3.999967277050018311e-01,8.734160655876621604e-05,-3.207298517227172852e-01,7.545644044876098633e-02,-9.724866867065429688e+00,5.000000000000000000e-01,-6.236572191119194031e-02,0.000000000000000000e+00
