# Time,X,Y,Z,Roll,Pitch,Yaw,Vx,Vy,Vz,Ax,Ay,Az,Wx,Wy,Wz,Throttle,Steer,Brake
0.000000000000000000e+00,-2.822151422500610352e+00,2.563856201171875000e+02,2.563856201171875000e+02,-1.165844947099685669e-01,8.067120361328125000e+01,3.835952579975128174e-01,6.514745950698852539e-01,6.268589973449707031e+00,1.737348975439090282e-05,-3.057012856006622314e-01,1.913160562515258789e+00,2.498590765753760934e-05,-2.372127771377563477e-01,3.561304211616516113e-01,1.354403972625732422e+01,1.000000000000000000e+00,9.709668904542922974e-02,0.000000000000000000e+00
1.045818328857421875e-01,-2.822151422500610352e+00,2.563856201171875000e+02,2.563856201171875000e+02,-1.165844947099685669e-01,8.067120361328125000e+01,3.835952579975128174e-01,6.514745950698852539e-01,6.268589973449707031e+00,1.737348975439090282e-05,-3.057012856006622314e-01,1.913160562515258789e+00,2.498590765753760934e-05,-2.372127771377563477e-01,3.561304211616516113e-01,1.354403972625732422e+01,1.000000000000000000e+00,9.709668904542922974e-02,0.000000000000000000e+00
1.045818328857421875e-01,-2.822151422500610352e+00,2.563856201171875000e+02,2.563856201171875000e+02,-1.165844947099685669e-01,8.067120361328125000e+01,3.835952579975128174e-01,6.514745950698852539e-01,6.268589973449707031e+00,1.737348975439090282e-05,-3.057012856006622314e-01,1.913160562515258789e+00,2.498590765753760934e-05,-2.372127771377563477e-01,3.561304211616516113e-01,1.354403972625732422e+01,1.000000000000000000e+00,9.709668904542922974e-02,0.000000000000000000e+00
1.045818328857421875e-01,-2.822151422500610352e+00,2.563856201171875000e+02,2.563856201171875000e+02,-1.165844947099685669e-01,8.067120361328125000e+01,3.835952579975128174e-01,6.514745950698852539e-01,6.268589973449707031e+00,1.737348975439090282e-05,-3.057012856006622314e-01,1.913160562515258789e+00,2.498590765753760934e-05,-2.372127771377563477e-01,3.561304211616516113e-01,1.354403972625732422e+01,1.000000000000000000e+00,9.709668904542922974e-02,0.000000000000000000e+00
1.045818328857421875e-01,-2.822151422500610352e+00,2.563856201171875000e+02,2.563856201171875000e+02,-1.165844947099685669e-01,8.067120361328125000e+01,3.835952579975128174e-01,6.514745950698852539e-01,6.268589973449707031e+00,1.737348975439090282e-05,-3.057012856006622314e-01,1.913160562515258789e+00,2.498590765753760934e-05,-2.372127771377563477e-01,3.561304211616516113e-01,1.354403972625732422e+01,1.000000000000000000e+00,9.709668904542922974e-02,0.000000000000000000e+00
1.045818328857421875e-01,-2.822151422500610352e+00,2.563856201171875000e+02,2.563856201171875000e+02,-1.165844947099685669e-01,8.067120361328125000e+01,3.835952579975128174e-01,6.514745950698852539e-01,6.268589973449707031e+00,1.737348975439090282e-05,-3.057012856006622314e-01,1.913160562515258789e+00,2.498590765753760934e-05,-2.372127771377563477e-01,3.561304211616516113e-01,1.354403972625732422e+01,1.000000000000000000e+00,9.709668904542922974e-02,0.000000000000000000e+00
1.045818328857421875e-01,-2.753279685974121094e+00,2.570255126953125000e+02,2.570255126953125000e+02,-1.498133540153503418e-01,8.208962249755859375e+01,4.181348085403442383e-01,4.965580403804779053e-01,6.504789829254150391e+00,-3.947553523175884038e-06,-1.479497313499450684e+00,2.255775928497314453e+00,-2.036220539594069123e-04,-2.565237879753112793e-01,-3.670499324798583984e-01,1.460826969146728516e+01,1.000000000000000000e+00,1.040380224585533142e-01,0.000000000000000000e+00
2.092907428741455078e-01,-2.753279685974121094e+00,2.570255126953125000e+02,2.570255126953125000e+02,-1.498133540153503418e-01,8.208962249755859375e+01,4.181348085403442383e-01,4.965580403804779053e-01,6.504789829254150391e+00,-3.947553523175884038e-06,-1.479497313499450684e+00,2.255775928497314453e+00,-2.036220539594069123e-04,-2.565237879753112793e-01,-3.670499324798583984e-01,1.460826969146728516e+01,1.000000000000000000e+00,1.040380224585533142e-01,0.000000000000000000e+00
2.092907428741455078e-01,-2.753279685974121094e+00,2.570255126953125000e+02,2.570255126953125000e+02,-1.498133540153503418e-01,8.208962249755859375e+01,4.181348085403442383e-01,4.965580403804779053e-01,6.504789829254150391e+00,-3.947553523175884038e-06,-1.479497313499450684e+00,2.255775928497314453e+00,-2.036220539594069123e-04,-2.565237879753112793e-01,-3.670499324798583984e-01,1.460826969146728516e+01,1.000000000000000000e+00,1.040380224585533142e-01,0.000000000000000000e+00
2.092907428741455078e-01,-2.753279685974121094e+00,2.570255126953125000e+02,2.570255126953125000e+02,-1.498133540153503418e-01,8.208962249755859375e+01,4.181348085403442383e-01,4.965580403804779053e-01,6.504789829254150391e+00,-3.947553523175884038e-06,-1.479497313499450684e+00,2.255775928497314453e+00,-2.036220539594069123e-04,-2.565237879753112793e-01,-3.670499324798583984e-01,1.460826969146728516e+01,1.000000000000000000e+00,1.040380224585533142e-01,0.000000000000000000e+00
2.092907428741455078e-01,-2.753279685974121094e+00,2.570255126953125000e+02,2.570255126953125000e+02,-1.498133540153503418e-01,8.208962249755859375e+01,4.181348085403442383e-01,4.965580403804779053e-01,6.504789829254150391e+00,-3.947553523175884038e-06,-1.479497313499450684e+00,2.255775928497314453e+00,-2.036220539594069123e-04,-2.565237879753112793e-01,-3.670499324798583984e-01,1.460826969146728516e+01,1.000000000000000000e+00,1.040380224585533142e-01,0.000000000000000000e+00
2.092907428741455078e-01,-2.695216655731201172e+00,2.576784362792968750e+02,2.576784362792968750e+02,-1.345820426940917969e-01,8.338474273681640625e+01,3.715519011020660400e-01,4.180188775062561035e-01,6.498462200164794922e+00,8.257442459580488503e-06,-1.052541613578796387e+00,-8.479964733123779297e-02,1.635651133256033063e-04,6.832776069641113281e-01,2.419878840446472168e-01,1.244872474670410156e+01,1.000000000000000000e+00,8.717989176511764526e-02,0.000000000000000000e+00
2.839093208312988281e-01,-2.695216655731201172e+00,2.576784362792968750e+02,2.576784362792968750e+02,-1.345820426940917969e-01,8.338474273681640625e+01,3.715519011020660400e-01,4.180188775062561035e-01,6.498462200164794922e+00,8.257442459580488503e-06,-1.052541613578796387e+00,-8.479964733123779297e-02,1.635651133256033063e-04,6.832776069641113281e-01,2.419878840446472168e-01,1.244872474670410156e+01,1.000000000000000000e+00,8.717989176511764526e-02,0.000000000000000000e+00
2.839093208312988281e-01,-2.695216655731201172e+00,2.576784362792968750e+02,2.576784362792968750e+02,-1.345820426940917969e-01,8.338474273681640625e+01,3.715519011020660400e-01,4.180188775062561035e-01,6.498462200164794922e+00,8.257442459580488503e-06,-1.052541613578796387e+00,-8.479964733123779297e-02,1.635651133256033063e-04,6.832776069641113281e-01,2.419878840446472168e-01,1.244872474670410156e+01,1.000000000000000000e+00,8.717989176511764526e-02,0.000000000000000000e+00
2.839093208312988281e-01,-2.695216655731201172e+00,2.576784362792968750e+02,2.576784362792968750e+02,-1.345820426940917969e-01,8.338474273681640625e+01,3.715519011020660400e-01,4.180188775062561035e-01,6.498462200164794922e+00,8.257442459580488503e-06,-1.052541613578796387e+00,-8.479964733123779297e-02,1.635651133256033063e-04,6.832776069641113281e-01,2.419878840446472168e-01,1.244872474670410156e+01,1.000000000000000000e+00,8.717989176511764526e-02,0.000000000000000000e+00
2.839093208312988281e-01,-2.695216655731201172e+00,2.576784362792968750e+02,2.576784362792968750e+02,-1.345820426940917969e-01,8.338474273681640625e+01,3.715519011020660400e-01,4.180188775062561035e-01,6.498462200164794922e+00,8.257442459580488503e-06,-1.052541613578796387e+00,-8.479964733123779297e-02,1.635651133256033063e-04,6.832776069641113281e-01,2.419878840446472168e-01,1.244872474670410156e+01,1.000000000000000000e+00,8.717989176511764526e-02,0.000000000000000000e+00
3.569011688232421875e-01,-2.657624721527099609e+00,2.581664123535156250e+02,2.581664123535156250e+02,-1.072066426277160645e-01,8.419486999511718750e+01,3.200875818729400635e-01,3.879302442073822021e-01,6.566708087921142578e+00,1.684890958131290972e-05,-4.122190773487091064e-01,9.349795579910278320e-01,1.177044759970158339e-04,3.142503499984741211e-01,4.463920593261718750e-01,1.025250720977783203e+01,1.000000000000000000e+00,7.057385891675949097e-02,0.000000000000000000e+00
3.569011688232421875e-01,-2.657624721527099609e+00,2.581664123535156250e+02,2.581664123535156250e+02,-1.072066426277160645e-01,8.419486999511718750e+01,3.200875818729400635e-01,3.879302442073822021e-01,6.566708087921142578e+00,1.684890958131290972e-05,-4.122190773487091064e-01,9.349795579910278320e-01,1.177044759970158339e-04,3.142503499984741211e-01,4.463920593261718750e-01,1.025250720977783203e+01,1.000000000000000000e+00,7.057385891675949097e-02,0.000000000000000000e+00
3.569011688232421875e-01,-2.657624721527099609e+00,2.581664123535156250e+02,2.581664123535156250e+02,-1.072066426277160645e-01,8.419486999511718750e+01,3.200875818729400635e-01,3.879302442073822021e-01,6.566708087921142578e+00,1.684890958131290972e-05,-4.122190773487091064e-01,9.349795579910278320e-01,1.177044759970158339e-04,3.142503499984741211e-01,4.463920593261718750e-01,1.025250720977783203e+01,1.000000000000000000e+00,7.057385891675949097e-02,0.000000000000000000e+00
3.569011688232421875e-01,-2.657624721527099609e+00,2.581664123535156250e+02,2.581664123535156250e+02,-1.072066426277160645e-01,8.419486999511718750e+01,3.200875818729400635e-01,3.879302442073822021e-01,6.566708087921142578e+00,1.684890958131290972e-05,-4.122190773487091064e-01,9.349795579910278320e-01,1.177044759970158339e-04,3.142503499984741211e-01,4.463920593261718750e-01,1.025250720977783203e+01,1.000000000000000000e+00,7.057385891675949097e-02,0.000000000000000000e+00
4.765405654907226562e-01,-2.625503063201904297e+00,2.586429748535156250e+02,2.586429748535156250e+02,-7.681230455636978149e-02,8.489622497558593750e+01,2.903138995170593262e-01,3.280145823955535889e-01,6.517915725708007812e+00,1.377858188789105043e-05,-5.008020997047424316e-01,-4.078285694122314453e-01,-2.566318289609625936e-05,5.103117823600769043e-01,2.086726725101470947e-01,9.386587142944335938e+00,1.000000000000000000e+00,6.529268622398376465e-02,0.000000000000000000e+00
4.765405654907226562e-01,-2.625503063201904297e+00,2.586429748535156250e+02,2.586429748535156250e+02,-7.681230455636978149e-02,8.489622497558593750e+01,2.903138995170593262e-01,3.280145823955535889e-01,6.517915725708007812e+00,1.377858188789105043e-05,-5.008020997047424316e-01,-4.078285694122314453e-01,-2.566318289609625936e-05,5.103117823600769043e-01,2.086726725101470947e-01,9.386587142944335938e+00,1.000000000000000000e+00,6.529268622398376465e-02,0.000000000000000000e+00
4.765405654907226562e-01,-2.625503063201904297e+00,2.586429748535156250e+02,2.586429748535156250e+02,-7.681230455636978149e-02,8.489622497558593750e+01,2.903138995170593262e-01,3.280145823955535889e-01,6.517915725708007812e+00,1.377858188789105043e-05,-5.008020997047424316e-01,-4.078285694122314453e-01,-2.566318289609625936e-05,5.103117823600769043e-01,2.086726725101470947e-01,9.386587142944335938e+00,1.000000000000000000e+00,6.529268622398376465e-02,0.000000000000000000e+00
4.765405654907226562e-01,-2.625503063201904297e+00,2.586429748535156250e+02,2.586429748535156250e+02,-7.681230455636978149e-02,8.489622497558593750e+01,2.903138995170593262e-01,3.280145823955535889e-01,6.517915725708007812e+00,1.377858188789105043e-05,-5.008020997047424316e-01,-4.078285694122314453e-01,-2.566318289609625936e-05,5.103117823600769043e-01,2.086726725101470947e-01,9.386587142944335938e+00,1.000000000000000000e+00,6.529268622398376465e-02,0.000000000000000000e+00
4.765405654907226562e-01,-2.625503063201904297e+00,2.586429748535156250e+02,2.586429748535156250e+02,-7.681230455636978149e-02,8.489622497558593750e+01,2.903138995170593262e-01,3.280145823955535889e-01,6.517915725708007812e+00,1.377858188789105043e-05,-5.008020997047424316e-01,-4.078285694122314453e-01,-2.566318289609625936e-05,5.103117823600769043e-01,2.086726725101470947e-01,9.386587142944335938e+00,1.000000000000000000e+00,6.529268622398376465e-02,0.000000000000000000e+00
4.765405654907226562e-01,-2.625503063201904297e+00,2.586429748535156250e+02,2.586429748535156250e+02,-7.681230455636978149e-02,8.489622497558593750e+01,2.903138995170593262e-01,3.280145823955535889e-01,6.517915725708007812e+00,1.377858188789105043e-05,-5.008020997047424316e-01,-4.078285694122314453e-01,-2.566318289609625936e-05,5.103117823600769043e-01,2.086726725101470947e-01,9.386587142944335938e+00,1.000000000000000000e+00,6.529268622398376465e-02,0.000000000000000000e+00
4.765405654907226562e-01,-2.625503063201904297e+00,2.586429748535156250e+02,2.586429748535156250e+02,-7.681230455636978149e-02,8.489622497558593750e+01,2.903138995170593262e-01,3.280145823955535889e-01,6.517915725708007812e+00,1.377858188789105043e-05,-5.008020997047424316e-01,-4.078285694122314453e-01,-2.566318289609625936e-05,5.103117823600769043e-01,2.086726725101470947e-01,9.386587142944335938e+00,1.000000000000000000e+00,6.529268622398376465e-02,0.000000000000000000e+00
6.200885772705078125e-01,-2.588134050369262695e+00,2.592955322265625000e+02,2.592955322265625000e+02,-4.397275671362876892e-02,8.573146057128906250e+01,2.516245543956756592e-01,2.664781510829925537e-01,6.484364032745361328e+00,8.524427357770036906e-06,-4.286818802356719971e-01,-2.337315082550048828e-01,-3.660207221400924027e-05,5.460096001625061035e-01,1.828892081975936890e-01,8.092195510864257812e+00,1.000000000000000000e+00,5.652661994099617004e-02,0.000000000000000000e+00
6.200885772705078125e-01,-2.588134050369262695e+00,2.592955322265625000e+02,2.592955322265625000e+02,-4.397275671362876892e-02,8.573146057128906250e+01,2.516245543956756592e-01,2.664781510829925537e-01,6.484364032745361328e+00,8.524427357770036906e-06,-4.286818802356719971e-01,-2.337315082550048828e-01,-3.660207221400924027e-05,5.460096001625061035e-01,1.828892081975936890e-01,8.092195510864257812e+00,1.000000000000000000e+00,5.652661994099617004e-02,0.000000000000000000e+00
6.200885772705078125e-01,-2.588134050369262695e+00,2.592955322265625000e+02,2.592955322265625000e+02,-4.397275671362876892e-02,8.573146057128906250e+01,2.516245543956756592e-01,2.664781510829925537e-01,6.484364032745361328e+00,8.524427357770036906e-06,-4.286818802356719971e-01,-2.337315082550048828e-01,-3.660207221400924027e-05,5.460096001625061035e-01,1.828892081975936890e-01,8.092195510864257812e+00,1.000000000000000000e+00,5.652661994099617004e-02,0.000000000000000000e+00
6.200885772705078125e-01,-2.588134050369262695e+00,2.592955322265625000e+02,2.592955322265625000e+02,-4.397275671362876892e-02,8.573146057128906250e+01,2.516245543956756592e-01,2.664781510829925537e-01,6.484364032745361328e+00,8.524427357770036906e-06,-4.286818802356719971e-01,-2.337315082550048828e-01,-3.660207221400924027e-05,5.460096001625061035e-01,1.828892081975936890e-01,8.092195510864257812e+00,1.000000000000000000e+00,5.652661994099617004e-02,0.000000000000000000e+00
6.200885772705078125e-01,-2.588134050369262695e+00,2.592955322265625000e+02,2.592955322265625000e+02,-4.397275671362876892e-02,8.573146057128906250e+01,2.516245543956756592e-01,2.664781510829925537e-01,6.484364032745361328e+00,8.524427357770036906e-06,-4.286818802356719971e-01,-2.337315082550048828e-01,-3.660207221400924027e-05,5.460096001625061035e-01,1.828892081975936890e-01,8.092195510864257812e+00,1.000000000000000000e+00,5.652661994099617004e-02,0.000000000000000000e+00
6.200885772705078125e-01,-2.588134050369262695e+00,2.592955322265625000e+02,2.592955322265625000e+02,-4.397275671362876892e-02,8.573146057128906250e+01,2.516245543956756592e-01,2.664781510829925537e-01,6.484364032745361328e+00,8.524427357770036906e-06,-4.286818802356719971e-01,-2.337315082550048828e-01,-3.660207221400924027e-05,5.460096001625061035e-01,1.828892081975936890e-01,8.092195510864257812e+00,1.000000000000000000e+00,5.652661994099617004e-02,0.000000000000000000e+00
7.946169376373291016e-01,-2.556725740432739258e+00,2.599474182128906250e+02,2.599474182128906250e+02,-2.380320802330970764e-02,8.642456817626953125e+01,2.079133838415145874e-01,2.281136065721511841e-01,6.474129676818847656e+00,5.969006451778113842e-06,-2.198183983564376831e-01,-5.864007398486137390e-02,-1.464186607336159796e-05,4.467785358428955078e-01,2.292774915695190430e-01,6.604321479797363281e+00,1.000000000000000000e+00,4.582225158810615540e-02,0.000000000000000000e+00
7.946169376373291016e-01,-2.556725740432739258e+00,2.599474182128906250e+02,2.599474182128906250e+02,-2.380320802330970764e-02,8.642456817626953125e+01,2.079133838415145874e-01,2.281136065721511841e-01,6.474129676818847656e+00,5.969006451778113842e-06,-2.198183983564376831e-01,-5.864007398486137390e-02,-1.464186607336159796e-05,4.467785358428955078e-01,2.292774915695190430e-01,6.604321479797363281e+00,1.000000000000000000e+00,4.582225158810615540e-02,0.000000000000000000e+00
7.946169376373291016e-01,-2.556725740432739258e+00,2.599474182128906250e+02,2.599474182128906250e+02,-2.380320802330970764e-02,8.642456817626953125e+01,2.079133838415145874e-01,2.281136065721511841e-01,6.474129676818847656e+00,5.969006451778113842e-06,-2.198183983564376831e-01,-5.864007398486137390e-02,-1.464186607336159796e-05,4.467785358428955078e-01,2.292774915695190430e-01,6.604321479797363281e+00,1.000000000000000000e+00,4.582225158810615540e-02,0.000000000000000000e+00
7.946169376373291016e-01,-2.556725740432739258e+00,2.599474182128906250e+02,2.599474182128906250e+02,-2.380320802330970764e-02,8.642456817626953125e+01,2.079133838415145874e-01,2.281136065721511841e-01,6.474129676818847656e+00,5.969006451778113842e-06,-2.198183983564376831e-01,-5.864007398486137390e-02,-1.464186607336159796e-05,4.467785358428955078e-01,2.292774915695190430e-01,6.604321479797363281e+00,1.000000000000000000e+00,4.582225158810615540e-02,0.000000000000000000e+00
8.783230781555175781e-01,-2.520724534988403320e+00,2.606000061035156250e+02,2.606000061035156250e+02,-2.304505743086338043e-02,8.663449859619140625e+01,2.662600763142108917e-02,3.831859827041625977e-01,6.581255435943603516e+00,9.821208550420124084e-06,1.852580666542053223e+00,1.279783844947814941e+00,4.602054468705318868e-05,-2.420612275600433350e-01,1.045761346817016602e+00,6.533132791519165039e-01,1.000000000000000000e+00,0.000000000000000000e+00,0.000000000000000000e+00
8.783230781555175781e-01,-2.520724534988403320e+00,2.606000061035156250e+02,2.606000061035156250e+02,-2.304505743086338043e-02,8.663449859619140625e+01,2.662600763142108917e-02,3.831859827041625977e-01,6.581255435943603516e+00,9.821208550420124084e-06,1.852580666542053223e+00,1.279783844947814941e+00,4.602054468705318868e-05,-2.420612275600433350e-01,1.045761346817016602e+00,6.533132791519165039e-01,1.000000000000000000e+00,0.000000000000000000e+00,0.000000000000000000e+00
9.483780860900878906e-01,-2.494588136672973633e+00,2.611708068847656250e+02,2.611708068847656250e+02,-1.017766445875167847e-01,8.694937896728515625e+01,1.368014663457870483e-01,2.240571528673171997e-01,6.975228786468505859e+00,-6.436403509724186733e-06,-2.271483898162841797e+00,5.623771190643310547e+00,-2.320692437933757901e-04,-1.154357433319091797e+00,-1.205513119697570801e+00,5.030226707458496094e+00,1.000000000000000000e+00,3.884604200720787048e-02,0.000000000000000000e+00
9.483780860900878906e-01,-2.494588136672973633e+00,2.611708068847656250e+02,2.611708068847656250e+02,-1.017766445875167847e-01,8.694937896728515625e+01,1.368014663457870483e-01,2.240571528673171997e-01,6.975228786468505859e+00,-6.436403509724186733e-06,-2.271483898162841797e+00,5.623771190643310547e+00,-2.320692437933757901e-04,-1.154357433319091797e+00,-1.205513119697570801e+00,5.030226707458496094e+00,1.000000000000000000e+00,3.884604200720787048e-02,0.000000000000000000e+00
9.483780860900878906e-01,-2.494588136672973633e+00,2.611708068847656250e+02,2.611708068847656250e+02,-1.017766445875167847e-01,8.694937896728515625e+01,1.368014663457870483e-01,2.240571528673171997e-01,6.975228786468505859e+00,-6.436403509724186733e-06,-2.271483898162841797e+00,5.623771190643310547e+00,-2.320692437933757901e-04,-1.154357433319091797e+00,-1.205513119697570801e+00,5.030226707458496094e+00,1.000000000000000000e+00,3.884604200720787048e-02,0.000000000000000000e+00
9.483780860900878906e-01,-2.494588136672973633e+00,2.611708068847656250e+02,2.611708068847656250e+02,-1.017766445875167847e-01,8.694937896728515625e+01,1.368014663457870483e-01,2.240571528673171997e-01,6.975228786468505859e+00,-6.436403509724186733e-06,-2.271483898162841797e+00,5.623771190643310547e+00,-2.320692437933757901e-04,-1.154357433319091797e+00,-1.205513119697570801e+00,5.030226707458496094e+00,1.000000000000000000e+00,3.884604200720787048e-02,0.000000000000000000e+00
9.483780860900878906e-01,-2.477463245391845703e+00,2.616722717285156250e+02,2.616722717285156250e+02,-1.788894683122634888e-01,8.734476470947265625e+01,1.879862397909164429e-01,1.715101748704910278e-01,7.287446022033691406e+00,-1.579063246026635170e-05,-6.668481826782226562e-01,3.962197303771972656e+00,-1.187099842354655266e-04,-1.076670885086059570e+00,-4.015581309795379639e-01,5.927016258239746094e+00,1.000000000000000000e+00,3.907590731978416443e-02,0.000000000000000000e+00
1.027177095413208008e+00,-2.477463245391845703e+00,2.616722717285156250e+02,2.616722717285156250e+02,-1.788894683122634888e-01,8.734476470947265625e+01,1.879862397909164429e-01,1.715101748704910278e-01,7.287446022033691406e+00,-1.579063246026635170e-05,-6.668481826782226562e-01,3.962197303771972656e+00,-1.187099842354655266e-04,-1.076670885086059570e+00,-4.015581309795379639e-01,5.927016258239746094e+00,1.000000000000000000e+00,3.907590731978416443e-02,0.000000000000000000e+00
1.027177095413208008e+00,-2.477463245391845703e+00,2.616722717285156250e+02,2.616722717285156250e+02,-1.788894683122634888e-01,8.734476470947265625e+01,1.879862397909164429e-01,1.715101748704910278e-01,7.287446022033691406e+00,-1.579063246026635170e-05,-6.668481826782226562e-01,3.962197303771972656e+00,-1.187099842354655266e-04,-1.076670885086059570e+00,-4.015581309795379639e-01,5.927016258239746094e+00,1.000000000000000000e+00,3.907590731978416443e-02,0.000000000000000000e+00
1.095043420791625977e+00,-2.461285114288330078e+00,2.622615661621093750e+02,2.622615661621093750e+02,-2.496024221181869507e-01,8.780648040771484375e+01,1.951288133859634399e-01,1.357889473438262939e-01,7.613142967224121094e+00,-1.594292007212061435e-05,-5.263468623161315918e-01,4.799095153808593750e+00,-2.243934886791976169e-06,-7.601624131202697754e-01,-1.185842789709568024e-02,5.881597042083740234e+00,1.000000000000000000e+00,3.528126329183578491e-02,0.000000000000000000e+00
1.095043420791625977e+00,-2.461285114288330078e+00,2.622615661621093750e+02,2.622615661621093750e+02,-2.496024221181869507e-01,8.780648040771484375e+01,1.951288133859634399e-01,1.357889473438262939e-01,7.613142967224121094e+00,-1.594292007212061435e-05,-5.263468623161315918e-01,4.799095153808593750e+00,-2.243934886791976169e-06,-7.601624131202697754e-01,-1.185842789709568024e-02,5.881597042083740234e+00,1.000000000000000000e+00,3.528126329183578491e-02,0.000000000000000000e+00
1.095043420791625977e+00,-2.461285114288330078e+00,2.622615661621093750e+02,2.622615661621093750e+02,-2.496024221181869507e-01,8.780648040771484375e+01,1.951288133859634399e-01,1.357889473438262939e-01,7.613142967224121094e+00,-1.594292007212061435e-05,-5.263468623161315918e-01,4.799095153808593750e+00,-2.243934886791976169e-06,-7.601624131202697754e-01,-1.185842789709568024e-02,5.881597042083740234e+00,1.000000000000000000e+00,3.528126329183578491e-02,0.000000000000000000e+00
1.095043420791625977e+00,-2.461285114288330078e+00,2.622615661621093750e+02,2.622615661621093750e+02,-2.496024221181869507e-01,8.780648040771484375e+01,1.951288133859634399e-01,1.357889473438262939e-01,7.613142967224121094e+00,-1.594292007212061435e-05,-5.263468623161315918e-01,4.799095153808593750e+00,-2.243934886791976169e-06,-7.601624131202697754e-01,-1.185842789709568024e-02,5.881597042083740234e+00,1.000000000000000000e+00,3.528126329183578491e-02,0.000000000000000000e+00
1.168572425842285156e+00,-2.448520660400390625e+00,2.627895202636718750e+02,2.627895202636718750e+02,-2.917446792125701904e-01,8.814120483398437500e+01,1.643318533897399902e-01,1.435383707284927368e-01,7.893336772918701172e+00,-7.418579116347245872e-06,1.053927391767501831e-01,3.810656785964965820e+00,1.159316743724048138e-04,-5.244035720825195312e-01,4.358295202255249023e-01,4.549648284912109375e+00,1.000000000000000000e+00,2.354126051068305969e-02,0.000000000000000000e+00
1.168572425842285156e+00,-2.448520660400390625e+00,2.627895202636718750e+02,2.627895202636718750e+02,-2.917446792125701904e-01,8.814120483398437500e+01,1.643318533897399902e-01,1.435383707284927368e-01,7.893336772918701172e+00,-7.418579116347245872e-06,1.053927391767501831e-01,3.810656785964965820e+00,1.159316743724048138e-04,-5.244035720825195312e-01,4.358295202255249023e-01,4.549648284912109375e+00,1.000000000000000000e+00,2.354126051068305969e-02,0.000000000000000000e+00
1.168572425842285156e+00,-2.448520660400390625e+00,2.627895202636718750e+02,2.627895202636718750e+02,-2.917446792125701904e-01,8.814120483398437500e+01,1.643318533897399902e-01,1.435383707284927368e-01,7.893336772918701172e+00,-7.418579116347245872e-06,1.053927391767501831e-01,3.810656785964965820e+00,1.159316743724048138e-04,-5.244035720825195312e-01,4.358295202255249023e-01,4.549648284912109375e+00,1.000000000000000000e+00,2.354126051068305969e-02,0.000000000000000000e+00
1.168572425842285156e+00,-2.448520660400390625e+00,2.627895202636718750e+02,2.627895202636718750e+02,-2.917446792125701904e-01,8.814120483398437500e+01,1.643318533897399902e-01,1.435383707284927368e-01,7.893336772918701172e+00,-7.418579116347245872e-06,1.053927391767501831e-01,3.810656785964965820e+00,1.159316743724048138e-04,-5.244035720825195312e-01,4.358295202255249023e-01,4.549648284912109375e+00,1.000000000000000000e+00,2.354126051068305969e-02,0.000000000000000000e+00
1.168572425842285156e+00,-2.435453891754150391e+00,2.633825988769531250e+02,2.633825988769531250e+02,-3.226922750473022461e-01,8.842588043212890625e+01,1.335054785013198853e-01,1.391394883394241333e-01,8.184706687927246094e+00,-4.605569756677141413e-06,-5.861390382051467896e-02,3.882424354553222656e+00,3.748257950064726174e-05,-3.364475667476654053e-01,2.777110040187835693e-01,3.604457139968872070e+00,1.000000000000000000e+00,1.844253577291965485e-02,0.000000000000000000e+00
1.243620872497558594e+00,-2.435453891754150391e+00,2.633825988769531250e+02,2.633825988769531250e+02,-3.226922750473022461e-01,8.842588043212890625e+01,1.335054785013198853e-01,1.391394883394241333e-01,8.184706687927246094e+00,-4.605569756677141413e-06,-5.861390382051467896e-02,3.882424354553222656e+00,3.748257950064726174e-05,-3.364475667476654053e-01,2.777110040187835693e-01,3.604457139968872070e+00,1.000000000000000000e+00,1.844253577291965485e-02,0.000000000000000000e+00
1.243620872497558594e+00,-2.435453891754150391e+00,2.633825988769531250e+02,2.633825988769531250e+02,-3.226922750473022461e-01,8.842588043212890625e+01,1.335054785013198853e-01,1.391394883394241333e-01,8.184706687927246094e+00,-4.605569756677141413e-06,-5.861390382051467896e-02,3.882424354553222656e+00,3.748257950064726174e-05,-3.364475667476654053e-01,2.777110040187835693e-01,3.604457139968872070e+00,1.000000000000000000e+00,1.844253577291965485e-02,0.000000000000000000e+00
1.243620872497558594e+00,-2.435453891754150391e+00,2.633825988769531250e+02,2.633825988769531250e+02,-3.226922750473022461e-01,8.842588043212890625e+01,1.335054785013198853e-01,1.391394883394241333e-01,8.184706687927246094e+00,-4.605569756677141413e-06,-5.861390382051467896e-02,3.882424354553222656e+00,3.748257950064726174e-05,-3.364475667476654053e-01,2.777110040187835693e-01,3.604457139968872070e+00,1.000000000000000000e+00,1.844253577291965485e-02,0.000000000000000000e+00
1.312042951583862305e+00,-2.423148870468139648e+00,2.640098876953125000e+02,2.640098876953125000e+02,-3.417963087558746338e-01,8.865755462646484375e+01,1.127316281199455261e-01,1.317409425973892212e-01,8.475869178771972656e+00,-8.867839937920507509e-07,-1.081309691071510315e-01,4.255388259887695312e+00,5.435067214420996606e-05,-1.957770735025405884e-01,1.822666823863983154e-01,2.882564544677734375e+00,1.000000000000000000e+00,1.435296237468719482e-02,0.000000000000000000e+00
1.312042951583862305e+00,-2.423148870468139648e+00,2.640098876953125000e+02,2.640098876953125000e+02,-3.417963087558746338e-01,8.865755462646484375e+01,1.127316281199455261e-01,1.317409425973892212e-01,8.475869178771972656e+00,-8.867839937920507509e-07,-1.081309691071510315e-01,4.255388259887695312e+00,5.435067214420996606e-05,-1.957770735025405884e-01,1.822666823863983154e-01,2.882564544677734375e+00,1.000000000000000000e+00,1.435296237468719482e-02,0.000000000000000000e+00
1.312042951583862305e+00,-2.412395477294921875e+00,2.646002807617187500e+02,2.646002807617187500e+02,-3.505799174308776855e-01,8.881312561035156250e+01,8.966650068759918213e-02,1.379162073135375977e-01,8.727758407592773438e+00,1.811733227441436611e-06,8.686983585357666016e-02,3.543423175811767578e+00,3.796108285314403474e-05,-6.921282410621643066e-02,2.900446951389312744e-01,2.007100343704223633e+00,5.000000000000000000e-01,8.574022911489009857e-03,0.000000000000000000e+00
1.383129358291625977e+00,-2.412395477294921875e+00,2.646002807617187500e+02,2.646002807617187500e+02,-3.505799174308776855e-01,8.881312561035156250e+01,8.966650068759918213e-02,1.379162073135375977e-01,8.727758407592773438e+00,1.811733227441436611e-06,8.686983585357666016e-02,3.543423175811767578e+00,3.796108285314403474e-05,-6.921282410621643066e-02,2.900446951389312744e-01,2.007100343704223633e+00,5.000000000000000000e-01,8.574022911489009857e-03,0.000000000000000000e+00
1.383129358291625977e+00,-2.412395477294921875e+00,2.646002807617187500e+02,2.646002807617187500e+02,-3.505799174308776855e-01,8.881312561035156250e+01,8.966650068759918213e-02,1.379162073135375977e-01,8.727758407592773438e+00,1.811733227441436611e-06,8.686983585357666016e-02,3.543423175811767578e+00,3.796108285314403474e-05,-6.921282410621643066e-02,2.900446951389312744e-01,2.007100343704223633e+00,5.000000000000000000e-01,8.574022911489009857e-03,0.000000000000000000e+00
1.450951814651489258e+00,-2.401490688323974609e+00,2.652304382324218750e+02,2.652304382324218750e+02,-3.482371866703033447e-01,8.892677307128906250e+01,7.003992050886154175e-02,1.387670189142227173e-01,8.949689865112304688e+00,5.215856617724057287e-06,1.254468876868486404e-02,3.272241592407226562e+00,5.019168384023942053e-05,1.121832877397537231e-01,1.999085843563079834e-01,1.420692086219787598e+00,5.000000000000000000e-01,6.085313856601715088e-03,0.000000000000000000e+00
1.450951814651489258e+00,-2.401490688323974609e+00,2.652304382324218750e+02,2.652304382324218750e+02,-3.482371866703033447e-01,8.892677307128906250e+01,7.003992050886154175e-02,1.387670189142227173e-01,8.949689865112304688e+00,5.215856617724057287e-06,1.254468876868486404e-02,3.272241592407226562e+00,5.019168384023942053e-05,1.121832877397537231e-01,1.999085843563079834e-01,1.420692086219787598e+00,5.000000000000000000e-01,6.085313856601715088e-03,0.000000000000000000e+00
1.450951814651489258e+00,-2.401490688323974609e+00,2.652304382324218750e+02,2.652304382324218750e+02,-3.482371866703033447e-01,8.892677307128906250e+01,7.003992050886154175e-02,1.387670189142227173e-01,8.949689865112304688e+00,5.215856617724057287e-06,1.254468876868486404e-02,3.272241592407226562e+00,5.019168384023942053e-05,1.121832877397537231e-01,1.999085843563079834e-01,1.420692086219787598e+00,5.000000000000000000e-01,6.085313856601715088e-03,0.000000000000000000e+00
1.527701377868652344e+00,-2.391385793685913086e+00,2.658446350097656250e+02,2.658446350097656250e+02,-3.341396749019622803e-01,8.900498962402343750e+01,5.690596625208854675e-02,1.381105929613113403e-01,9.122048377990722656e+00,8.677258847455959767e-06,-8.552829734981060028e-03,2.245726346969604492e+00,4.509996142587624490e-05,2.730074524879455566e-01,1.473280638456344604e-01,1.032500505447387695e+00,5.000000000000000000e-01,4.343741107732057571e-03,0.000000000000000000e+00
1.527701377868652344e+00,-2.391385793685913086e+00,2.658446350097656250e+02,2.658446350097656250e+02,-3.341396749019622803e-01,8.900498962402343750e+01,5.690596625208854675e-02,1.381105929613113403e-01,9.122048377990722656e+00,8.677258847455959767e-06,-8.552829734981060028e-03,2.245726346969604492e+00,4.509996142587624490e-05,2.730074524879455566e-01,1.473280638456344604e-01,1.032500505447387695e+00,5.000000000000000000e-01,4.343741107732057571e-03,0.000000000000000000e+00
1.527701377868652344e+00,-2.391385793685913086e+00,2.658446350097656250e+02,2.658446350097656250e+02,-3.341396749019622803e-01,8.900498962402343750e+01,5.690596625208854675e-02,1.381105929613113403e-01,9.122048377990722656e+00,8.677258847455959767e-06,-8.552829734981060028e-03,2.245726346969604492e+00,4.509996142587624490e-05,2.730074524879455566e-01,1.473280638456344604e-01,1.032500505447387695e+00,5.000000000000000000e-01,4.343741107732057571e-03,0.000000000000000000e+00
1.600134611129760742e+00,-2.380090475082397461e+00,2.665521850585937500e+02,2.665521850585937500e+02,-3.065798580646514893e-01,8.906116485595703125e+01,4.183073341846466064e-02,1.415259093046188354e-01,9.276126861572265625e+00,1.000250813376624137e-05,4.715123400092124939e-02,2.127179384231567383e+00,1.829615030146669596e-05,4.063645899295806885e-01,1.497519910335540771e-01,6.035249829292297363e-01,5.000000000000000000e-01,2.229962963610887527e-03,0.000000000000000000e+00
1.600134611129760742e+00,-2.380090475082397461e+00,2.665521850585937500e+02,2.665521850585937500e+02,-3.065798580646514893e-01,8.906116485595703125e+01,4.183073341846466064e-02,1.415259093046188354e-01,9.276126861572265625e+00,1.000250813376624137e-05,4.715123400092124939e-02,2.127179384231567383e+00,1.829615030146669596e-05,4.063645899295806885e-01,1.497519910335540771e-01,6.035249829292297363e-01,5.000000000000000000e-01,2.229962963610887527e-03,0.000000000000000000e+00
1.600134611129760742e+00,-2.380090475082397461e+00,2.665521850585937500e+02,2.665521850585937500e+02,-3.065798580646514893e-01,8.906116485595703125e+01,4.183073341846466064e-02,1.415259093046188354e-01,9.276126861572265625e+00,1.000250813376624137e-05,4.715123400092124939e-02,2.127179384231567383e+00,1.829615030146669596e-05,4.063645899295806885e-01,1.497519910335540771e-01,6.035249829292297363e-01,5.000000000000000000e-01,2.229962963610887527e-03,0.000000000000000000e+00
1.600134611129760742e+00,-2.380090475082397461e+00,2.665521850585937500e+02,2.665521850585937500e+02,-3.065798580646514893e-01,8.906116485595703125e+01,4.183073341846466064e-02,1.415259093046188354e-01,9.276126861572265625e+00,1.000250813376624137e-05,4.715123400092124939e-02,2.127179384231567383e+00,1.829615030146669596e-05,4.063645899295806885e-01,1.497519910335540771e-01,6.035249829292297363e-01,5.000000000000000000e-01,2.229962963610887527e-03,0.000000000000000000e+00
1.600134611129760742e+00,-2.380090475082397461e+00,2.665521850585937500e+02,2.665521850585937500e+02,-3.065798580646514893e-01,8.906116485595703125e+01,4.183073341846466064e-02,1.415259093046188354e-01,9.276126861572265625e+00,1.000250813376624137e-05,4.715123400092124939e-02,2.127179384231567383e+00,1.829615030146669596e-05,4.063645899295806885e-01,1.497519910335540771e-01,6.035249829292297363e-01,5.000000000000000000e-01,2.229962963610887527e-03,0.000000000000000000e+00
1.600134611129760742e+00,-2.369491100311279297e+00,2.672292175292968750e+02,2.672292175292968750e+02,-2.745052874088287354e-01,8.909278106689453125e+01,3.144469857215881348e-02,1.429303884506225586e-01,9.387144088745117188e+00,1.116590919991722330e-05,1.217275951057672501e-02,9.621973037719726562e-01,1.008331219054525718e-05,4.677456319332122803e-01,1.077222302556037903e-01,3.624238371849060059e-01,5.000000000000000000e-01,1.296234084293246269e-03,0.000000000000000000e+00
1.715513467788696289e+00,-2.369491100311279297e+00,2.672292175292968750e+02,2.672292175292968750e+02,-2.745052874088287354e-01,8.909278106689453125e+01,3.144469857215881348e-02,1.429303884506225586e-01,9.387144088745117188e+00,1.116590919991722330e-05,1.217275951057672501e-02,9.621973037719726562e-01,1.008331219054525718e-05,4.677456319332122803e-01,1.077222302556037903e-01,3.624238371849060059e-01,5.000000000000000000e-01,1.296234084293246269e-03,0.000000000000000000e+00
1.715513467788696289e+00,-2.369491100311279297e+00,2.672292175292968750e+02,2.672292175292968750e+02,-2.745052874088287354e-01,8.909278106689453125e+01,3.144469857215881348e-02,1.429303884506225586e-01,9.387144088745117188e+00,1.116590919991722330e-05,1.217275951057672501e-02,9.621973037719726562e-01,1.008331219054525718e-05,4.677456319332122803e-01,1.077222302556037903e-01,3.624238371849060059e-01,5.000000000000000000e-01,1.296234084293246269e-03,0.000000000000000000e+00
1.715513467788696289e+00,-2.369491100311279297e+00,2.672292175292968750e+02,2.672292175292968750e+02,-2.745052874088287354e-01,8.909278106689453125e+01,3.144469857215881348e-02,1.429303884506225586e-01,9.387144088745117188e+00,1.116590919991722330e-05,1.217275951057672501e-02,9.621973037719726562e-01,1.008331219054525718e-05,4.677456319332122803e-01,1.077222302556037903e-01,3.624238371849060059e-01,5.000000000000000000e-01,1.296234084293246269e-03,0.000000000000000000e+00
1.813115119934082031e+00,-2.354942321777343750e+00,2.681748962402343750e+02,2.681748962402343750e+02,-2.254030555486679077e-01,8.911703491210937500e+01,2.165730856359004974e-02,1.433574408292770386e-01,9.497360229492187500e+00,9.916559974953997880e-06,4.375462885946035385e-03,1.129244685173034668e+00,-1.280049309571040794e-05,4.885744452476501465e-01,6.126559153199195862e-02,1.938879936933517456e-01,5.000000000000000000e-01,7.720947032794356346e-04,0.000000000000000000e+00
1.813115119934082031e+00,-2.354942321777343750e+00,2.681748962402343750e+02,2.681748962402343750e+02,-2.254030555486679077e-01,8.911703491210937500e+01,2.165730856359004974e-02,1.433574408292770386e-01,9.497360229492187500e+00,9.916559974953997880e-06,4.375462885946035385e-03,1.129244685173034668e+00,-1.280049309571040794e-05,4.885744452476501465e-01,6.126559153199195862e-02,1.938879936933517456e-01,5.000000000000000000e-01,7.720947032794356346e-04,0.000000000000000000e+00
1.813115119934082031e+00,-2.354942321777343750e+00,2.681748962402343750e+02,2.681748962402343750e+02,-2.254030555486679077e-01,8.911703491210937500e+01,2.165730856359004974e-02,1.433574408292770386e-01,9.497360229492187500e+00,9.916559974953997880e-06,4.375462885946035385e-03,1.129244685173034668e+00,-1.280049309571040794e-05,4.885744452476501465e-01,6.126559153199195862e-02,1.938879936933517456e-01,5.000000000000000000e-01,7.720947032794356346e-04,0.000000000000000000e+00
1.813115119934082031e+00,-2.354942321777343750e+00,2.681748962402343750e+02,2.681748962402343750e+02,-2.254030555486679077e-01,8.911703491210937500e+01,2.165730856359004974e-02,1.433574408292770386e-01,9.497360229492187500e+00,9.916559974953997880e-06,4.375462885946035385e-03,1.129244685173034668e+00,-1.280049309571040794e-05,4.885744452476501465e-01,6.126559153199195862e-02,1.938879936933517456e-01,5.000000000000000000e-01,7.720947032794356346e-04,0.000000000000000000e+00
1.896134853363037109e+00,-2.340690612792968750e+00,2.691063232421875000e+02,2.691063232421875000e+02,-1.800506114959716797e-01,8.912525939941406250e+01,1.330592762678861618e-02,1.463230699300765991e-01,9.568581581115722656e+00,6.712774847983382642e-06,3.572198003530502319e-02,8.578846454620361328e-01,-3.859064599964767694e-05,4.466465711593627930e-01,6.091537326574325562e-02,3.941217437386512756e-02,5.000000000000000000e-01,5.667550340149318799e-06,0.000000000000000000e+00
1.896134853363037109e+00,-2.340690612792968750e+00,2.691063232421875000e+02,2.691063232421875000e+02,-1.800506114959716797e-01,8.912525939941406250e+01,1.330592762678861618e-02,1.463230699300765991e-01,9.568581581115722656e+00,6.712774847983382642e-06,3.572198003530502319e-02,8.578846454620361328e-01,-3.859064599964767694e-05,4.466465711593627930e-01,6.091537326574325562e-02,3.941217437386512756e-02,5.000000000000000000e-01,5.667550340149318799e-06,0.000000000000000000e+00
1.896134853363037109e+00,-2.340690612792968750e+00,2.691063232421875000e+02,2.691063232421875000e+02,-1.800506114959716797e-01,8.912525939941406250e+01,1.330592762678861618e-02,1.463230699300765991e-01,9.568581581115722656e+00,6.712774847983382642e-06,3.572198003530502319e-02,8.578846454620361328e-01,-3.859064599964767694e-05,4.466465711593627930e-01,6.091537326574325562e-02,3.941217437386512756e-02,5.000000000000000000e-01,5.667550340149318799e-06,0.000000000000000000e+00
1.896134853363037109e+00,-2.340690612792968750e+00,2.691063232421875000e+02,2.691063232421875000e+02,-1.800506114959716797e-01,8.912525939941406250e+01,1.330592762678861618e-02,1.463230699300765991e-01,9.568581581115722656e+00,6.712774847983382642e-06,3.572198003530502319e-02,8.578846454620361328e-01,-3.859064599964767694e-05,4.466465711593627930e-01,6.091537326574325562e-02,3.941217437386512756e-02,5.000000000000000000e-01,5.667550340149318799e-06,0.000000000000000000e+00
1.896134853363037109e+00,-2.340690612792968750e+00,2.691063232421875000e+02,2.691063232421875000e+02,-1.800506114959716797e-01,8.912525939941406250e+01,1.330592762678861618e-02,1.463230699300765991e-01,9.568581581115722656e+00,6.712774847983382642e-06,3.572198003530502319e-02,8.578846454620361328e-01,-3.859064599964767694e-05,4.466465711593627930e-01,6.091537326574325562e-02,3.941217437386512756e-02,5.000000000000000000e-01,5.667550340149318799e-06,0.000000000000000000e+00
1.896134853363037109e+00,-2.340690612792968750e+00,2.691063232421875000e+02,2.691063232421875000e+02,-1.800506114959716797e-01,8.912525939941406250e+01,1.330592762678861618e-02,1.463230699300765991e-01,9.568581581115722656e+00,6.712774847983382642e-06,3.572198003530502319e-02,8.578846454620361328e-01,-3.859064599964767694e-05,4.466465711593627930e-01,6.091537326574325562e-02,3.941217437386512756e-02,5.000000000000000000e-01,5.667550340149318799e-06,0.000000000000000000e+00
1.896134853363037109e+00,-2.340690612792968750e+00,2.691063232421875000e+02,2.691063232421875000e+02,-1.800506114959716797e-01,8.912525939941406250e+01,1.330592762678861618e-02,1.463230699300765991e-01,9.568581581115722656e+00,6.712774847983382642e-06,3.572198003530502319e-02,8.578846454620361328e-01,-3.859064599964767694e-05,4.466465711593627930e-01,6.091537326574325562e-02,3.941217437386512756e-02,5.000000000000000000e-01,5.667550340149318799e-06,0.000000000000000000e+00
2.195794820785522461e+00,-2.300487279891967773e+00,2.717120971679687500e+02,2.717120971679687500e+02,-8.645652979612350464e-02,8.911479949951171875e+01,2.153553068637847900e-03,1.507750004529953003e-01,9.659266471862792969e+00,-1.268201572202087846e-06,1.827662996947765350e-02,3.355361521244049072e-01,-5.731529017793945968e-05,2.536587715148925781e-01,1.630965806543827057e-02,-6.116911023855209351e-02,5.000000000000000000e-01,-3.058297152165323496e-04,0.000000000000000000e+00
2.195794820785522461e+00,-2.300487279891967773e+00,2.717120971679687500e+02,2.717120971679687500e+02,-8.645652979612350464e-02,8.911479949951171875e+01,2.153553068637847900e-03,1.507750004529953003e-01,9.659266471862792969e+00,-1.268201572202087846e-06,1.827662996947765350e-02,3.355361521244049072e-01,-5.731529017793945968e-05,2.536587715148925781e-01,1.630965806543827057e-02,-6.116911023855209351e-02,5.000000000000000000e-01,-3.058297152165323496e-04,0.000000000000000000e+00
2.195794820785522461e+00,-2.300487279891967773e+00,2.717120971679687500e+02,2.717120971679687500e+02,-8.645652979612350464e-02,8.911479949951171875e+01,2.153553068637847900e-03,1.507750004529953003e-01,9.659266471862792969e+00,-1.268201572202087846e-06,1.827662996947765350e-02,3.355361521244049072e-01,-5.731529017793945968e-05,2.536587715148925781e-01,1.630965806543827057e-02,-6.116911023855209351e-02,5.000000000000000000e-01,-3.058297152165323496e-04,0.000000000000000000e+00
2.195794820785522461e+00,-2.300487279891967773e+00,2.717120971679687500e+02,2.717120971679687500e+02,-8.645652979612350464e-02,8.911479949951171875e+01,2.153553068637847900e-03,1.507750004529953003e-01,9.659266471862792969e+00,-1.268201572202087846e-06,1.827662996947765350e-02,3.355361521244049072e-01,-5.731529017793945968e-05,2.536587715148925781e-01,1.630965806543827057e-02,-6.116911023855209351e-02,5.000000000000000000e-01,-3.058297152165323496e-04,0.000000000000000000e+00
2.195794820785522461e+00,-2.300487279891967773e+00,2.717120971679687500e+02,2.717120971679687500e+02,-8.645652979612350464e-02,8.911479949951171875e+01,2.153553068637847900e-03,1.507750004529953003e-01,9.659266471862792969e+00,-1.268201572202087846e-06,1.827662996947765350e-02,3.355361521244049072e-01,-5.731529017793945968e-05,2.536587715148925781e-01,1.630965806543827057e-02,-6.116911023855209351e-02,5.000000000000000000e-01,-3.058297152165323496e-04,0.000000000000000000e+00
2.195794820785522461e+00,-2.300487279891967773e+00,2.717120971679687500e+02,2.717120971679687500e+02,-8.645652979612350464e-02,8.911479949951171875e+01,2.153553068637847900e-03,1.507750004529953003e-01,9.659266471862792969e+00,-1.268201572202087846e-06,1.827662996947765350e-02,3.355361521244049072e-01,-5.731529017793945968e-05,2.536587715148925781e-01,1.630965806543827057e-02,-6.116911023855209351e-02,5.000000000000000000e-01,-3.058297152165323496e-04,0.000000000000000000e+00
2.195794820785522461e+00,-2.300487279891967773e+00,2.717120971679687500e+02,2.717120971679687500e+02,-8.645652979612350464e-02,8.911479949951171875e+01,2.153553068637847900e-03,1.507750004529953003e-01,9.659266471862792969e+00,-1.268201572202087846e-06,1.827662996947765350e-02,3.355361521244049072e-01,-5.731529017793945968e-05,2.536587715148925781e-01,1.630965806543827057e-02,-6.116911023855209351e-02,5.000000000000000000e-01,-3.058297152165323496e-04,0.000000000000000000e+00
2.195794820785522461e+00,-2.300487279891967773e+00,2.717120971679687500e+02,2.717120971679687500e+02,-8.645652979612350464e-02,8.911479949951171875e+01,2.153553068637847900e-03,1.507750004529953003e-01,9.659266471862792969e+00,-1.268201572202087846e-06,1.827662996947765350e-02,3.355361521244049072e-01,-5.731529017793945968e-05,2.536587715148925781e-01,1.630965806543827057e-02,-6.116911023855209351e-02,5.000000000000000000e-01,-3.058297152165323496e-04,0.000000000000000000e+00
2.195794820785522461e+00,-2.300487279891967773e+00,2.717120971679687500e+02,2.717120971679687500e+02,-8.645652979612350464e-02,8.911479949951171875e+01,2.153553068637847900e-03,1.507750004529953003e-01,9.659266471862792969e+00,-1.268201572202087846e-06,1.827662996947765350e-02,3.355361521244049072e-01,-5.731529017793945968e-05,2.536587715148925781e-01,1.630965806543827057e-02,-6.116911023855209351e-02,5.000000000000000000e-01,-3.058297152165323496e-04,0.000000000000000000e+00
2.195794820785522461e+00,-2.300487279891967773e+00,2.717120971679687500e+02,2.717120971679687500e+02,-8.645652979612350464e-02,8.911479949951171875e+01,2.153553068637847900e-03,1.507750004529953003e-01,9.659266471862792969e+00,-1.268201572202087846e-06,1.827662996947765350e-02,3.355361521244049072e-01,-5.731529017793945968e-05,2.536587715148925781e-01,1.630965806543827057e-02,-6.116911023855209351e-02,5.000000000000000000e-01,-3.058297152165323496e-04,0.000000000000000000e+00
2.374083757400512695e+00,-2.292503118515014648e+00,2.722250366210937500e+02,2.722250366210937500e+02,-7.428513467311859131e-02,8.911178588867187500e+01,1.367249526083469391e-03,1.511497050523757935e-01,9.666728973388671875e+00,-1.678244075264956336e-06,2.101670484989881516e-03,4.185622185468673706e-02,-2.299876314282300882e-06,2.186278998851776123e-01,1.002781558781862259e-02,-5.479273200035095215e-02,5.000000000000000000e-01,-2.483912976458668709e-04,0.000000000000000000e+00
2.374083757400512695e+00,-2.292503118515014648e+00,2.722250366210937500e+02,2.722250366210937500e+02,-7.428513467311859131e-02,8.911178588867187500e+01,1.367249526083469391e-03,1.511497050523757935e-01,9.666728973388671875e+00,-1.678244075264956336e-06,2.101670484989881516e-03,4.185622185468673706e-02,-2.299876314282300882e-06,2.186278998851776123e-01,1.002781558781862259e-02,-5.479273200035095215e-02,5.000000000000000000e-01,-2.483912976458668709e-04,0.000000000000000000e+00
2.374083757400512695e+00,-2.292503118515014648e+00,2.722250366210937500e+02,2.722250366210937500e+02,-7.428513467311859131e-02,8.911178588867187500e+01,1.367249526083469391e-03,1.511497050523757935e-01,9.666728973388671875e+00,-1.678244075264956336e-06,2.101670484989881516e-03,4.185622185468673706e-02,-2.299876314282300882e-06,2.186278998851776123e-01,1.002781558781862259e-02,-5.479273200035095215e-02,5.000000000000000000e-01,-2.483912976458668709e-04,0.000000000000000000e+00
2.447860002517700195e+00,-2.277395009994506836e+00,2.731923828125000000e+02,2.731923828125000000e+02,-5.502400174736976624e-02,8.910693359375000000e+01,2.970066270790994167e-04,1.518691778182983398e-01,9.676056861877441406e+00,-2.231225835203076713e-06,9.752092882990837097e-03,1.264348477125167847e-01,-7.495390491385478526e-06,1.672392040491104126e-01,6.870429962873458862e-03,-4.613317176699638367e-02,5.000000000000000000e-01,-2.186366473324596882e-04,0.000000000000000000e+00
2.447860002517700195e+00,-2.277395009994506836e+00,2.731923828125000000e+02,2.731923828125000000e+02,-5.502400174736976624e-02,8.910693359375000000e+01,2.970066270790994167e-04,1.518691778182983398e-01,9.676056861877441406e+00,-2.231225835203076713e-06,9.752092882990837097e-03,1.264348477125167847e-01,-7.495390491385478526e-06,1.672392040491104126e-01,6.870429962873458862e-03,-4.613317176699638367e-02,5.000000000000000000e-01,-2.186366473324596882e-04,0.000000000000000000e+00
2.500878810882568359e+00,-2.266208410263061523e+00,2.739064331054687500e+02,2.739064331054687500e+02,-4.421864077448844910e-02,8.910406494140625000e+01,-6.103649502620100975e-05,1.520695984363555908e-01,9.675544738769531250e+00,-2.250339093734510243e-06,3.780179657042026520e-03,-9.659272618591785431e-03,-3.604995697514823405e-07,1.531154066324234009e-01,2.087773522362112999e-03,-3.591149672865867615e-02,5.000000000000000000e-01,-1.560756209073588252e-04,0.000000000000000000e+00
2.500878810882568359e+00,-2.266208410263061523e+00,2.739064331054687500e+02,2.739064331054687500e+02,-4.421864077448844910e-02,8.910406494140625000e+01,-6.103649502620100975e-05,1.520695984363555908e-01,9.675544738769531250e+00,-2.250339093734510243e-06,3.780179657042026520e-03,-9.659272618591785431e-03,-3.604995697514823405e-07,1.531154066324234009e-01,2.087773522362112999e-03,-3.591149672865867615e-02,5.000000000000000000e-01,-1.560756209073588252e-04,0.000000000000000000e+00
2.500878810882568359e+00,-2.266208410263061523e+00,2.739064331054687500e+02,2.739064331054687500e+02,-4.421864077448844910e-02,8.910406494140625000e+01,-6.103649502620100975e-05,1.520695984363555908e-01,9.675544738769531250e+00,-2.250339093734510243e-06,3.780179657042026520e-03,-9.659272618591785431e-03,-3.604995697514823405e-07,1.531154066324234009e-01,2.087773522362112999e-03,-3.591149672865867615e-02,5.000000000000000000e-01,-1.560756209073588252e-04,0.000000000000000000e+00
2.560195446014404297e+00,-2.258161783218383789e+00,2.744191894531250000e+02,2.744191894531250000e+02,-3.613169863820075989e-02,8.910243225097656250e+01,-2.136235270882025361e-04,1.520372927188873291e-01,9.667688369750976562e+00,-2.975069492094917223e-06,-5.446316790767014027e-04,-1.324479877948760986e-01,-1.221799539052881300e-05,1.527763456106185913e-01,-2.484727010596543550e-04,-2.858209609985351562e-02,5.000000000000000000e-01,-1.144409179687500000e-04,0.000000000000000000e+00
2.560195446014404297e+00,-2.258161783218383789e+00,2.744191894531250000e+02,2.744191894531250000e+02,-3.613169863820075989e-02,8.910243225097656250e+01,-2.136235270882025361e-04,1.520372927188873291e-01,9.667688369750976562e+00,-2.975069492094917223e-06,-5.446316790767014027e-04,-1.324479877948760986e-01,-1.221799539052881300e-05,1.527763456106185913e-01,-2.484727010596543550e-04,-2.858209609985351562e-02,5.000000000000000000e-01,-1.144409179687500000e-04,0.000000000000000000e+00
2.560195446014404297e+00,-2.249158620834350586e+00,2.749923400878906250e+02,2.749923400878906250e+02,-2.746418863534927368e-02,8.910100555419921875e+01,-2.746591635514050722e-04,1.519946455955505371e-01,9.658337593078613281e+00,-2.059631015072227456e-06,-7.285735337063670158e-04,-1.597464829683303833e-01,1.563913792779203504e-05,1.381435692310333252e-01,-7.176561048254370689e-04,-2.230490557849407196e-02,5.000000000000000000e-01,-9.133475396083667874e-05,0.000000000000000000e+00
2.618730545043945312e+00,-2.249158620834350586e+00,2.749923400878906250e+02,2.749923400878906250e+02,-2.746418863534927368e-02,8.910100555419921875e+01,-2.746591635514050722e-04,1.519946455955505371e-01,9.658337593078613281e+00,-2.059631015072227456e-06,-7.285735337063670158e-04,-1.597464829683303833e-01,1.563913792779203504e-05,1.381435692310333252e-01,-7.176561048254370689e-04,-2.230490557849407196e-02,5.000000000000000000e-01,-9.133475396083667874e-05,0.000000000000000000e+00
2.618730545043945312e+00,-2.240273952484130859e+00,2.755573730468750000e+02,2.755573730468750000e+02,-2.029249072074890137e-02,8.909989166259765625e+01,-3.356948145665228367e-04,1.519368737936019897e-01,9.649114608764648438e+00,-2.307554041180992499e-06,-9.858076227828860283e-04,-1.573793441057205200e-01,-4.230513695802073926e-06,1.130070239305496216e-01,-9.529354865662753582e-04,-1.748402416706085205e-02,5.000000000000000000e-01,-7.160731911426410079e-05,0.000000000000000000e+00
2.677334070205688477e+00,-2.240273952484130859e+00,2.755573730468750000e+02,2.755573730468750000e+02,-2.029249072074890137e-02,8.909989166259765625e+01,-3.356948145665228367e-04,1.519368737936019897e-01,9.649114608764648438e+00,-2.307554041180992499e-06,-9.858076227828860283e-04,-1.573793441057205200e-01,-4.230513695802073926e-06,1.130070239305496216e-01,-9.529354865662753582e-04,-1.748402416706085205e-02,5.000000000000000000e-01,-7.160731911426410079e-05,0.000000000000000000e+00
2.677334070205688477e+00,-2.240273952484130859e+00,2.755573730468750000e+02,2.755573730468750000e+02,-2.029249072074890137e-02,8.909989166259765625e+01,-3.356948145665228367e-04,1.519368737936019897e-01,9.649114608764648438e+00,-2.307554041180992499e-06,-9.858076227828860283e-04,-1.573793441057205200e-01,-4.230513695802073926e-06,1.130070239305496216e-01,-9.529354865662753582e-04,-1.748402416706085205e-02,5.000000000000000000e-01,-7.160731911426410079e-05,0.000000000000000000e+00
2.677334070205688477e+00,-2.240273952484130859e+00,2.755573730468750000e+02,2.755573730468750000e+02,-2.029249072074890137e-02,8.909989166259765625e+01,-3.356948145665228367e-04,1.519368737936019897e-01,9.649114608764648438e+00,-2.307554041180992499e-06,-9.858076227828860283e-04,-1.573793441057205200e-01,-4.230513695802073926e-06,1.130070239305496216e-01,-9.529354865662753582e-04,-1.748402416706085205e-02,5.000000000000000000e-01,-7.160731911426410079e-05,0.000000000000000000e+00
2.755024909973144531e+00,-2.231380462646484375e+00,2.761225280761718750e+02,2.761225280761718750e+02,-1.455513201653957367e-02,8.909902191162109375e+01,-3.356931265443563461e-04,1.518651843070983887e-01,9.639889717102050781e+00,-8.772518071964441333e-07,-9.227534173987805843e-04,-1.187384724617004395e-01,1.841017910919617862e-05,8.928651362657546997e-02,-1.090600155293941498e-03,-1.376755721867084503e-02,5.000000000000000000e-01,-5.667550067300908267e-05,0.000000000000000000e+00
2.755024909973144531e+00,-2.231380462646484375e+00,2.761225280761718750e+02,2.761225280761718750e+02,-1.455513201653957367e-02,8.909902191162109375e+01,-3.356931265443563461e-04,1.518651843070983887e-01,9.639889717102050781e+00,-8.772518071964441333e-07,-9.227534173987805843e-04,-1.187384724617004395e-01,1.841017910919617862e-05,8.928651362657546997e-02,-1.090600155293941498e-03,-1.376755721867084503e-02,5.000000000000000000e-01,-5.667550067300908267e-05,0.000000000000000000e+00
2.755024909973144531e+00,-2.231380462646484375e+00,2.761225280761718750e+02,2.761225280761718750e+02,-1.455513201653957367e-02,8.909902191162109375e+01,-3.356931265443563461e-04,1.518651843070983887e-01,9.639889717102050781e+00,-8.772518071964441333e-07,-9.227534173987805843e-04,-1.187384724617004395e-01,1.841017910919617862e-05,8.928651362657546997e-02,-1.090600155293941498e-03,-1.376755721867084503e-02,5.000000000000000000e-01,-5.667550067300908267e-05,0.000000000000000000e+00
2.830169916152954102e+00,-2.219595432281494141e+00,2.768708801269531250e+02,2.768708801269531250e+02,-8.824603632092475891e-03,8.909814453125000000e+01,-3.356935339979827404e-04,1.517466306686401367e-01,9.627676010131835938e+00,-1.649600108066806570e-06,-1.577664865180850029e-03,-1.625351756811141968e-01,-1.027810503728687763e-05,6.349238753318786621e-02,-9.473667596466839314e-04,-1.002950780093669891e-02,5.000000000000000000e-01,-4.250662823324091733e-05,0.000000000000000000e+00
2.830169916152954102e+00,-2.219595432281494141e+00,2.768708801269531250e+02,2.768708801269531250e+02,-8.824603632092475891e-03,8.909814453125000000e+01,-3.356935339979827404e-04,1.517466306686401367e-01,9.627676010131835938e+00,-1.649600108066806570e-06,-1.577664865180850029e-03,-1.625351756811141968e-01,-1.027810503728687763e-05,6.349238753318786621e-02,-9.473667596466839314e-04,-1.002950780093669891e-02,5.000000000000000000e-01,-4.250662823324091733e-05,0.000000000000000000e+00
2.830169916152954102e+00,-2.219595432281494141e+00,2.768708801269531250e+02,2.768708801269531250e+02,-8.824603632092475891e-03,8.909814453125000000e+01,-3.356935339979827404e-04,1.517466306686401367e-01,9.627676010131835938e+00,-1.649600108066806570e-06,-1.577664865180850029e-03,-1.625351756811141968e-01,-1.027810503728687763e-05,6.349238753318786621e-02,-9.473667596466839314e-04,-1.002950780093669891e-02,5.000000000000000000e-01,-4.250662823324091733e-05,0.000000000000000000e+00
2.830169916152954102e+00,-2.219595432281494141e+00,2.768708801269531250e+02,2.768708801269531250e+02,-8.824603632092475891e-03,8.909814453125000000e+01,-3.356935339979827404e-04,1.517466306686401367e-01,9.627676010131835938e+00,-1.649600108066806570e-06,-1.577664865180850029e-03,-1.625351756811141968e-01,-1.027810503728687763e-05,6.349238753318786621e-02,-9.473667596466839314e-04,-1.002950780093669891e-02,5.000000000000000000e-01,-4.250662823324091733e-05,0.000000000000000000e+00
2.830169916152954102e+00,-2.219595432281494141e+00,2.768708801269531250e+02,2.768708801269531250e+02,-8.824603632092475891e-03,8.909814453125000000e+01,-3.356935339979827404e-04,1.517466306686401367e-01,9.627676010131835938e+00,-1.649600108066806570e-06,-1.577664865180850029e-03,-1.625351756811141968e-01,-1.027810503728687763e-05,6.349238753318786621e-02,-9.473667596466839314e-04,-1.002950780093669891e-02,5.000000000000000000e-01,-4.250662823324091733e-05,0.000000000000000000e+00
2.917726278305053711e+00,-2.208204269409179688e+00,2.775938720703125000e+02,2.775938720703125000e+02,-4.979207646101713181e-03,8.909754943847656250e+01,-3.051758976653218269e-04,1.516080796718597412e-01,9.615880966186523438e+00,-8.581778843108622823e-07,-1.582420547492802143e-03,-1.347137242555618286e-01,9.039003089128527790e-06,4.412509873509407043e-02,-1.065655029378831387e-03,-7.262963801622390747e-03,5.000000000000000000e-01,-3.029959589184727520e-05,0.000000000000000000e+00
