# Time,X,Y,Z,Roll,Pitch,Yaw,Vx,Vy,Vz,Ax,Ay,Az,Wx,Wy,Wz,Throttle,Steer,Brake
0.000000000000000000e+00,-2.868841171264648438e+01,4.190985107421875000e+01,4.190985107421875000e+01,5.464151035994291306e-05,-2.160339206457138062e-01,-3.051757266803178936e-05,-7.671797419561698916e-09,4.201016068350327259e-08,1.405231188982725143e-03,7.376421251592546469e-08,-1.033098726566095138e-07,1.448863279074430466e-02,3.231878508813679218e-05,5.523390882444800809e-06,2.986997316156703164e-09,0.000000000000000000e+00,9.042020887136459351e-03,1.000000000000000000e+00
1.045818328857421875e-01,-2.868841171264648438e+01,4.190985107421875000e+01,4.190985107421875000e+01,5.464151035994291306e-05,-2.160339206457138062e-01,-3.051757266803178936e-05,-7.671797419561698916e-09,4.201016068350327259e-08,1.405231188982725143e-03,7.376421251592546469e-08,-1.033098726566095138e-07,1.448863279074430466e-02,3.231878508813679218e-05,5.523390882444800809e-06,2.986997316156703164e-09,0.000000000000000000e+00,9.042020887136459351e-03,1.000000000000000000e+00
1.045818328857421875e-01,-2.868841171264648438e+01,4.190985107421875000e+01,4.190985107421875000e+01,5.464151035994291306e-05,-2.160339206457138062e-01,-3.051757266803178936e-05,-7.671797419561698916e-09,4.201016068350327259e-08,1.405231188982725143e-03,7.376421251592546469e-08,-1.033098726566095138e-07,1.448863279074430466e-02,3.231878508813679218e-05,5.523390882444800809e-06,2.986997316156703164e-09,0.000000000000000000e+00,9.042020887136459351e-03,1.000000000000000000e+00
1.045818328857421875e-01,-2.868841171264648438e+01,4.190985107421875000e+01,4.190985107421875000e+01,5.464151035994291306e-05,-2.160339206457138062e-01,-3.051757266803178936e-05,-7.671797419561698916e-09,4.201016068350327259e-08,1.405231188982725143e-03,7.376421251592546469e-08,-1.033098726566095138e-07,1.448863279074430466e-02,3.231878508813679218e-05,5.523390882444800809e-06,2.986997316156703164e-09,0.000000000000000000e+00,9.042020887136459351e-03,1.000000000000000000e+00
1.045818328857421875e-01,-2.868841171264648438e+01,4.190985107421875000e+01,4.190985107421875000e+01,5.464151035994291306e-05,-2.160339206457138062e-01,-3.051757266803178936e-05,-7.671797419561698916e-09,4.201016068350327259e-08,1.405231188982725143e-03,7.376421251592546469e-08,-1.033098726566095138e-07,1.448863279074430466e-02,3.231878508813679218e-05,5.523390882444800809e-06,2.986997316156703164e-09,0.000000000000000000e+00,9.042020887136459351e-03,1.000000000000000000e+00
1.045818328857421875e-01,-2.868841171264648438e+01,4.190985107421875000e+01,4.190985107421875000e+01,5.464151035994291306e-05,-2.160339206457138062e-01,-3.051757266803178936e-05,-7.671797419561698916e-09,4.201016068350327259e-08,1.405231188982725143e-03,7.376421251592546469e-08,-1.033098726566095138e-07,1.448863279074430466e-02,3.231878508813679218e-05,5.523390882444800809e-06,2.986997316156703164e-09,0.000000000000000000e+00,9.042020887136459351e-03,1.000000000000000000e+00
1.045818328857421875e-01,-2.868841171264648438e+01,4.190985107421875000e+01,4.190985107421875000e+01,5.464151035994291306e-05,-2.160339206457138062e-01,-3.051757266803178936e-05,-2.086462380646025849e-08,-2.542000387961707020e-08,-1.089048106223344803e-03,-1.259952568943845108e-07,-6.439773301281093154e-07,-2.382107824087142944e-02,-1.210235222970368341e-05,1.456348036299459636e-05,-5.789486667850951562e-09,0.000000000000000000e+00,9.042020887136459351e-03,1.000000000000000000e+00
2.092907428741455078e-01,-2.868841171264648438e+01,4.190985107421875000e+01,4.190985107421875000e+01,5.464151035994291306e-05,-2.160339206457138062e-01,-3.051757266803178936e-05,-2.086462380646025849e-08,-2.542000387961707020e-08,-1.089048106223344803e-03,-1.259952568943845108e-07,-6.439773301281093154e-07,-2.382107824087142944e-02,-1.210235222970368341e-05,1.456348036299459636e-05,-5.789486667850951562e-09,0.000000000000000000e+00,9.042020887136459351e-03,1.000000000000000000e+00
2.092907428741455078e-01,-2.868841171264648438e+01,4.190985107421875000e+01,4.190985107421875000e+01,5.464151035994291306e-05,-2.160339206457138062e-01,-3.051757266803178936e-05,-2.086462380646025849e-08,-2.542000387961707020e-08,-1.089048106223344803e-03,-1.259952568943845108e-07,-6.439773301281093154e-07,-2.382107824087142944e-02,-1.210235222970368341e-05,1.456348036299459636e-05,-5.789486667850951562e-09,0.000000000000000000e+00,9.042020887136459351e-03,1.000000000000000000e+00
2.092907428741455078e-01,-2.868841171264648438e+01,4.190985107421875000e+01,4.190985107421875000e+01,5.464151035994291306e-05,-2.160339206457138062e-01,-3.051757266803178936e-05,-2.086462380646025849e-08,-2.542000387961707020e-08,-1.089048106223344803e-03,-1.259952568943845108e-07,-6.439773301281093154e-07,-2.382107824087142944e-02,-1.210235222970368341e-05,1.456348036299459636e-05,-5.789486667850951562e-09,0.000000000000000000e+00,9.042020887136459351e-03,1.000000000000000000e+00
2.092907428741455078e-01,-2.868841171264648438e+01,4.190985107421875000e+01,4.190985107421875000e+01,5.464151035994291306e-05,-2.160339206457138062e-01,-3.051757266803178936e-05,-2.086462380646025849e-08,-2.542000387961707020e-08,-1.089048106223344803e-03,-1.259952568943845108e-07,-6.439773301281093154e-07,-2.382107824087142944e-02,-1.210235222970368341e-05,1.456348036299459636e-05,-5.789486667850951562e-09,0.000000000000000000e+00,9.042020887136459351e-03,1.000000000000000000e+00
2.092907428741455078e-01,-2.868841171264648438e+01,4.190985107421875000e+01,4.190985107421875000e+01,5.464151035994291306e-05,-2.160339206457138062e-01,-3.051757266803178936e-05,-5.156829274710617028e-08,-2.411486477171820297e-08,-2.869127783924341202e-04,-4.114748435313231312e-07,1.749080702495575679e-08,1.074980758130550385e-02,-1.250150307896547019e-05,3.559853576007299125e-05,-1.264719884375153924e-08,0.000000000000000000e+00,9.042020887136459351e-03,1.000000000000000000e+00
2.839093208312988281e-01,-2.868841171264648438e+01,4.190985107421875000e+01,4.190985107421875000e+01,5.464151035994291306e-05,-2.160339206457138062e-01,-3.051757266803178936e-05,-5.156829274710617028e-08,-2.411486477171820297e-08,-2.869127783924341202e-04,-4.114748435313231312e-07,1.749080702495575679e-08,1.074980758130550385e-02,-1.250150307896547019e-05,3.559853576007299125e-05,-1.264719884375153924e-08,0.000000000000000000e+00,9.042020887136459351e-03,1.000000000000000000e+00
2.839093208312988281e-01,-2.868841171264648438e+01,4.190985107421875000e+01,4.190985107421875000e+01,5.464151035994291306e-05,-2.160339206457138062e-01,-3.051757266803178936e-05,-5.156829274710617028e-08,-2.411486477171820297e-08,-2.869127783924341202e-04,-4.114748435313231312e-07,1.749080702495575679e-08,1.074980758130550385e-02,-1.250150307896547019e-05,3.559853576007299125e-05,-1.264719884375153924e-08,0.000000000000000000e+00,9.042020887136459351e-03,1.000000000000000000e+00
2.839093208312988281e-01,-2.868841171264648438e+01,4.190985107421875000e+01,4.190985107421875000e+01,5.464151035994291306e-05,-2.160339206457138062e-01,-3.051757266803178936e-05,-5.156829274710617028e-08,-2.411486477171820297e-08,-2.869127783924341202e-04,-4.114748435313231312e-07,1.749080702495575679e-08,1.074980758130550385e-02,-1.250150307896547019e-05,3.559853576007299125e-05,-1.264719884375153924e-08,0.000000000000000000e+00,9.042020887136459351e-03,1.000000000000000000e+00
2.839093208312988281e-01,-2.868841171264648438e+01,4.190985107421875000e+01,4.190985107421875000e+01,5.464151035994291306e-05,-2.160339206457138062e-01,-3.051757266803178936e-05,-5.156829274710617028e-08,-2.411486477171820297e-08,-2.869127783924341202e-04,-4.114748435313231312e-07,1.749080702495575679e-08,1.074980758130550385e-02,-1.250150307896547019e-05,3.559853576007299125e-05,-1.264719884375153924e-08,0.000000000000000000e+00,9.042020887136459351e-03,1.000000000000000000e+00
3.569011688232421875e-01,-2.868841171264648438e+01,4.190985107421875000e+01,4.190985107421875000e+01,5.464151035994291306e-05,-2.160339206457138062e-01,-3.051757266803178936e-05,-1.913457658986317256e-08,-1.077401723392767963e-08,2.068878238787874579e-04,4.443471368631435325e-07,1.827717426294839242e-07,6.765147671103477478e-03,-7.485920832550618798e-06,1.298117331316461787e-05,-3.495881806259149016e-09,0.000000000000000000e+00,9.042020887136459351e-03,1.000000000000000000e+00
3.569011688232421875e-01,-2.868841171264648438e+01,4.190985107421875000e+01,4.190985107421875000e+01,5.464151035994291306e-05,-2.160339206457138062e-01,-3.051757266803178936e-05,-1.913457658986317256e-08,-1.077401723392767963e-08,2.068878238787874579e-04,4.443471368631435325e-07,1.827717426294839242e-07,6.765147671103477478e-03,-7.485920832550618798e-06,1.298117331316461787e-05,-3.495881806259149016e-09,0.000000000000000000e+00,9.042020887136459351e-03,1.000000000000000000e+00
3.569011688232421875e-01,-2.868841171264648438e+01,4.190985107421875000e+01,4.190985107421875000e+01,5.464151035994291306e-05,-2.160339206457138062e-01,-3.051757266803178936e-05,-1.913457658986317256e-08,-1.077401723392767963e-08,2.068878238787874579e-04,4.443471368631435325e-07,1.827717426294839242e-07,6.765147671103477478e-03,-7.485920832550618798e-06,1.298117331316461787e-05,-3.495881806259149016e-09,0.000000000000000000e+00,9.042020887136459351e-03,1.000000000000000000e+00
3.569011688232421875e-01,-2.868841171264648438e+01,4.190985107421875000e+01,4.190985107421875000e+01,5.464151035994291306e-05,-2.160339206457138062e-01,-3.051757266803178936e-05,-1.913457658986317256e-08,-1.077401723392767963e-08,2.068878238787874579e-04,4.443471368631435325e-07,1.827717426294839242e-07,6.765147671103477478e-03,-7.485920832550618798e-06,1.298117331316461787e-05,-3.495881806259149016e-09,0.000000000000000000e+00,9.042020887136459351e-03,1.000000000000000000e+00
4.765405654907226562e-01,-2.868841171264648438e+01,4.190985107421875000e+01,4.190985107421875000e+01,5.464151035994291306e-05,-2.160339206457138062e-01,-3.051757266803178936e-05,1.917455749733676384e-09,3.746475485399969330e-08,3.231053706258535385e-04,1.759623842190194409e-07,4.032013976029702462e-07,9.713986655697226524e-04,3.049693077628035098e-05,3.088320852384640602e-07,-5.937452307591684075e-09,0.000000000000000000e+00,9.042020887136459351e-03,1.000000000000000000e+00
4.765405654907226562e-01,-2.868841171264648438e+01,4.190985107421875000e+01,4.190985107421875000e+01,5.464151035994291306e-05,-2.160339206457138062e-01,-3.051757266803178936e-05,1.917455749733676384e-09,3.746475485399969330e-08,3.231053706258535385e-04,1.759623842190194409e-07,4.032013976029702462e-07,9.713986655697226524e-04,3.049693077628035098e-05,3.088320852384640602e-07,-5.937452307591684075e-09,0.000000000000000000e+00,9.042020887136459351e-03,1.000000000000000000e+00
4.765405654907226562e-01,-2.868841171264648438e+01,4.190985107421875000e+01,4.190985107421875000e+01,5.464151035994291306e-05,-2.160339206457138062e-01,-3.051757266803178936e-05,1.917455749733676384e-09,3.746475485399969330e-08,3.231053706258535385e-04,1.759623842190194409e-07,4.032013976029702462e-07,9.713986655697226524e-04,3.049693077628035098e-05,3.088320852384640602e-07,-5.937452307591684075e-09,0.000000000000000000e+00,9.042020887136459351e-03,1.000000000000000000e+00
4.765405654907226562e-01,-2.868841171264648438e+01,4.190985107421875000e+01,4.190985107421875000e+01,5.464151035994291306e-05,-2.160339206457138062e-01,-3.051757266803178936e-05,1.917455749733676384e-09,3.746475485399969330e-08,3.231053706258535385e-04,1.759623842190194409e-07,4.032013976029702462e-07,9.713986655697226524e-04,3.049693077628035098e-05,3.088320852384640602e-07,-5.937452307591684075e-09,0.000000000000000000e+00,9.042020887136459351e-03,1.000000000000000000e+00
4.765405654907226562e-01,-2.868841171264648438e+01,4.190985107421875000e+01,4.190985107421875000e+01,5.464151035994291306e-05,-2.160339206457138062e-01,-3.051757266803178936e-05,1.917455749733676384e-09,3.746475485399969330e-08,3.231053706258535385e-04,1.759623842190194409e-07,4.032013976029702462e-07,9.713986655697226524e-04,3.049693077628035098e-05,3.088320852384640602e-07,-5.937452307591684075e-09,0.000000000000000000e+00,9.042020887136459351e-03,1.000000000000000000e+00
4.765405654907226562e-01,-2.868841171264648438e+01,4.190985107421875000e+01,4.190985107421875000e+01,5.464151035994291306e-05,-2.160339206457138062e-01,-3.051757266803178936e-05,1.917455749733676384e-09,3.746475485399969330e-08,3.231053706258535385e-04,1.759623842190194409e-07,4.032013976029702462e-07,9.713986655697226524e-04,3.049693077628035098e-05,3.088320852384640602e-07,-5.937452307591684075e-09,0.000000000000000000e+00,9.042020887136459351e-03,1.000000000000000000e+00
4.765405654907226562e-01,-2.868841171264648438e+01,4.190985107421875000e+01,4.190985107421875000e+01,5.464151035994291306e-05,-2.160339206457138062e-01,-3.051757266803178936e-05,1.917455749733676384e-09,3.746475485399969330e-08,3.231053706258535385e-04,1.759623842190194409e-07,4.032013976029702462e-07,9.713986655697226524e-04,3.049693077628035098e-05,3.088320852384640602e-07,-5.937452307591684075e-09,0.000000000000000000e+00,9.042020887136459351e-03,1.000000000000000000e+00
6.200885772705078125e-01,-2.868841171264648438e+01,4.190985107421875000e+01,4.190985107421875000e+01,5.464151035994291306e-05,-2.160339206457138062e-01,-3.051757266803178936e-05,-3.032108253364640404e-08,-2.639539253834755073e-08,-9.002901497296988964e-04,-2.245836725478511653e-07,-4.448696415693120798e-07,-8.522553369402885437e-03,-1.289290139538934454e-05,1.986792449315544218e-05,-4.999187730447829381e-10,0.000000000000000000e+00,9.042020887136459351e-03,1.000000000000000000e+00
6.200885772705078125e-01,-2.868841171264648438e+01,4.190985107421875000e+01,4.190985107421875000e+01,5.464151035994291306e-05,-2.160339206457138062e-01,-3.051757266803178936e-05,-3.032108253364640404e-08,-2.639539253834755073e-08,-9.002901497296988964e-04,-2.245836725478511653e-07,-4.448696415693120798e-07,-8.522553369402885437e-03,-1.289290139538934454e-05,1.986792449315544218e-05,-4.999187730447829381e-10,0.000000000000000000e+00,9.042020887136459351e-03,1.000000000000000000e+00
6.200885772705078125e-01,-2.868841171264648438e+01,4.190985107421875000e+01,4.190985107421875000e+01,5.464151035994291306e-05,-2.160339206457138062e-01,-3.051757266803178936e-05,-3.032108253364640404e-08,-2.639539253834755073e-08,-9.002901497296988964e-04,-2.245836725478511653e-07,-4.448696415693120798e-07,-8.522553369402885437e-03,-1.289290139538934454e-05,1.986792449315544218e-05,-4.999187730447829381e-10,0.000000000000000000e+00,9.042020887136459351e-03,1.000000000000000000e+00
6.200885772705078125e-01,-2.868841171264648438e+01,4.190985107421875000e+01,4.190985107421875000e+01,5.464151035994291306e-05,-2.160339206457138062e-01,-3.051757266803178936e-05,-3.032108253364640404e-08,-2.639539253834755073e-08,-9.002901497296988964e-04,-2.245836725478511653e-07,-4.448696415693120798e-07,-8.522553369402885437e-03,-1.289290139538934454e-05,1.986792449315544218e-05,-4.999187730447829381e-10,0.000000000000000000e+00,9.042020887136459351e-03,1.000000000000000000e+00
6.200885772705078125e-01,-2.868841171264648438e+01,4.190985107421875000e+01,4.190985107421875000e+01,5.464151035994291306e-05,-2.160339206457138062e-01,-3.051757266803178936e-05,-3.032108253364640404e-08,-2.639539253834755073e-08,-9.002901497296988964e-04,-2.245836725478511653e-07,-4.448696415693120798e-07,-8.522553369402885437e-03,-1.289290139538934454e-05,1.986792449315544218e-05,-4.999187730447829381e-10,0.000000000000000000e+00,9.042020887136459351e-03,1.000000000000000000e+00
6.200885772705078125e-01,-2.868841171264648438e+01,4.190985107421875000e+01,4.190985107421875000e+01,5.464151035994291306e-05,-2.160339206457138062e-01,-3.051757266803178936e-05,-3.032108253364640404e-08,-2.639539253834755073e-08,-9.002901497296988964e-04,-2.245836725478511653e-07,-4.448696415693120798e-07,-8.522553369402885437e-03,-1.289290139538934454e-05,1.986792449315544218e-05,-4.999187730447829381e-10,0.000000000000000000e+00,9.042020887136459351e-03,1.000000000000000000e+00
7.946169376373291016e-01,-2.868841171264648438e+01,4.190985107421875000e+01,4.190985107421875000e+01,5.464151035994291306e-05,-2.160339206457138062e-01,-3.051757266803178936e-05,2.472778781736906240e-08,-2.529321996291855612e-08,-1.449343380954815075e-05,3.154150363116059452e-07,6.315148848301532780e-09,5.075374152511358261e-03,-1.024112589220749214e-05,-1.566117316542658955e-05,-2.970819146241865383e-09,0.000000000000000000e+00,9.042020887136459351e-03,1.000000000000000000e+00
7.946169376373291016e-01,-2.868841171264648438e+01,4.190985107421875000e+01,4.190985107421875000e+01,5.464151035994291306e-05,-2.160339206457138062e-01,-3.051757266803178936e-05,2.472778781736906240e-08,-2.529321996291855612e-08,-1.449343380954815075e-05,3.154150363116059452e-07,6.315148848301532780e-09,5.075374152511358261e-03,-1.024112589220749214e-05,-1.566117316542658955e-05,-2.970819146241865383e-09,0.000000000000000000e+00,9.042020887136459351e-03,1.000000000000000000e+00
7.946169376373291016e-01,-2.868841171264648438e+01,4.190985107421875000e+01,4.190985107421875000e+01,5.464151035994291306e-05,-2.160339206457138062e-01,-3.051757266803178936e-05,2.472778781736906240e-08,-2.529321996291855612e-08,-1.449343380954815075e-05,3.154150363116059452e-07,6.315148848301532780e-09,5.075374152511358261e-03,-1.024112589220749214e-05,-1.566117316542658955e-05,-2.970819146241865383e-09,0.000000000000000000e+00,9.042020887136459351e-03,1.000000000000000000e+00
7.946169376373291016e-01,-2.868841171264648438e+01,4.190985107421875000e+01,4.190985107421875000e+01,5.464151035994291306e-05,-2.160339206457138062e-01,-3.051757266803178936e-05,2.472778781736906240e-08,-2.529321996291855612e-08,-1.449343380954815075e-05,3.154150363116059452e-07,6.315148848301532780e-09,5.075374152511358261e-03,-1.024112589220749214e-05,-1.566117316542658955e-05,-2.970819146241865383e-09,0.000000000000000000e+00,9.042020887136459351e-03,1.000000000000000000e+00
8.783230781555175781e-01,-2.868841171264648438e+01,4.190985107421875000e+01,4.190985107421875000e+01,5.464151035994291306e-05,-2.160339206457138062e-01,-3.051757266803178936e-05,1.818129824471270695e-08,2.632661200152597303e-08,2.160093717975541949e-04,-7.820799652336063446e-08,6.166791877149080392e-07,2.753714332357048988e-03,2.488768768671434373e-05,-1.332965621259063482e-05,1.267116811476398652e-08,0.000000000000000000e+00,9.042020887136459351e-03,1.000000000000000000e+00
8.783230781555175781e-01,-2.868841171264648438e+01,4.190985107421875000e+01,4.190985107421875000e+01,5.464151035994291306e-05,-2.160339206457138062e-01,-3.051757266803178936e-05,1.818129824471270695e-08,2.632661200152597303e-08,2.160093717975541949e-04,-7.820799652336063446e-08,6.166791877149080392e-07,2.753714332357048988e-03,2.488768768671434373e-05,-1.332965621259063482e-05,1.267116811476398652e-08,0.000000000000000000e+00,9.042020887136459351e-03,1.000000000000000000e+00
9.483780860900878906e-01,-2.868841171264648438e+01,4.190985107421875000e+01,4.190985107421875000e+01,5.464151035994291306e-05,-2.160339206457138062e-01,-3.051757266803178936e-05,-6.080573911049214075e-08,-9.233664499674887338e-09,5.459595704451203346e-04,-1.127500240727385972e-06,-5.076050797470088582e-07,4.709872882813215256e-03,-6.228228812688030303e-06,4.027508475701324642e-05,-2.089766137913784405e-09,0.000000000000000000e+00,9.042020887136459351e-03,1.000000000000000000e+00
9.483780860900878906e-01,-2.868841171264648438e+01,4.190985107421875000e+01,4.190985107421875000e+01,5.464151035994291306e-05,-2.160339206457138062e-01,-3.051757266803178936e-05,-6.080573911049214075e-08,-9.233664499674887338e-09,5.459595704451203346e-04,-1.127500240727385972e-06,-5.076050797470088582e-07,4.709872882813215256e-03,-6.228228812688030303e-06,4.027508475701324642e-05,-2.089766137913784405e-09,0.000000000000000000e+00,9.042020887136459351e-03,1.000000000000000000e+00
9.483780860900878906e-01,-2.868841171264648438e+01,4.190985107421875000e+01,4.190985107421875000e+01,5.464151035994291306e-05,-2.160339206457138062e-01,-3.051757266803178936e-05,-6.080573911049214075e-08,-9.233664499674887338e-09,5.459595704451203346e-04,-1.127500240727385972e-06,-5.076050797470088582e-07,4.709872882813215256e-03,-6.228228812688030303e-06,4.027508475701324642e-05,-2.089766137913784405e-09,0.000000000000000000e+00,9.042020887136459351e-03,1.000000000000000000e+00
9.483780860900878906e-01,-2.868841171264648438e+01,4.190985107421875000e+01,4.190985107421875000e+01,5.464151035994291306e-05,-2.160339206457138062e-01,-3.051757266803178936e-05,-6.080573911049214075e-08,-9.233664499674887338e-09,5.459595704451203346e-04,-1.127500240727385972e-06,-5.076050797470088582e-07,4.709872882813215256e-03,-6.228228812688030303e-06,4.027508475701324642e-05,-2.089766137913784405e-09,0.000000000000000000e+00,9.042020887136459351e-03,1.000000000000000000e+00
9.483780860900878906e-01,-2.868841171264648438e+01,4.190985107421875000e+01,4.190985107421875000e+01,5.464151035994291306e-05,-2.160339206457138062e-01,-3.051757266803178936e-05,-3.608864318493942847e-08,-9.647556087344355547e-10,4.264424787834286690e-04,3.136726718366844580e-07,1.049367099881237664e-07,-1.516733434982597828e-03,4.989819899492431432e-07,2.509121986804530025e-05,-9.583582816219404776e-09,0.000000000000000000e+00,9.042020887136459351e-03,1.000000000000000000e+00
1.027177095413208008e+00,-2.868841171264648438e+01,4.190985107421875000e+01,4.190985107421875000e+01,5.464151035994291306e-05,-2.160339206457138062e-01,-3.051757266803178936e-05,-3.608864318493942847e-08,-9.647556087344355547e-10,4.264424787834286690e-04,3.136726718366844580e-07,1.049367099881237664e-07,-1.516733434982597828e-03,4.989819899492431432e-07,2.509121986804530025e-05,-9.583582816219404776e-09,0.000000000000000000e+00,9.042020887136459351e-03,1.000000000000000000e+00
1.027177095413208008e+00,-2.868841171264648438e+01,4.190985107421875000e+01,4.190985107421875000e+01,5.464151035994291306e-05,-2.160339206457138062e-01,-3.051757266803178936e-05,-3.608864318493942847e-08,-9.647556087344355547e-10,4.264424787834286690e-04,3.136726718366844580e-07,1.049367099881237664e-07,-1.516733434982597828e-03,4.989819899492431432e-07,2.509121986804530025e-05,-9.583582816219404776e-09,0.000000000000000000e+00,9.042020887136459351e-03,1.000000000000000000e+00
1.095043420791625977e+00,-2.868841171264648438e+01,4.190985107421875000e+01,4.190985107421875000e+01,5.464151035994291306e-05,-2.160339206457138062e-01,-3.051757266803178936e-05,-3.139083304404266528e-08,4.535400321969973447e-08,-7.259273552335798740e-04,6.922152095967248897e-08,6.824998877164034639e-07,-1.697999611496925354e-02,3.430728611419908702e-05,2.203468284278642386e-05,-4.923448759797111052e-09,0.000000000000000000e+00,9.042020887136459351e-03,1.000000000000000000e+00
1.095043420791625977e+00,-2.868841171264648438e+01,4.190985107421875000e+01,4.190985107421875000e+01,5.464151035994291306e-05,-2.160339206457138062e-01,-3.051757266803178936e-05,-3.139083304404266528e-08,4.535400321969973447e-08,-7.259273552335798740e-04,6.922152095967248897e-08,6.824998877164034639e-07,-1.697999611496925354e-02,3.430728611419908702e-05,2.203468284278642386e-05,-4.923448759797111052e-09,0.000000000000000000e+00,9.042020887136459351e-03,1.000000000000000000e+00
1.095043420791625977e+00,-2.868841171264648438e+01,4.190985107421875000e+01,4.190985107421875000e+01,5.464151035994291306e-05,-2.160339206457138062e-01,-3.051757266803178936e-05,-3.139083304404266528e-08,4.535400321969973447e-08,-7.259273552335798740e-04,6.922152095967248897e-08,6.824998877164034639e-07,-1.697999611496925354e-02,3.430728611419908702e-05,2.203468284278642386e-05,-4.923448759797111052e-09,0.000000000000000000e+00,9.042020887136459351e-03,1.000000000000000000e+00
1.095043420791625977e+00,-2.868841171264648438e+01,4.190985107421875000e+01,4.190985107421875000e+01,5.464151035994291306e-05,-2.160339206457138062e-01,-3.051757266803178936e-05,-3.139083304404266528e-08,4.535400321969973447e-08,-7.259273552335798740e-04,6.922152095967248897e-08,6.824998877164034639e-07,-1.697999611496925354e-02,3.430728611419908702e-05,2.203468284278642386e-05,-4.923448759797111052e-09,0.000000000000000000e+00,9.042020887136459351e-03,1.000000000000000000e+00
1.168572425842285156e+00,-2.868841171264648438e+01,4.190985107421875000e+01,4.190985107421875000e+01,5.464151035994291306e-05,-2.160339206457138062e-01,-3.051757266803178936e-05,7.595137851978961407e-09,5.008529768701919238e-08,1.508345827460289001e-03,5.302121053318842314e-07,6.434596144799797912e-08,3.038628213107585907e-02,3.425172326387837529e-05,-5.979534307698486373e-06,1.122251003238261546e-08,0.000000000000000000e+00,9.042020887136459351e-03,1.000000000000000000e+00
1.168572425842285156e+00,-2.868841171264648438e+01,4.190985107421875000e+01,4.190985107421875000e+01,5.464151035994291306e-05,-2.160339206457138062e-01,-3.051757266803178936e-05,7.595137851978961407e-09,5.008529768701919238e-08,1.508345827460289001e-03,5.302121053318842314e-07,6.434596144799797912e-08,3.038628213107585907e-02,3.425172326387837529e-05,-5.979534307698486373e-06,1.122251003238261546e-08,0.000000000000000000e+00,9.042020887136459351e-03,1.000000000000000000e+00
1.168572425842285156e+00,-2.868841171264648438e+01,4.190985107421875000e+01,4.190985107421875000e+01,5.464151035994291306e-05,-2.160339206457138062e-01,-3.051757266803178936e-05,7.595137851978961407e-09,5.008529768701919238e-08,1.508345827460289001e-03,5.302121053318842314e-07,6.434596144799797912e-08,3.038628213107585907e-02,3.425172326387837529e-05,-5.979534307698486373e-06,1.122251003238261546e-08,0.000000000000000000e+00,9.042020887136459351e-03,1.000000000000000000e+00
1.168572425842285156e+00,-2.868841171264648438e+01,4.190985107421875000e+01,4.190985107421875000e+01,5.464151035994291306e-05,-2.160339206457138062e-01,-3.051757266803178936e-05,7.595137851978961407e-09,5.008529768701919238e-08,1.508345827460289001e-03,5.302121053318842314e-07,6.434596144799797912e-08,3.038628213107585907e-02,3.425172326387837529e-05,-5.979534307698486373e-06,1.122251003238261546e-08,0.000000000000000000e+00,9.042020887136459351e-03,1.000000000000000000e+00
1.168572425842285156e+00,-2.868841171264648438e+01,4.190985107421875000e+01,4.190985107421875000e+01,5.464151035994291306e-05,-2.160339206457138062e-01,-3.051757266803178936e-05,1.517487291380348324e-08,-6.658447571084025185e-09,-2.628893344081006944e-05,1.009978944921385846e-07,-7.560948347418161575e-07,-2.044858783483505249e-02,-1.599343931957264431e-06,-9.432441402168478817e-06,-4.350951154918902830e-09,0.000000000000000000e+00,9.042020887136459351e-03,1.000000000000000000e+00
1.243620872497558594e+00,-2.868841171264648438e+01,4.190985107421875000e+01,4.190985107421875000e+01,5.464151035994291306e-05,-2.160339206457138062e-01,-3.051757266803178936e-05,1.517487291380348324e-08,-6.658447571084025185e-09,-2.628893344081006944e-05,1.009978944921385846e-07,-7.560948347418161575e-07,-2.044858783483505249e-02,-1.599343931957264431e-06,-9.432441402168478817e-06,-4.350951154918902830e-09,0.000000000000000000e+00,9.042020887136459351e-03,1.000000000000000000e+00
1.243620872497558594e+00,-2.868841171264648438e+01,4.190985107421875000e+01,4.190985107421875000e+01,5.464151035994291306e-05,-2.160339206457138062e-01,-3.051757266803178936e-05,1.517487291380348324e-08,-6.658447571084025185e-09,-2.628893344081006944e-05,1.009978944921385846e-07,-7.560948347418161575e-07,-2.044858783483505249e-02,-1.599343931957264431e-06,-9.432441402168478817e-06,-4.350951154918902830e-09,0.000000000000000000e+00,9.042020887136459351e-03,1.000000000000000000e+00
1.243620872497558594e+00,-2.868841171264648438e+01,4.190985107421875000e+01,4.190985107421875000e+01,5.464151035994291306e-05,-2.160339206457138062e-01,-3.051757266803178936e-05,1.517487291380348324e-08,-6.658447571084025185e-09,-2.628893344081006944e-05,1.009978944921385846e-07,-7.560948347418161575e-07,-2.044858783483505249e-02,-1.599343931957264431e-06,-9.432441402168478817e-06,-4.350951154918902830e-09,0.000000000000000000e+00,9.042020887136459351e-03,1.000000000000000000e+00
1.312042951583862305e+00,-2.868841171264648438e+01,4.190985107421875000e+01,4.190985107421875000e+01,5.464151035994291306e-05,-2.160339206457138062e-01,-3.051757266803178936e-05,0.000000000000000000e+00,0.000000000000000000e+00,0.000000000000000000e+00,-2.217832815176734584e-07,9.731431305226578843e-08,3.842171281576156616e-04,0.000000000000000000e+00,0.000000000000000000e+00,0.000000000000000000e+00,0.000000000000000000e+00,9.042020887136459351e-03,1.000000000000000000e+00
1.312042951583862305e+00,-2.868841171264648438e+01,4.190985107421875000e+01,4.190985107421875000e+01,5.464151035994291306e-05,-2.160339206457138062e-01,-3.051757266803178936e-05,0.000000000000000000e+00,0.000000000000000000e+00,0.000000000000000000e+00,-2.217832815176734584e-07,9.731431305226578843e-08,3.842171281576156616e-04,0.000000000000000000e+00,0.000000000000000000e+00,0.000000000000000000e+00,0.000000000000000000e+00,9.042020887136459351e-03,1.000000000000000000e+00
1.312042951583862305e+00,-2.868841171264648438e+01,4.190985107421875000e+01,4.190985107421875000e+01,5.464151035994291306e-05,-2.160339206457138062e-01,-3.051757266803178936e-05,2.017026545786393399e-08,7.629146381304963143e-08,9.846292668953537941e-04,2.837429349256126443e-07,1.073221483238739893e-06,1.385116018354892731e-02,3.740643296623602509e-05,-1.309473827859619632e-05,4.449151047580812701e-10,0.000000000000000000e+00,9.042020887136459351e-03,1.000000000000000000e+00
1.383129358291625977e+00,-2.868841171264648438e+01,4.190985107421875000e+01,4.190985107421875000e+01,5.464151035994291306e-05,-2.160339206457138062e-01,-3.051757266803178936e-05,2.017026545786393399e-08,7.629146381304963143e-08,9.846292668953537941e-04,2.837429349256126443e-07,1.073221483238739893e-06,1.385116018354892731e-02,3.740643296623602509e-05,-1.309473827859619632e-05,4.449151047580812701e-10,0.000000000000000000e+00,9.042020887136459351e-03,1.000000000000000000e+00
1.383129358291625977e+00,-2.868841171264648438e+01,4.190985107421875000e+01,4.190985107421875000e+01,5.464151035994291306e-05,-2.160339206457138062e-01,-3.051757266803178936e-05,2.017026545786393399e-08,7.629146381304963143e-08,9.846292668953537941e-04,2.837429349256126443e-07,1.073221483238739893e-06,1.385116018354892731e-02,3.740643296623602509e-05,-1.309473827859619632e-05,4.449151047580812701e-10,0.000000000000000000e+00,9.042020887136459351e-03,1.000000000000000000e+00
1.450951814651489258e+00,-2.868841171264648438e+01,4.190985107421875000e+01,4.190985107421875000e+01,5.464151035994291306e-05,-2.160339206457138062e-01,-3.051757266803178936e-05,-5.182922535595935187e-09,-7.505188470702250925e-09,3.136188752250745893e-05,-3.738170164524490247e-07,-1.235529566656623501e-06,-1.405533589422702789e-02,-5.897279606870142743e-06,3.946468041249318048e-06,-4.492458405280785882e-09,0.000000000000000000e+00,9.042020887136459351e-03,1.000000000000000000e+00
1.450951814651489258e+00,-2.868841171264648438e+01,4.190985107421875000e+01,4.190985107421875000e+01,5.464151035994291306e-05,-2.160339206457138062e-01,-3.051757266803178936e-05,-5.182922535595935187e-09,-7.505188470702250925e-09,3.136188752250745893e-05,-3.738170164524490247e-07,-1.235529566656623501e-06,-1.405533589422702789e-02,-5.897279606870142743e-06,3.946468041249318048e-06,-4.492458405280785882e-09,0.000000000000000000e+00,9.042020887136459351e-03,1.000000000000000000e+00
1.450951814651489258e+00,-2.868841171264648438e+01,4.190985107421875000e+01,4.190985107421875000e+01,5.464151035994291306e-05,-2.160339206457138062e-01,-3.051757266803178936e-05,-5.182922535595935187e-09,-7.505188470702250925e-09,3.136188752250745893e-05,-3.738170164524490247e-07,-1.235529566656623501e-06,-1.405533589422702789e-02,-5.897279606870142743e-06,3.946468041249318048e-06,-4.492458405280785882e-09,0.000000000000000000e+00,9.042020887136459351e-03,1.000000000000000000e+00
1.527701377868652344e+00,-2.868841171264648438e+01,4.190985107421875000e+01,4.190985107421875000e+01,5.464151035994291306e-05,-2.160339206457138062e-01,-3.051757266803178936e-05,4.397208641648830962e-08,-9.764328900985219661e-09,4.162795667070895433e-04,6.404598025255836546e-07,-2.943522225962169614e-08,5.015242844820022583e-03,-2.798196192088653333e-06,-3.027052844117861241e-05,9.756137231420325406e-09,0.000000000000000000e+00,9.042020887136459351e-03,1.000000000000000000e+00
1.527701377868652344e+00,-2.868841171264648438e+01,4.190985107421875000e+01,4.190985107421875000e+01,5.464151035994291306e-05,-2.160339206457138062e-01,-3.051757266803178936e-05,4.397208641648830962e-08,-9.764328900985219661e-09,4.162795667070895433e-04,6.404598025255836546e-07,-2.943522225962169614e-08,5.015242844820022583e-03,-2.798196192088653333e-06,-3.027052844117861241e-05,9.756137231420325406e-09,0.000000000000000000e+00,9.042020887136459351e-03,1.000000000000000000e+00
1.527701377868652344e+00,-2.868841171264648438e+01,4.190985107421875000e+01,4.190985107421875000e+01,5.464151035994291306e-05,-2.160339206457138062e-01,-3.051757266803178936e-05,4.397208641648830962e-08,-9.764328900985219661e-09,4.162795667070895433e-04,6.404598025255836546e-07,-2.943522225962169614e-08,5.015242844820022583e-03,-2.798196192088653333e-06,-3.027052844117861241e-05,9.756137231420325406e-09,0.000000000000000000e+00,9.042020887136459351e-03,1.000000000000000000e+00
1.600134611129760742e+00,-2.868841171264648438e+01,4.190985107421875000e+01,4.190985107421875000e+01,5.464151035994291306e-05,-2.160339206457138062e-01,-3.051757266803178936e-05,3.661047998093636124e-08,9.381515120310268685e-09,-1.010434469208121300e-03,-1.016329989056430350e-07,2.643240293309645494e-07,-1.969695277512073517e-02,-5.037247774453135207e-06,-2.489219514245633036e-05,3.980422214056034136e-09,0.000000000000000000e+00,9.042020887136459351e-03,1.000000000000000000e+00
1.600134611129760742e+00,-2.868841171264648438e+01,4.190985107421875000e+01,4.190985107421875000e+01,5.464151035994291306e-05,-2.160339206457138062e-01,-3.051757266803178936e-05,3.661047998093636124e-08,9.381515120310268685e-09,-1.010434469208121300e-03,-1.016329989056430350e-07,2.643240293309645494e-07,-1.969695277512073517e-02,-5.037247774453135207e-06,-2.489219514245633036e-05,3.980422214056034136e-09,0.000000000000000000e+00,9.042020887136459351e-03,1.000000000000000000e+00
1.600134611129760742e+00,-2.868841171264648438e+01,4.190985107421875000e+01,4.190985107421875000e+01,5.464151035994291306e-05,-2.160339206457138062e-01,-3.051757266803178936e-05,3.661047998093636124e-08,9.381515120310268685e-09,-1.010434469208121300e-03,-1.016329989056430350e-07,2.643240293309645494e-07,-1.969695277512073517e-02,-5.037247774453135207e-06,-2.489219514245633036e-05,3.980422214056034136e-09,0.000000000000000000e+00,9.042020887136459351e-03,1.000000000000000000e+00
1.600134611129760742e+00,-2.868841171264648438e+01,4.190985107421875000e+01,4.190985107421875000e+01,5.464151035994291306e-05,-2.160339206457138062e-01,-3.051757266803178936e-05,3.661047998093636124e-08,9.381515120310268685e-09,-1.010434469208121300e-03,-1.016329989056430350e-07,2.643240293309645494e-07,-1.969695277512073517e-02,-5.037247774453135207e-06,-2.489219514245633036e-05,3.980422214056034136e-09,0.000000000000000000e+00,9.042020887136459351e-03,1.000000000000000000e+00
1.600134611129760742e+00,-2.868841171264648438e+01,4.190985107421875000e+01,4.190985107421875000e+01,5.464151035994291306e-05,-2.160339206457138062e-01,-3.051757266803178936e-05,3.661047998093636124e-08,9.381515120310268685e-09,-1.010434469208121300e-03,-1.016329989056430350e-07,2.643240293309645494e-07,-1.969695277512073517e-02,-5.037247774453135207e-06,-2.489219514245633036e-05,3.980422214056034136e-09,0.000000000000000000e+00,9.042020887136459351e-03,1.000000000000000000e+00
1.600134611129760742e+00,-2.868841171264648438e+01,4.190985107421875000e+01,4.190985107421875000e+01,5.464151035994291306e-05,-2.160339206457138062e-01,-3.051757266803178936e-05,-2.984014457751982263e-08,-3.086203292923528352e-08,2.623273467179387808e-04,-5.759341661359940190e-07,-3.487948276870156405e-07,1.103115268051624298e-02,-1.488284578954335302e-05,1.951548620127141476e-05,1.377425395965303778e-09,0.000000000000000000e+00,9.042020887136459351e-03,1.000000000000000000e+00
1.715513467788696289e+00,-2.868841171264648438e+01,4.190985107421875000e+01,4.190985107421875000e+01,5.464151035994291306e-05,-2.160339206457138062e-01,-3.051757266803178936e-05,-2.984014457751982263e-08,-3.086203292923528352e-08,2.623273467179387808e-04,-5.759341661359940190e-07,-3.487948276870156405e-07,1.103115268051624298e-02,-1.488284578954335302e-05,1.951548620127141476e-05,1.377425395965303778e-09,0.000000000000000000e+00,9.042020887136459351e-03,1.000000000000000000e+00
1.715513467788696289e+00,-2.868841171264648438e+01,4.190985107421875000e+01,4.190985107421875000e+01,5.464151035994291306e-05,-2.160339206457138062e-01,-3.051757266803178936e-05,-2.984014457751982263e-08,-3.086203292923528352e-08,2.623273467179387808e-04,-5.759341661359940190e-07,-3.487948276870156405e-07,1.103115268051624298e-02,-1.488284578954335302e-05,1.951548620127141476e-05,1.377425395965303778e-09,0.000000000000000000e+00,9.042020887136459351e-03,1.000000000000000000e+00
1.715513467788696289e+00,-2.868841171264648438e+01,4.190985107421875000e+01,4.190985107421875000e+01,5.464151035994291306e-05,-2.160339206457138062e-01,-3.051757266803178936e-05,-2.984014457751982263e-08,-3.086203292923528352e-08,2.623273467179387808e-04,-5.759341661359940190e-07,-3.487948276870156405e-07,1.103115268051624298e-02,-1.488284578954335302e-05,1.951548620127141476e-05,1.377425395965303778e-09,0.000000000000000000e+00,9.042020887136459351e-03,1.000000000000000000e+00
1.813115119934082031e+00,-2.868841171264648438e+01,4.190985107421875000e+01,4.190985107421875000e+01,5.464151035994291306e-05,-2.160339206457138062e-01,-3.051757266803178936e-05,4.018340149514187942e-08,5.665302005297689902e-09,-1.495684118708595634e-04,7.174422194111684803e-07,3.742491685443383176e-07,-4.220171831548213959e-03,8.068121246651571710e-07,-2.574202699179295450e-05,-5.300466288105099011e-09,0.000000000000000000e+00,9.042020887136459351e-03,1.000000000000000000e+00
1.813115119934082031e+00,-2.868841171264648438e+01,4.190985107421875000e+01,4.190985107421875000e+01,5.464151035994291306e-05,-2.160339206457138062e-01,-3.051757266803178936e-05,4.018340149514187942e-08,5.665302005297689902e-09,-1.495684118708595634e-04,7.174422194111684803e-07,3.742491685443383176e-07,-4.220171831548213959e-03,8.068121246651571710e-07,-2.574202699179295450e-05,-5.300466288105099011e-09,0.000000000000000000e+00,9.042020887136459351e-03,1.000000000000000000e+00
1.813115119934082031e+00,-2.868841171264648438e+01,4.190985107421875000e+01,4.190985107421875000e+01,5.464151035994291306e-05,-2.160339206457138062e-01,-3.051757266803178936e-05,4.018340149514187942e-08,5.665302005297689902e-09,-1.495684118708595634e-04,7.174422194111684803e-07,3.742491685443383176e-07,-4.220171831548213959e-03,8.068121246651571710e-07,-2.574202699179295450e-05,-5.300466288105099011e-09,0.000000000000000000e+00,9.042020887136459351e-03,1.000000000000000000e+00
1.813115119934082031e+00,-2.868841171264648438e+01,4.190985107421875000e+01,4.190985107421875000e+01,5.464151035994291306e-05,-2.160339206457138062e-01,-3.051757266803178936e-05,4.018340149514187942e-08,5.665302005297689902e-09,-1.495684118708595634e-04,7.174422194111684803e-07,3.742491685443383176e-07,-4.220171831548213959e-03,8.068121246651571710e-07,-2.574202699179295450e-05,-5.300466288105099011e-09,0.000000000000000000e+00,9.042020887136459351e-03,1.000000000000000000e+00
1.896134853363037109e+00,-2.868841171264648438e+01,4.190985107421875000e+01,4.190985107421875000e+01,5.464151035994291306e-05,-2.160339206457138062e-01,-3.051757266803178936e-05,-1.116615244711738342e-08,2.017909928042627143e-08,2.531784120947122574e-04,-6.185222787280508783e-07,1.748234694787242915e-07,4.851218312978744507e-03,-2.061911800410598516e-06,7.832758456061128527e-06,-5.537816427647612727e-09,0.000000000000000000e+00,9.042020887136459351e-03,1.000000000000000000e+00
1.896134853363037109e+00,-2.868841171264648438e+01,4.190985107421875000e+01,4.190985107421875000e+01,5.464151035994291306e-05,-2.160339206457138062e-01,-3.051757266803178936e-05,-1.116615244711738342e-08,2.017909928042627143e-08,2.531784120947122574e-04,-6.185222787280508783e-07,1.748234694787242915e-07,4.851218312978744507e-03,-2.061911800410598516e-06,7.832758456061128527e-06,-5.537816427647612727e-09,0.000000000000000000e+00,9.042020887136459351e-03,1.000000000000000000e+00
1.896134853363037109e+00,-2.868841171264648438e+01,4.190985107421875000e+01,4.190985107421875000e+01,5.464151035994291306e-05,-2.160339206457138062e-01,-3.051757266803178936e-05,-1.116615244711738342e-08,2.017909928042627143e-08,2.531784120947122574e-04,-6.185222787280508783e-07,1.748234694787242915e-07,4.851218312978744507e-03,-2.061911800410598516e-06,7.832758456061128527e-06,-5.537816427647612727e-09,0.000000000000000000e+00,9.042020887136459351e-03,1.000000000000000000e+00
1.896134853363037109e+00,-2.868841171264648438e+01,4.190985107421875000e+01,4.190985107421875000e+01,5.464151035994291306e-05,-2.160339206457138062e-01,-3.051757266803178936e-05,-1.116615244711738342e-08,2.017909928042627143e-08,2.531784120947122574e-04,-6.185222787280508783e-07,1.748234694787242915e-07,4.851218312978744507e-03,-2.061911800410598516e-06,7.832758456061128527e-06,-5.537816427647612727e-09,0.000000000000000000e+00,9.042020887136459351e-03,1.000000000000000000e+00
1.896134853363037109e+00,-2.868841171264648438e+01,4.190985107421875000e+01,4.190985107421875000e+01,5.464151035994291306e-05,-2.160339206457138062e-01,-3.051757266803178936e-05,-1.116615244711738342e-08,2.017909928042627143e-08,2.531784120947122574e-04,-6.185222787280508783e-07,1.748234694787242915e-07,4.851218312978744507e-03,-2.061911800410598516e-06,7.832758456061128527e-06,-5.537816427647612727e-09,0.000000000000000000e+00,9.042020887136459351e-03,1.000000000000000000e+00
1.896134853363037109e+00,-2.868841171264648438e+01,4.190985107421875000e+01,4.190985107421875000e+01,5.464151035994291306e-05,-2.160339206457138062e-01,-3.051757266803178936e-05,-1.116615244711738342e-08,2.017909928042627143e-08,2.531784120947122574e-04,-6.185222787280508783e-07,1.748234694787242915e-07,4.851218312978744507e-03,-2.061911800410598516e-06,7.832758456061128527e-06,-5.537816427647612727e-09,0.000000000000000000e+00,9.042020887136459351e-03,1.000000000000000000e+00
1.896134853363037109e+00,-2.868841171264648438e+01,4.190985107421875000e+01,4.190985107421875000e+01,5.464151035994291306e-05,-2.160339206457138062e-01,-3.051757266803178936e-05,-1.116615244711738342e-08,2.017909928042627143e-08,2.531784120947122574e-04,-6.185222787280508783e-07,1.748234694787242915e-07,4.851218312978744507e-03,-2.061911800410598516e-06,7.832758456061128527e-06,-5.537816427647612727e-09,0.000000000000000000e+00,9.042020887136459351e-03,1.000000000000000000e+00
2.195794820785522461e+00,-2.868841171264648438e+01,4.190985107421875000e+01,4.190985107421875000e+01,5.464151035994291306e-05,-2.160339206457138062e-01,-3.051757266803178936e-05,-3.349141763919760706e-08,-2.942126542393452837e-08,1.201663864776492119e-03,-4.926931751469965093e-07,-1.290211343984992709e-06,2.292027510702610016e-02,-1.426919880032073706e-05,2.392098576819989830e-05,-1.185567555239686044e-08,0.000000000000000000e+00,9.042020887136459351e-03,1.000000000000000000e+00
2.195794820785522461e+00,-2.868841171264648438e+01,4.190985107421875000e+01,4.190985107421875000e+01,5.464151035994291306e-05,-2.160339206457138062e-01,-3.051757266803178936e-05,-3.349141763919760706e-08,-2.942126542393452837e-08,1.201663864776492119e-03,-4.926931751469965093e-07,-1.290211343984992709e-06,2.292027510702610016e-02,-1.426919880032073706e-05,2.392098576819989830e-05,-1.185567555239686044e-08,0.000000000000000000e+00,9.042020887136459351e-03,1.000000000000000000e+00
2.195794820785522461e+00,-2.868841171264648438e+01,4.190985107421875000e+01,4.190985107421875000e+01,5.464151035994291306e-05,-2.160339206457138062e-01,-3.051757266803178936e-05,-3.349141763919760706e-08,-2.942126542393452837e-08,1.201663864776492119e-03,-4.926931751469965093e-07,-1.290211343984992709e-06,2.292027510702610016e-02,-1.426919880032073706e-05,2.392098576819989830e-05,-1.185567555239686044e-08,0.000000000000000000e+00,9.042020887136459351e-03,1.000000000000000000e+00
2.195794820785522461e+00,-2.868841171264648438e+01,4.190985107421875000e+01,4.190985107421875000e+01,5.464151035994291306e-05,-2.160339206457138062e-01,-3.051757266803178936e-05,-3.349141763919760706e-08,-2.942126542393452837e-08,1.201663864776492119e-03,-4.926931751469965093e-07,-1.290211343984992709e-06,2.292027510702610016e-02,-1.426919880032073706e-05,2.392098576819989830e-05,-1.185567555239686044e-08,0.000000000000000000e+00,9.042020887136459351e-03,1.000000000000000000e+00
2.195794820785522461e+00,-2.868841171264648438e+01,4.190985107421875000e+01,4.190985107421875000e+01,5.464151035994291306e-05,-2.160339206457138062e-01,-3.051757266803178936e-05,-3.349141763919760706e-08,-2.942126542393452837e-08,1.201663864776492119e-03,-4.926931751469965093e-07,-1.290211343984992709e-06,2.292027510702610016e-02,-1.426919880032073706e-05,2.392098576819989830e-05,-1.185567555239686044e-08,0.000000000000000000e+00,9.042020887136459351e-03,1.000000000000000000e+00
2.195794820785522461e+00,-2.868841171264648438e+01,4.190985107421875000e+01,4.190985107421875000e+01,5.464151035994291306e-05,-2.160339206457138062e-01,-3.051757266803178936e-05,-3.349141763919760706e-08,-2.942126542393452837e-08,1.201663864776492119e-03,-4.926931751469965093e-07,-1.290211343984992709e-06,2.292027510702610016e-02,-1.426919880032073706e-05,2.392098576819989830e-05,-1.185567555239686044e-08,0.000000000000000000e+00,9.042020887136459351e-03,1.000000000000000000e+00
2.195794820785522461e+00,-2.868841171264648438e+01,4.190985107421875000e+01,4.190985107421875000e+01,5.464151035994291306e-05,-2.160339206457138062e-01,-3.051757266803178936e-05,-3.349141763919760706e-08,-2.942126542393452837e-08,1.201663864776492119e-03,-4.926931751469965093e-07,-1.290211343984992709e-06,2.292027510702610016e-02,-1.426919880032073706e-05,2.392098576819989830e-05,-1.185567555239686044e-08,0.000000000000000000e+00,9.042020887136459351e-03,1.000000000000000000e+00
2.195794820785522461e+00,-2.868841171264648438e+01,4.190985107421875000e+01,4.190985107421875000e+01,5.464151035994291306e-05,-2.160339206457138062e-01,-3.051757266803178936e-05,-3.349141763919760706e-08,-2.942126542393452837e-08,1.201663864776492119e-03,-4.926931751469965093e-07,-1.290211343984992709e-06,2.292027510702610016e-02,-1.426919880032073706e-05,2.392098576819989830e-05,-1.185567555239686044e-08,0.000000000000000000e+00,9.042020887136459351e-03,1.000000000000000000e+00
2.195794820785522461e+00,-2.868841171264648438e+01,4.190985107421875000e+01,4.190985107421875000e+01,5.464151035994291306e-05,-2.160339206457138062e-01,-3.051757266803178936e-05,-3.349141763919760706e-08,-2.942126542393452837e-08,1.201663864776492119e-03,-4.926931751469965093e-07,-1.290211343984992709e-06,2.292027510702610016e-02,-1.426919880032073706e-05,2.392098576819989830e-05,-1.185567555239686044e-08,0.000000000000000000e+00,9.042020887136459351e-03,1.000000000000000000e+00
2.195794820785522461e+00,-2.868841171264648438e+01,4.190985107421875000e+01,4.190985107421875000e+01,5.464151035994291306e-05,-2.160339206457138062e-01,-3.051757266803178936e-05,-3.349141763919760706e-08,-2.942126542393452837e-08,1.201663864776492119e-03,-4.926931751469965093e-07,-1.290211343984992709e-06,2.292027510702610016e-02,-1.426919880032073706e-05,2.392098576819989830e-05,-1.185567555239686044e-08,0.000000000000000000e+00,9.042020887136459351e-03,1.000000000000000000e+00
2.374083757400512695e+00,-2.868841171264648438e+01,4.190985107421875000e+01,4.190985107421875000e+01,5.464151035994291306e-05,-2.160339206457138062e-01,-3.051757266803178936e-05,3.462909603513253387e-08,-5.089721977213912396e-09,2.561706060077995062e-04,3.820792926489957608e-07,1.364725363828256377e-07,-5.303151439875364304e-03,-2.723947090998990461e-06,-2.472626511007547379e-05,1.324642351363536363e-08,0.000000000000000000e+00,9.042020887136459351e-03,1.000000000000000000e+00
2.374083757400512695e+00,-2.868841171264648438e+01,4.190985107421875000e+01,4.190985107421875000e+01,5.464151035994291306e-05,-2.160339206457138062e-01,-3.051757266803178936e-05,3.462909603513253387e-08,-5.089721977213912396e-09,2.561706060077995062e-04,3.820792926489957608e-07,1.364725363828256377e-07,-5.303151439875364304e-03,-2.723947090998990461e-06,-2.472626511007547379e-05,1.324642351363536363e-08,0.000000000000000000e+00,9.042020887136459351e-03,1.000000000000000000e+00
2.374083757400512695e+00,-2.868841171264648438e+01,4.190985107421875000e+01,4.190985107421875000e+01,5.464151035994291306e-05,-2.160339206457138062e-01,-3.051757266803178936e-05,3.462909603513253387e-08,-5.089721977213912396e-09,2.561706060077995062e-04,3.820792926489957608e-07,1.364725363828256377e-07,-5.303151439875364304e-03,-2.723947090998990461e-06,-2.472626511007547379e-05,1.324642351363536363e-08,0.000000000000000000e+00,9.042020887136459351e-03,1.000000000000000000e+00
2.447860002517700195e+00,-2.868841171264648438e+01,4.190985107421875000e+01,4.190985107421875000e+01,5.464151035994291306e-05,-2.160339206457138062e-01,-3.051757266803178936e-05,3.661831726731179515e-08,-1.233429625102644422e-08,-1.440342166461050510e-03,2.696289591597178514e-08,-9.819657265097703203e-08,-2.299538068473339081e-02,-6.402969120244961232e-06,-2.400006997049786150e-05,-6.716353029290189625e-10,0.000000000000000000e+00,9.042020887136459351e-03,1.000000000000000000e+00
2.447860002517700195e+00,-2.868841171264648438e+01,4.190985107421875000e+01,4.190985107421875000e+01,5.464151035994291306e-05,-2.160339206457138062e-01,-3.051757266803178936e-05,3.661831726731179515e-08,-1.233429625102644422e-08,-1.440342166461050510e-03,2.696289591597178514e-08,-9.819657265097703203e-08,-2.299538068473339081e-02,-6.402969120244961232e-06,-2.400006997049786150e-05,-6.716353029290189625e-10,0.000000000000000000e+00,9.042020887136459351e-03,1.000000000000000000e+00
2.500878810882568359e+00,-2.868841171264648438e+01,4.190985107421875000e+01,4.190985107421875000e+01,5.464151035994291306e-05,-2.160339206457138062e-01,-3.051757266803178936e-05,3.554558958285269910e-08,-2.204323301668864588e-08,1.124387606978416443e-03,-2.023296374886740523e-08,-1.831224949455645401e-07,4.837395995855331421e-02,-1.079255616787122563e-05,-2.326295543753076345e-05,-9.815771528920436140e-10,0.000000000000000000e+00,9.042020887136459351e-03,1.000000000000000000e+00
2.500878810882568359e+00,-2.868841171264648438e+01,4.190985107421875000e+01,4.190985107421875000e+01,5.464151035994291306e-05,-2.160339206457138062e-01,-3.051757266803178936e-05,3.554558958285269910e-08,-2.204323301668864588e-08,1.124387606978416443e-03,-2.023296374886740523e-08,-1.831224949455645401e-07,4.837395995855331421e-02,-1.079255616787122563e-05,-2.326295543753076345e-05,-9.815771528920436140e-10,0.000000000000000000e+00,9.042020887136459351e-03,1.000000000000000000e+00
2.500878810882568359e+00,-2.868841171264648438e+01,4.190985107421875000e+01,4.190985107421875000e+01,5.464151035994291306e-05,-2.160339206457138062e-01,-3.051757266803178936e-05,3.554558958285269910e-08,-2.204323301668864588e-08,1.124387606978416443e-03,-2.023296374886740523e-08,-1.831224949455645401e-07,4.837395995855331421e-02,-1.079255616787122563e-05,-2.326295543753076345e-05,-9.815771528920436140e-10,0.000000000000000000e+00,9.042020887136459351e-03,1.000000000000000000e+00
2.560195446014404297e+00,-2.868841171264648438e+01,4.190985107421875000e+01,4.190985107421875000e+01,5.464151035994291306e-05,-2.160339206457138062e-01,-3.051757266803178936e-05,3.064021569798569544e-08,-2.503332297010274488e-08,1.927415840327739716e-03,-8.269811502259472036e-08,-5.040896056129895442e-08,1.353799365460872650e-02,-1.194410833704750985e-05,-2.213750849477946758e-05,1.298620677658846034e-08,0.000000000000000000e+00,9.042020887136459351e-03,1.000000000000000000e+00
2.560195446014404297e+00,-2.868841171264648438e+01,4.190985107421875000e+01,4.190985107421875000e+01,5.464151035994291306e-05,-2.160339206457138062e-01,-3.051757266803178936e-05,3.064021569798569544e-08,-2.503332297010274488e-08,1.927415840327739716e-03,-8.269811502259472036e-08,-5.040896056129895442e-08,1.353799365460872650e-02,-1.194410833704750985e-05,-2.213750849477946758e-05,1.298620677658846034e-08,0.000000000000000000e+00,9.042020887136459351e-03,1.000000000000000000e+00
2.618730545043945312e+00,-2.868841171264648438e+01,4.190985107421875000e+01,4.190985107421875000e+01,5.464151035994291306e-05,-2.160339206457138062e-01,-3.051757266803178936e-05,3.164593920246261405e-08,-2.605823290480202559e-08,-2.874710771720856428e-04,1.718154507557301258e-08,-1.750932199229282560e-08,-3.783861175179481506e-02,-1.372679980704560876e-05,-2.273907375638373196e-05,1.099558843975501077e-08,0.000000000000000000e+00,9.042020887136459351e-03,1.000000000000000000e+00
2.618730545043945312e+00,-2.868841171264648438e+01,4.190985107421875000e+01,4.190985107421875000e+01,5.464151035994291306e-05,-2.160339206457138062e-01,-3.051757266803178936e-05,3.164593920246261405e-08,-2.605823290480202559e-08,-2.874710771720856428e-04,1.718154507557301258e-08,-1.750932199229282560e-08,-3.783861175179481506e-02,-1.372679980704560876e-05,-2.273907375638373196e-05,1.099558843975501077e-08,0.000000000000000000e+00,9.042020887136459351e-03,1.000000000000000000e+00
2.677334070205688477e+00,-2.868841171264648438e+01,4.190985107421875000e+01,4.190985107421875000e+01,5.464151035994291306e-05,-2.160339206457138062e-01,-3.051757266803178936e-05,3.592721853351577010e-08,-3.107836121785112482e-08,4.424401049618609250e-05,7.305497717879916308e-08,-8.566256326503207674e-08,5.660326685756444931e-03,-1.463631724618608132e-05,-2.350100839976221323e-05,-1.462140686303570192e-10,0.000000000000000000e+00,9.042020887136459351e-03,1.000000000000000000e+00
2.677334070205688477e+00,-2.868841171264648438e+01,4.190985107421875000e+01,4.190985107421875000e+01,5.464151035994291306e-05,-2.160339206457138062e-01,-3.051757266803178936e-05,3.592721853351577010e-08,-3.107836121785112482e-08,4.424401049618609250e-05,7.305497717879916308e-08,-8.566256326503207674e-08,5.660326685756444931e-03,-1.463631724618608132e-05,-2.350100839976221323e-05,-1.462140686303570192e-10,0.000000000000000000e+00,9.042020887136459351e-03,1.000000000000000000e+00
2.677334070205688477e+00,-2.868841171264648438e+01,4.190985107421875000e+01,4.190985107421875000e+01,5.464151035994291306e-05,-2.160339206457138062e-01,-3.051757266803178936e-05,3.592721853351577010e-08,-3.107836121785112482e-08,4.424401049618609250e-05,7.305497717879916308e-08,-8.566256326503207674e-08,5.660326685756444931e-03,-1.463631724618608132e-05,-2.350100839976221323e-05,-1.462140686303570192e-10,0.000000000000000000e+00,9.042020887136459351e-03,1.000000000000000000e+00
2.677334070205688477e+00,-2.868841171264648438e+01,4.190985107421875000e+01,4.190985107421875000e+01,5.464151035994291306e-05,-2.160339206457138062e-01,-3.051757266803178936e-05,3.592721853351577010e-08,-3.107836121785112482e-08,4.424401049618609250e-05,7.305497717879916308e-08,-8.566256326503207674e-08,5.660326685756444931e-03,-1.463631724618608132e-05,-2.350100839976221323e-05,-1.462140686303570192e-10,0.000000000000000000e+00,9.042020887136459351e-03,1.000000000000000000e+00
2.755024909973144531e+00,-2.868841171264648438e+01,4.190985107421875000e+01,4.190985107421875000e+01,5.464151035994291306e-05,-2.160339206457138062e-01,-3.051757266803178936e-05,-1.653707060178533084e-09,-9.605487516495259115e-10,8.753447218623477966e-06,-4.837240226152061950e-07,3.876623679843760328e-07,-4.568178846966475248e-04,-6.678044428554130718e-07,1.122159119404386729e-06,-3.088712896559542287e-10,0.000000000000000000e+00,9.042020887136459351e-03,1.000000000000000000e+00
2.755024909973144531e+00,-2.868841171264648438e+01,4.190985107421875000e+01,4.190985107421875000e+01,5.464151035994291306e-05,-2.160339206457138062e-01,-3.051757266803178936e-05,-1.653707060178533084e-09,-9.605487516495259115e-10,8.753447218623477966e-06,-4.837240226152061950e-07,3.876623679843760328e-07,-4.568178846966475248e-04,-6.678044428554130718e-07,1.122159119404386729e-06,-3.088712896559542287e-10,0.000000000000000000e+00,9.042020887136459351e-03,1.000000000000000000e+00
2.755024909973144531e+00,-2.868841171264648438e+01,4.190985107421875000e+01,4.190985107421875000e+01,5.464151035994291306e-05,-2.160339206457138062e-01,-3.051757266803178936e-05,-1.653707060178533084e-09,-9.605487516495259115e-10,8.753447218623477966e-06,-4.837240226152061950e-07,3.876623679843760328e-07,-4.568178846966475248e-04,-6.678044428554130718e-07,1.122159119404386729e-06,-3.088712896559542287e-10,0.000000000000000000e+00,9.042020887136459351e-03,1.000000000000000000e+00
2.830169916152954102e+00,-2.868841171264648438e+01,4.190985107421875000e+01,4.190985107421875000e+01,5.464151035994291306e-05,-2.160339206457138062e-01,-3.051757266803178936e-05,1.332237964390969864e-08,5.068404718144847720e-08,-5.397339118644595146e-04,1.992958260643717949e-07,6.872658104839501902e-07,-7.299052551388740540e-03,3.677318818517960608e-05,-9.119818969338666648e-06,5.479319220569323079e-09,0.000000000000000000e+00,9.042020887136459351e-03,1.000000000000000000e+00
2.830169916152954102e+00,-2.868841171264648438e+01,4.190985107421875000e+01,4.190985107421875000e+01,5.464151035994291306e-05,-2.160339206457138062e-01,-3.051757266803178936e-05,1.332237964390969864e-08,5.068404718144847720e-08,-5.397339118644595146e-04,1.992958260643717949e-07,6.872658104839501902e-07,-7.299052551388740540e-03,3.677318818517960608e-05,-9.119818969338666648e-06,5.479319220569323079e-09,0.000000000000000000e+00,9.042020887136459351e-03,1.000000000000000000e+00
2.830169916152954102e+00,-2.868841171264648438e+01,4.190985107421875000e+01,4.190985107421875000e+01,5.464151035994291306e-05,-2.160339206457138062e-01,-3.051757266803178936e-05,1.332237964390969864e-08,5.068404718144847720e-08,-5.397339118644595146e-04,1.992958260643717949e-07,6.872658104839501902e-07,-7.299052551388740540e-03,3.677318818517960608e-05,-9.119818969338666648e-06,5.479319220569323079e-09,0.000000000000000000e+00,9.042020887136459351e-03,1.000000000000000000e+00
2.830169916152954102e+00,-2.868841171264648438e+01,4.190985107421875000e+01,4.190985107421875000e+01,5.464151035994291306e-05,-2.160339206457138062e-01,-3.051757266803178936e-05,1.332237964390969864e-08,5.068404718144847720e-08,-5.397339118644595146e-04,1.992958260643717949e-07,6.872658104839501902e-07,-7.299052551388740540e-03,3.677318818517960608e-05,-9.119818969338666648e-06,5.479319220569323079e-09,0.000000000000000000e+00,9.042020887136459351e-03,1.000000000000000000e+00
2.830169916152954102e+00,-2.868841171264648438e+01,4.190985107421875000e+01,4.190985107421875000e+01,5.464151035994291306e-05,-2.160339206457138062e-01,-3.051757266803178936e-05,1.332237964390969864e-08,5.068404718144847720e-08,-5.397339118644595146e-04,1.992958260643717949e-07,6.872658104839501902e-07,-7.299052551388740540e-03,3.677318818517960608e-05,-9.119818969338666648e-06,5.479319220569323079e-09,0.000000000000000000e+00,9.042020887136459351e-03,1.000000000000000000e+00
2.917726278305053711e+00,-2.868841171264648438e+01,4.190985107421875000e+01,4.190985107421875000e+01,5.464151035994291306e-05,-2.160339206457138062e-01,-3.051757266803178936e-05,4.814326715063543816e-08,5.726631169267193400e-09,2.347593399463221431e-04,3.976967946073273197e-07,-5.134683078722446226e-07,8.845653384923934937e-03,2.378997123742010444e-06,-3.242116508772596717e-05,4.437977985105590051e-09,0.000000000000000000e+00,9.042020887136459351e-03,1.000000000000000000e+00
