# Time,X,Y,Z,Roll,Pitch,Yaw,Vx,Vy,Vz,Ax,Ay,Az,Wx,Wy,Wz,Throttle,Steer,Brake
0.000000000000000000e+00,-9.409673690795898438e+00,6.432485961914062500e+01,6.432485961914062500e+01,3.209505602717399597e-02,8.968898773193359375e+01,1.099797314964234829e-03,4.301420599222183228e-02,6.415005207061767578e+00,4.767697703300655121e-08,1.035842671990394592e-02,3.680855780839920044e-02,2.069653237413149327e-05,-2.408995106816291809e-02,1.643201103433966637e-03,-3.801264464855194092e-01,1.000000000000000000e+00,-3.481377381831407547e-03,0.000000000000000000e+00
1.045818328857421875e-01,-9.409673690795898438e+00,6.432485961914062500e+01,6.432485961914062500e+01,3.209505602717399597e-02,8.968898773193359375e+01,1.099797314964234829e-03,4.301420599222183228e-02,6.415005207061767578e+00,4.767697703300655121e-08,1.035842671990394592e-02,3.680855780839920044e-02,2.069653237413149327e-05,-2.408995106816291809e-02,1.643201103433966637e-03,-3.801264464855194092e-01,1.000000000000000000e+00,-3.481377381831407547e-03,0.000000000000000000e+00
1.045818328857421875e-01,-9.409673690795898438e+00,6.432485961914062500e+01,6.432485961914062500e+01,3.209505602717399597e-02,8.968898773193359375e+01,1.099797314964234829e-03,4.301420599222183228e-02,6.415005207061767578e+00,4.767697703300655121e-08,1.035842671990394592e-02,3.680855780839920044e-02,2.069653237413149327e-05,-2.408995106816291809e-02,1.643201103433966637e-03,-3.801264464855194092e-01,1.000000000000000000e+00,-3.481377381831407547e-03,0.000000000000000000e+00
1.045818328857421875e-01,-9.409673690795898438e+00,6.432485961914062500e+01,6.432485961914062500e+01,3.209505602717399597e-02,8.968898773193359375e+01,1.099797314964234829e-03,4.301420599222183228e-02,6.415005207061767578e+00,4.767697703300655121e-08,1.035842671990394592e-02,3.680855780839920044e-02,2.069653237413149327e-05,-2.408995106816291809e-02,1.643201103433966637e-03,-3.801264464855194092e-01,1.000000000000000000e+00,-3.481377381831407547e-03,0.000000000000000000e+00
1.045818328857421875e-01,-9.409673690795898438e+00,6.432485961914062500e+01,6.432485961914062500e+01,3.209505602717399597e-02,8.968898773193359375e+01,1.099797314964234829e-03,4.301420599222183228e-02,6.415005207061767578e+00,4.767697703300655121e-08,1.035842671990394592e-02,3.680855780839920044e-02,2.069653237413149327e-05,-2.408995106816291809e-02,1.643201103433966637e-03,-3.801264464855194092e-01,1.000000000000000000e+00,-3.481377381831407547e-03,0.000000000000000000e+00
1.045818328857421875e-01,-9.409673690795898438e+00,6.432485961914062500e+01,6.432485961914062500e+01,3.209505602717399597e-02,8.968898773193359375e+01,1.099797314964234829e-03,4.301420599222183228e-02,6.415005207061767578e+00,4.767697703300655121e-08,1.035842671990394592e-02,3.680855780839920044e-02,2.069653237413149327e-05,-2.408995106816291809e-02,1.643201103433966637e-03,-3.801264464855194092e-01,1.000000000000000000e+00,-3.481377381831407547e-03,0.000000000000000000e+00
1.045818328857421875e-01,-9.405437469482421875e+00,6.496686553955078125e+01,6.496686553955078125e+01,2.887120842933654785e-02,8.965573883056640625e+01,9.391927742399275303e-04,4.611735790967941284e-02,6.379302024841308594e+00,-8.772341288931784220e-07,2.963598631322383881e-02,-3.409755825996398926e-01,-8.833164429233875126e-06,-4.748129099607467651e-02,1.847809995524585247e-03,-2.752566933631896973e-01,1.000000000000000000e+00,-3.285895567387342453e-03,0.000000000000000000e+00
2.092907428741455078e-01,-9.405437469482421875e+00,6.496686553955078125e+01,6.496686553955078125e+01,2.887120842933654785e-02,8.965573883056640625e+01,9.391927742399275303e-04,4.611735790967941284e-02,6.379302024841308594e+00,-8.772341288931784220e-07,2.963598631322383881e-02,-3.409755825996398926e-01,-8.833164429233875126e-06,-4.748129099607467651e-02,1.847809995524585247e-03,-2.752566933631896973e-01,1.000000000000000000e+00,-3.285895567387342453e-03,0.000000000000000000e+00
2.092907428741455078e-01,-9.405437469482421875e+00,6.496686553955078125e+01,6.496686553955078125e+01,2.887120842933654785e-02,8.965573883056640625e+01,9.391927742399275303e-04,4.611735790967941284e-02,6.379302024841308594e+00,-8.772341288931784220e-07,2.963598631322383881e-02,-3.409755825996398926e-01,-8.833164429233875126e-06,-4.748129099607467651e-02,1.847809995524585247e-03,-2.752566933631896973e-01,1.000000000000000000e+00,-3.285895567387342453e-03,0.000000000000000000e+00
2.092907428741455078e-01,-9.405437469482421875e+00,6.496686553955078125e+01,6.496686553955078125e+01,2.887120842933654785e-02,8.965573883056640625e+01,9.391927742399275303e-04,4.611735790967941284e-02,6.379302024841308594e+00,-8.772341288931784220e-07,2.963598631322383881e-02,-3.409755825996398926e-01,-8.833164429233875126e-06,-4.748129099607467651e-02,1.847809995524585247e-03,-2.752566933631896973e-01,1.000000000000000000e+00,-3.285895567387342453e-03,0.000000000000000000e+00
2.092907428741455078e-01,-9.405437469482421875e+00,6.496686553955078125e+01,6.496686553955078125e+01,2.887120842933654785e-02,8.965573883056640625e+01,9.391927742399275303e-04,4.611735790967941284e-02,6.379302024841308594e+00,-8.772341288931784220e-07,2.963598631322383881e-02,-3.409755825996398926e-01,-8.833164429233875126e-06,-4.748129099607467651e-02,1.847809995524585247e-03,-2.752566933631896973e-01,1.000000000000000000e+00,-3.285895567387342453e-03,0.000000000000000000e+00
2.092907428741455078e-01,-9.400955200195312500e+00,6.560785675048828125e+01,6.560785675048828125e+01,2.574298158288002014e-02,8.962926483154296875e+01,7.151497411541640759e-04,4.745605960488319397e-02,6.368555068969726562e+00,-1.430273073310672771e-06,1.794059574604034424e-02,-1.440252065658569336e-01,-7.411545084323734045e-06,-4.113546386361122131e-02,2.054275013506412506e-03,-2.072596848011016846e-01,1.000000000000000000e+00,-2.590772928670048714e-03,0.000000000000000000e+00
2.839093208312988281e-01,-9.400955200195312500e+00,6.560785675048828125e+01,6.560785675048828125e+01,2.574298158288002014e-02,8.962926483154296875e+01,7.151497411541640759e-04,4.745605960488319397e-02,6.368555068969726562e+00,-1.430273073310672771e-06,1.794059574604034424e-02,-1.440252065658569336e-01,-7.411545084323734045e-06,-4.113546386361122131e-02,2.054275013506412506e-03,-2.072596848011016846e-01,1.000000000000000000e+00,-2.590772928670048714e-03,0.000000000000000000e+00
2.839093208312988281e-01,-9.400955200195312500e+00,6.560785675048828125e+01,6.560785675048828125e+01,2.574298158288002014e-02,8.962926483154296875e+01,7.151497411541640759e-04,4.745605960488319397e-02,6.368555068969726562e+00,-1.430273073310672771e-06,1.794059574604034424e-02,-1.440252065658569336e-01,-7.411545084323734045e-06,-4.113546386361122131e-02,2.054275013506412506e-03,-2.072596848011016846e-01,1.000000000000000000e+00,-2.590772928670048714e-03,0.000000000000000000e+00
2.839093208312988281e-01,-9.400955200195312500e+00,6.560785675048828125e+01,6.560785675048828125e+01,2.574298158288002014e-02,8.962926483154296875e+01,7.151497411541640759e-04,4.745605960488319397e-02,6.368555068969726562e+00,-1.430273073310672771e-06,1.794059574604034424e-02,-1.440252065658569336e-01,-7.411545084323734045e-06,-4.113546386361122131e-02,2.054275013506412506e-03,-2.072596848011016846e-01,1.000000000000000000e+00,-2.590772928670048714e-03,0.000000000000000000e+00
2.839093208312988281e-01,-9.400955200195312500e+00,6.560785675048828125e+01,6.560785675048828125e+01,2.574298158288002014e-02,8.962926483154296875e+01,7.151497411541640759e-04,4.745605960488319397e-02,6.368555068969726562e+00,-1.430273073310672771e-06,1.794059574604034424e-02,-1.440252065658569336e-01,-7.411545084323734045e-06,-4.113546386361122131e-02,2.054275013506412506e-03,-2.072596848011016846e-01,1.000000000000000000e+00,-2.590772928670048714e-03,0.000000000000000000e+00
3.569011688232421875e-01,-9.397510528564453125e+00,6.608620452880859375e+01,6.608620452880859375e+01,2.419935911893844604e-02,8.961286163330078125e+01,5.630746018141508102e-04,4.836825281381607056e-02,6.425433635711669922e+00,3.814127680357159988e-08,1.249719318002462387e-02,7.792454957962036133e-01,2.011751166719477624e-05,-1.241989154368638992e-02,1.657803892157971859e-03,-2.242999523878097534e-01,1.000000000000000000e+00,-2.014160156250000000e-03,0.000000000000000000e+00
3.569011688232421875e-01,-9.397510528564453125e+00,6.608620452880859375e+01,6.608620452880859375e+01,2.419935911893844604e-02,8.961286163330078125e+01,5.630746018141508102e-04,4.836825281381607056e-02,6.425433635711669922e+00,3.814127680357159988e-08,1.249719318002462387e-02,7.792454957962036133e-01,2.011751166719477624e-05,-1.241989154368638992e-02,1.657803892157971859e-03,-2.242999523878097534e-01,1.000000000000000000e+00,-2.014160156250000000e-03,0.000000000000000000e+00
3.569011688232421875e-01,-9.397510528564453125e+00,6.608620452880859375e+01,6.608620452880859375e+01,2.419935911893844604e-02,8.961286163330078125e+01,5.630746018141508102e-04,4.836825281381607056e-02,6.425433635711669922e+00,3.814127680357159988e-08,1.249719318002462387e-02,7.792454957962036133e-01,2.011751166719477624e-05,-1.241989154368638992e-02,1.657803892157971859e-03,-2.242999523878097534e-01,1.000000000000000000e+00,-2.014160156250000000e-03,0.000000000000000000e+00
3.569011688232421875e-01,-9.397510528564453125e+00,6.608620452880859375e+01,6.608620452880859375e+01,2.419935911893844604e-02,8.961286163330078125e+01,5.630746018141508102e-04,4.836825281381607056e-02,6.425433635711669922e+00,3.814127680357159988e-08,1.249719318002462387e-02,7.792454957962036133e-01,2.011751166719477624e-05,-1.241989154368638992e-02,1.657803892157971859e-03,-2.242999523878097534e-01,1.000000000000000000e+00,-2.014160156250000000e-03,0.000000000000000000e+00
4.765405654907226562e-01,-9.394038200378417969e+00,6.655302429199218750e+01,6.655302429199218750e+01,2.285381220281124115e-02,8.959903717041015625e+01,4.830416291952133179e-04,4.952760040760040283e-02,6.378204345703125000e+00,1.573332951920747291e-06,9.690349921584129333e-03,-3.947637081146240234e-01,1.283182427869178355e-05,-2.182309702038764954e-02,9.837227407842874527e-04,-1.706239581108093262e-01,1.000000000000000000e+00,-2.040439285337924957e-03,0.000000000000000000e+00
4.765405654907226562e-01,-9.394038200378417969e+00,6.655302429199218750e+01,6.655302429199218750e+01,2.285381220281124115e-02,8.959903717041015625e+01,4.830416291952133179e-04,4.952760040760040283e-02,6.378204345703125000e+00,1.573332951920747291e-06,9.690349921584129333e-03,-3.947637081146240234e-01,1.283182427869178355e-05,-2.182309702038764954e-02,9.837227407842874527e-04,-1.706239581108093262e-01,1.000000000000000000e+00,-2.040439285337924957e-03,0.000000000000000000e+00
4.765405654907226562e-01,-9.394038200378417969e+00,6.655302429199218750e+01,6.655302429199218750e+01,2.285381220281124115e-02,8.959903717041015625e+01,4.830416291952133179e-04,4.952760040760040283e-02,6.378204345703125000e+00,1.573332951920747291e-06,9.690349921584129333e-03,-3.947637081146240234e-01,1.283182427869178355e-05,-2.182309702038764954e-02,9.837227407842874527e-04,-1.706239581108093262e-01,1.000000000000000000e+00,-2.040439285337924957e-03,0.000000000000000000e+00
4.765405654907226562e-01,-9.394038200378417969e+00,6.655302429199218750e+01,6.655302429199218750e+01,2.285381220281124115e-02,8.959903717041015625e+01,4.830416291952133179e-04,4.952760040760040283e-02,6.378204345703125000e+00,1.573332951920747291e-06,9.690349921584129333e-03,-3.947637081146240234e-01,1.283182427869178355e-05,-2.182309702038764954e-02,9.837227407842874527e-04,-1.706239581108093262e-01,1.000000000000000000e+00,-2.040439285337924957e-03,0.000000000000000000e+00
4.765405654907226562e-01,-9.394038200378417969e+00,6.655302429199218750e+01,6.655302429199218750e+01,2.285381220281124115e-02,8.959903717041015625e+01,4.830416291952133179e-04,4.952760040760040283e-02,6.378204345703125000e+00,1.573332951920747291e-06,9.690349921584129333e-03,-3.947637081146240234e-01,1.283182427869178355e-05,-2.182309702038764954e-02,9.837227407842874527e-04,-1.706239581108093262e-01,1.000000000000000000e+00,-2.040439285337924957e-03,0.000000000000000000e+00
4.765405654907226562e-01,-9.394038200378417969e+00,6.655302429199218750e+01,6.655302429199218750e+01,2.285381220281124115e-02,8.959903717041015625e+01,4.830416291952133179e-04,4.952760040760040283e-02,6.378204345703125000e+00,1.573332951920747291e-06,9.690349921584129333e-03,-3.947637081146240234e-01,1.283182427869178355e-05,-2.182309702038764954e-02,9.837227407842874527e-04,-1.706239581108093262e-01,1.000000000000000000e+00,-2.040439285337924957e-03,0.000000000000000000e+00
4.765405654907226562e-01,-9.394038200378417969e+00,6.655302429199218750e+01,6.655302429199218750e+01,2.285381220281124115e-02,8.959903717041015625e+01,4.830416291952133179e-04,4.952760040760040283e-02,6.378204345703125000e+00,1.573332951920747291e-06,9.690349921584129333e-03,-3.947637081146240234e-01,1.283182427869178355e-05,-2.182309702038764954e-02,9.837227407842874527e-04,-1.706239581108093262e-01,1.000000000000000000e+00,-2.040439285337924957e-03,0.000000000000000000e+00
6.200885772705078125e-01,-9.389145851135253906e+00,6.719180297851562500e+01,6.719180297851562500e+01,2.150826528668403625e-02,8.958202362060546875e+01,3.837545809801667929e-04,5.056578665971755981e-02,6.346026420593261719e+00,5.530388875740754884e-07,7.232327945530414581e-03,-2.241614162921905518e-01,-7.107685632945504040e-06,-2.389425598084926605e-02,9.360041003674268723e-04,-1.237722262740135193e-01,1.000000000000000000e+00,-1.769510912708938122e-03,0.000000000000000000e+00
6.200885772705078125e-01,-9.389145851135253906e+00,6.719180297851562500e+01,6.719180297851562500e+01,2.150826528668403625e-02,8.958202362060546875e+01,3.837545809801667929e-04,5.056578665971755981e-02,6.346026420593261719e+00,5.530388875740754884e-07,7.232327945530414581e-03,-2.241614162921905518e-01,-7.107685632945504040e-06,-2.389425598084926605e-02,9.360041003674268723e-04,-1.237722262740135193e-01,1.000000000000000000e+00,-1.769510912708938122e-03,0.000000000000000000e+00
6.200885772705078125e-01,-9.389145851135253906e+00,6.719180297851562500e+01,6.719180297851562500e+01,2.150826528668403625e-02,8.958202362060546875e+01,3.837545809801667929e-04,5.056578665971755981e-02,6.346026420593261719e+00,5.530388875740754884e-07,7.232327945530414581e-03,-2.241614162921905518e-01,-7.107685632945504040e-06,-2.389425598084926605e-02,9.360041003674268723e-04,-1.237722262740135193e-01,1.000000000000000000e+00,-1.769510912708938122e-03,0.000000000000000000e+00
6.200885772705078125e-01,-9.389145851135253906e+00,6.719180297851562500e+01,6.719180297851562500e+01,2.150826528668403625e-02,8.958202362060546875e+01,3.837545809801667929e-04,5.056578665971755981e-02,6.346026420593261719e+00,5.530388875740754884e-07,7.232327945530414581e-03,-2.241614162921905518e-01,-7.107685632945504040e-06,-2.389425598084926605e-02,9.360041003674268723e-04,-1.237722262740135193e-01,1.000000000000000000e+00,-1.769510912708938122e-03,0.000000000000000000e+00
6.200885772705078125e-01,-9.389145851135253906e+00,6.719180297851562500e+01,6.719180297851562500e+01,2.150826528668403625e-02,8.958202362060546875e+01,3.837545809801667929e-04,5.056578665971755981e-02,6.346026420593261719e+00,5.530388875740754884e-07,7.232327945530414581e-03,-2.241614162921905518e-01,-7.107685632945504040e-06,-2.389425598084926605e-02,9.360041003674268723e-04,-1.237722262740135193e-01,1.000000000000000000e+00,-1.769510912708938122e-03,0.000000000000000000e+00
6.200885772705078125e-01,-9.389145851135253906e+00,6.719180297851562500e+01,6.719180297851562500e+01,2.150826528668403625e-02,8.958202362060546875e+01,3.837545809801667929e-04,5.056578665971755981e-02,6.346026420593261719e+00,5.530388875740754884e-07,7.232327945530414581e-03,-2.241614162921905518e-01,-7.107685632945504040e-06,-2.389425598084926605e-02,9.360041003674268723e-04,-1.237722262740135193e-01,1.000000000000000000e+00,-1.769510912708938122e-03,0.000000000000000000e+00
7.946169376373291016e-01,-9.384065628051757812e+00,6.785684204101562500e+01,6.785684204101562500e+01,2.654894441366195679e-02,8.954565429687500000e+01,4.259638662915676832e-04,5.629682540893554688e-02,6.845901489257812500e+00,1.716327631129388465e-07,3.283729031682014465e-02,2.864148139953613281e+00,-2.185353196182404645e-06,7.378129661083221436e-02,-2.596177859231829643e-03,-4.474149942398071289e-01,1.000000000000000000e+00,-1.414489699527621269e-03,0.000000000000000000e+00
7.946169376373291016e-01,-9.384065628051757812e+00,6.785684204101562500e+01,6.785684204101562500e+01,2.654894441366195679e-02,8.954565429687500000e+01,4.259638662915676832e-04,5.629682540893554688e-02,6.845901489257812500e+00,1.716327631129388465e-07,3.283729031682014465e-02,2.864148139953613281e+00,-2.185353196182404645e-06,7.378129661083221436e-02,-2.596177859231829643e-03,-4.474149942398071289e-01,1.000000000000000000e+00,-1.414489699527621269e-03,0.000000000000000000e+00
7.946169376373291016e-01,-9.384065628051757812e+00,6.785684204101562500e+01,6.785684204101562500e+01,2.654894441366195679e-02,8.954565429687500000e+01,4.259638662915676832e-04,5.629682540893554688e-02,6.845901489257812500e+00,1.716327631129388465e-07,3.283729031682014465e-02,2.864148139953613281e+00,-2.185353196182404645e-06,7.378129661083221436e-02,-2.596177859231829643e-03,-4.474149942398071289e-01,1.000000000000000000e+00,-1.414489699527621269e-03,0.000000000000000000e+00
8.783230781555175781e-01,-9.378479003906250000e+00,6.856710052490234375e+01,6.856710052490234375e+01,3.380943462252616882e-02,8.950466156005859375e+01,6.122008198872208595e-04,6.183024868369102478e-02,7.278426170349121094e+00,-1.163288743555312976e-06,6.610534340143203735e-02,5.167180061340332031e+00,-1.594771310919895768e-05,6.626816838979721069e-02,-3.295282134786248207e-03,-3.939843475818634033e-01,1.000000000000000000e+00,-4.406399093568325043e-04,0.000000000000000000e+00
8.783230781555175781e-01,-9.378479003906250000e+00,6.856710052490234375e+01,6.856710052490234375e+01,3.380943462252616882e-02,8.950466156005859375e+01,6.122008198872208595e-04,6.183024868369102478e-02,7.278426170349121094e+00,-1.163288743555312976e-06,6.610534340143203735e-02,5.167180061340332031e+00,-1.594771310919895768e-05,6.626816838979721069e-02,-3.295282134786248207e-03,-3.939843475818634033e-01,1.000000000000000000e+00,-4.406399093568325043e-04,0.000000000000000000e+00
8.783230781555175781e-01,-9.378479003906250000e+00,6.856710052490234375e+01,6.856710052490234375e+01,3.380943462252616882e-02,8.950466156005859375e+01,6.122008198872208595e-04,6.183024868369102478e-02,7.278426170349121094e+00,-1.163288743555312976e-06,6.610534340143203735e-02,5.167180061340332031e+00,-1.594771310919895768e-05,6.626816838979721069e-02,-3.295282134786248207e-03,-3.939843475818634033e-01,1.000000000000000000e+00,-4.406399093568325043e-04,0.000000000000000000e+00
9.483780860900878906e-01,-9.373343467712402344e+00,6.919286346435546875e+01,6.919286346435546875e+01,3.824222832918167114e-02,8.947701263427734375e+01,7.355361012741923332e-04,6.591781228780746460e-02,7.612513065338134766e+00,-1.354028427158482373e-06,5.834791436791419983e-02,4.768922328948974609e+00,-2.722713134062360041e-06,4.508055001497268677e-02,-2.076235134154558182e-03,-3.024117946624755859e-01,1.000000000000000000e+00,4.640367405954748392e-04,0.000000000000000000e+00
9.483780860900878906e-01,-9.373343467712402344e+00,6.919286346435546875e+01,6.919286346435546875e+01,3.824222832918167114e-02,8.947701263427734375e+01,7.355361012741923332e-04,6.591781228780746460e-02,7.612513065338134766e+00,-1.354028427158482373e-06,5.834791436791419983e-02,4.768922328948974609e+00,-2.722713134062360041e-06,4.508055001497268677e-02,-2.076235134154558182e-03,-3.024117946624755859e-01,1.000000000000000000e+00,4.640367405954748392e-04,0.000000000000000000e+00
9.483780860900878906e-01,-9.373343467712402344e+00,6.919286346435546875e+01,6.919286346435546875e+01,3.824222832918167114e-02,8.947701263427734375e+01,7.355361012741923332e-04,6.591781228780746460e-02,7.612513065338134766e+00,-1.354028427158482373e-06,5.834791436791419983e-02,4.768922328948974609e+00,-2.722713134062360041e-06,4.508055001497268677e-02,-2.076235134154558182e-03,-3.024117946624755859e-01,1.000000000000000000e+00,4.640367405954748392e-04,0.000000000000000000e+00
9.483780860900878906e-01,-9.373343467712402344e+00,6.919286346435546875e+01,6.919286346435546875e+01,3.824222832918167114e-02,8.947701263427734375e+01,7.355361012741923332e-04,6.591781228780746460e-02,7.612513065338134766e+00,-1.354028427158482373e-06,5.834791436791419983e-02,4.768922328948974609e+00,-2.722713134062360041e-06,4.508055001497268677e-02,-2.076235134154558182e-03,-3.024117946624755859e-01,1.000000000000000000e+00,4.640367405954748392e-04,0.000000000000000000e+00
9.483780860900878906e-01,-9.368774414062500000e+00,6.973740386962890625e+01,6.973740386962890625e+01,4.076256603002548218e-02,8.946054077148437500e+01,7.624683203175663948e-04,6.816707551479339600e-02,7.877703189849853516e+00,-8.963281743490369990e-07,2.854430861771106720e-02,3.365399122238159180e+00,5.808451533084735274e-06,3.010977432131767273e-02,-7.100050570443272591e-04,-2.046486884355545044e-01,1.000000000000000000e+00,1.385667594149708748e-03,0.000000000000000000e+00
1.027177095413208008e+00,-9.368774414062500000e+00,6.973740386962890625e+01,6.973740386962890625e+01,4.076256603002548218e-02,8.946054077148437500e+01,7.624683203175663948e-04,6.816707551479339600e-02,7.877703189849853516e+00,-8.963281743490369990e-07,2.854430861771106720e-02,3.365399122238159180e+00,5.808451533084735274e-06,3.010977432131767273e-02,-7.100050570443272591e-04,-2.046486884355545044e-01,1.000000000000000000e+00,1.385667594149708748e-03,0.000000000000000000e+00
1.027177095413208008e+00,-9.368774414062500000e+00,6.973740386962890625e+01,6.973740386962890625e+01,4.076256603002548218e-02,8.946054077148437500e+01,7.624683203175663948e-04,6.816707551479339600e-02,7.877703189849853516e+00,-8.963281743490369990e-07,2.854430861771106720e-02,3.365399122238159180e+00,5.808451533084735274e-06,3.010977432131767273e-02,-7.100050570443272591e-04,-2.046486884355545044e-01,1.000000000000000000e+00,1.385667594149708748e-03,0.000000000000000000e+00
1.095043420791625977e+00,-9.363409996032714844e+00,7.037178039550781250e+01,7.037178039550781250e+01,4.251109436154365540e-02,8.944989013671875000e+01,7.352626998908817768e-04,7.014109194278717041e-02,8.163979530334472656e+00,-9.249182539861067198e-07,2.908683195710182190e-02,4.218238353729248047e+00,-4.212704709516401635e-07,1.713908463716506958e-02,-9.501320164417847991e-05,-1.052047088742256165e-01,1.000000000000000000e+00,2.108764601871371269e-03,0.000000000000000000e+00
1.095043420791625977e+00,-9.363409996032714844e+00,7.037178039550781250e+01,7.037178039550781250e+01,4.251109436154365540e-02,8.944989013671875000e+01,7.352626998908817768e-04,7.014109194278717041e-02,8.163979530334472656e+00,-9.249182539861067198e-07,2.908683195710182190e-02,4.218238353729248047e+00,-4.212704709516401635e-07,1.713908463716506958e-02,-9.501320164417847991e-05,-1.052047088742256165e-01,1.000000000000000000e+00,2.108764601871371269e-03,0.000000000000000000e+00
1.095043420791625977e+00,-9.363409996032714844e+00,7.037178039550781250e+01,7.037178039550781250e+01,4.251109436154365540e-02,8.944989013671875000e+01,7.352626998908817768e-04,7.014109194278717041e-02,8.163979530334472656e+00,-9.249182539861067198e-07,2.908683195710182190e-02,4.218238353729248047e+00,-4.212704709516401635e-07,1.713908463716506958e-02,-9.501320164417847991e-05,-1.052047088742256165e-01,1.000000000000000000e+00,2.108764601871371269e-03,0.000000000000000000e+00
1.095043420791625977e+00,-9.363409996032714844e+00,7.037178039550781250e+01,7.037178039550781250e+01,4.251109436154365540e-02,8.944989013671875000e+01,7.352626998908817768e-04,7.014109194278717041e-02,8.163979530334472656e+00,-9.249182539861067198e-07,2.908683195710182190e-02,4.218238353729248047e+00,-4.212704709516401635e-07,1.713908463716506958e-02,-9.501320164417847991e-05,-1.052047088742256165e-01,1.000000000000000000e+00,2.108764601871371269e-03,0.000000000000000000e+00
1.168572425842285156e+00,-9.358570098876953125e+00,7.093559265136718750e+01,7.093559265136718750e+01,4.330339655280113220e-02,8.944357299804687500e+01,7.616162765771150589e-04,7.329358160495758057e-02,8.402358055114746094e+00,2.765279987215762958e-07,4.287409409880638123e-02,3.241965770721435547e+00,1.633975807635579258e-05,8.774397894740104675e-03,-5.540019483305513859e-04,-8.718361705541610718e-02,1.000000000000000000e+00,1.977878157049417496e-03,0.000000000000000000e+00
1.168572425842285156e+00,-9.358570098876953125e+00,7.093559265136718750e+01,7.093559265136718750e+01,4.330339655280113220e-02,8.944357299804687500e+01,7.616162765771150589e-04,7.329358160495758057e-02,8.402358055114746094e+00,2.765279987215762958e-07,4.287409409880638123e-02,3.241965770721435547e+00,1.633975807635579258e-05,8.774397894740104675e-03,-5.540019483305513859e-04,-8.718361705541610718e-02,1.000000000000000000e+00,1.977878157049417496e-03,0.000000000000000000e+00
1.168572425842285156e+00,-9.358570098876953125e+00,7.093559265136718750e+01,7.093559265136718750e+01,4.330339655280113220e-02,8.944357299804687500e+01,7.616162765771150589e-04,7.329358160495758057e-02,8.402358055114746094e+00,2.765279987215762958e-07,4.287409409880638123e-02,3.241965770721435547e+00,1.633975807635579258e-05,8.774397894740104675e-03,-5.540019483305513859e-04,-8.718361705541610718e-02,1.000000000000000000e+00,1.977878157049417496e-03,0.000000000000000000e+00
1.168572425842285156e+00,-9.358570098876953125e+00,7.093559265136718750e+01,7.093559265136718750e+01,4.330339655280113220e-02,8.944357299804687500e+01,7.616162765771150589e-04,7.329358160495758057e-02,8.402358055114746094e+00,2.765279987215762958e-07,4.287409409880638123e-02,3.241965770721435547e+00,1.633975807635579258e-05,8.774397894740104675e-03,-5.540019483305513859e-04,-8.718361705541610718e-02,1.000000000000000000e+00,1.977878157049417496e-03,0.000000000000000000e+00
1.168572425842285156e+00,-9.353121757507324219e+00,7.156413269042968750e+01,7.156413269042968750e+01,4.358343407511711121e-02,8.943959045410156250e+01,7.466735551133751869e-04,7.536633312702178955e-02,8.637844085693359375e+00,-2.402905920462217182e-06,2.761884592473506927e-02,3.137786865234375000e+00,-3.570272383512929082e-05,-1.192404422909021378e-03,3.051655949093401432e-04,-3.085920028388500214e-02,5.000000000000000000e-01,2.312554279342293739e-03,0.000000000000000000e+00
1.243620872497558594e+00,-9.353121757507324219e+00,7.156413269042968750e+01,7.156413269042968750e+01,4.358343407511711121e-02,8.943959045410156250e+01,7.466735551133751869e-04,7.536633312702178955e-02,8.637844085693359375e+00,-2.402905920462217182e-06,2.761884592473506927e-02,3.137786865234375000e+00,-3.570272383512929082e-05,-1.192404422909021378e-03,3.051655949093401432e-04,-3.085920028388500214e-02,5.000000000000000000e-01,2.312554279342293739e-03,0.000000000000000000e+00
1.243620872497558594e+00,-9.353121757507324219e+00,7.156413269042968750e+01,7.156413269042968750e+01,4.358343407511711121e-02,8.943959045410156250e+01,7.466735551133751869e-04,7.536633312702178955e-02,8.637844085693359375e+00,-2.402905920462217182e-06,2.761884592473506927e-02,3.137786865234375000e+00,-3.570272383512929082e-05,-1.192404422909021378e-03,3.051655949093401432e-04,-3.085920028388500214e-02,5.000000000000000000e-01,2.312554279342293739e-03,0.000000000000000000e+00
1.243620872497558594e+00,-9.353121757507324219e+00,7.156413269042968750e+01,7.156413269042968750e+01,4.358343407511711121e-02,8.943959045410156250e+01,7.466735551133751869e-04,7.536633312702178955e-02,8.637844085693359375e+00,-2.402905920462217182e-06,2.761884592473506927e-02,3.137786865234375000e+00,-3.570272383512929082e-05,-1.192404422909021378e-03,3.051655949093401432e-04,-3.085920028388500214e-02,5.000000000000000000e-01,2.312554279342293739e-03,0.000000000000000000e+00
1.312042951583862305e+00,-9.347422599792480469e+00,7.222057342529296875e+01,7.222057342529296875e+01,4.271600022912025452e-02,8.944248199462890625e+01,6.601723143830895424e-04,7.586706429719924927e-02,8.810622215270996094e+00,-1.907062312511698110e-07,7.318268995732069016e-03,2.525181055068969727e+00,3.233166353311389685e-05,-1.852982677519321442e-02,1.478640013374388218e-03,8.122413605451583862e-02,5.000000000000000000e-01,2.711317269131541252e-03,0.000000000000000000e+00
1.312042951583862305e+00,-9.347422599792480469e+00,7.222057342529296875e+01,7.222057342529296875e+01,4.271600022912025452e-02,8.944248199462890625e+01,6.601723143830895424e-04,7.586706429719924927e-02,8.810622215270996094e+00,-1.907062312511698110e-07,7.318268995732069016e-03,2.525181055068969727e+00,3.233166353311389685e-05,-1.852982677519321442e-02,1.478640013374388218e-03,8.122413605451583862e-02,5.000000000000000000e-01,2.711317269131541252e-03,0.000000000000000000e+00
1.383129358291625977e+00,-9.342104911804199219e+00,7.282799530029296875e+01,7.282799530029296875e+01,4.089916869997978210e-02,8.944930267333984375e+01,6.179104675538837910e-04,7.739988714456558228e-02,8.917021751403808594e+00,1.191929754895681981e-06,2.156281098723411560e-02,1.496763467788696289e+00,1.945007534231990576e-05,-3.143938258290290833e-02,1.126680755987763405e-03,1.149440854787826538e-01,5.000000000000000000e-01,2.195739652961492538e-03,0.000000000000000000e+00
1.383129358291625977e+00,-9.342104911804199219e+00,7.282799530029296875e+01,7.282799530029296875e+01,4.089916869997978210e-02,8.944930267333984375e+01,6.179104675538837910e-04,7.739988714456558228e-02,8.917021751403808594e+00,1.191929754895681981e-06,2.156281098723411560e-02,1.496763467788696289e+00,1.945007534231990576e-05,-3.143938258290290833e-02,1.126680755987763405e-03,1.149440854787826538e-01,5.000000000000000000e-01,2.195739652961492538e-03,0.000000000000000000e+00
1.383129358291625977e+00,-9.342104911804199219e+00,7.282799530029296875e+01,7.282799530029296875e+01,4.089916869997978210e-02,8.944930267333984375e+01,6.179104675538837910e-04,7.739988714456558228e-02,8.917021751403808594e+00,1.191929754895681981e-06,2.156281098723411560e-02,1.496763467788696289e+00,1.945007534231990576e-05,-3.143938258290290833e-02,1.126680755987763405e-03,1.149440854787826538e-01,5.000000000000000000e-01,2.195739652961492538e-03,0.000000000000000000e+00
1.450951814651489258e+00,-9.336521148681640625e+00,7.346513366699218750e+01,7.346513366699218750e+01,3.827637806534767151e-02,8.945927429199218750e+01,5.196013953536748886e-04,7.737713307142257690e-02,8.989497184753417969e+00,1.287277200390235521e-06,-3.354946675244718790e-04,1.068605303764343262e+00,1.405838929713354446e-06,-3.943762183189392090e-02,2.147298073396086693e-03,1.571256220340728760e-01,5.000000000000000000e-01,2.163018099963665009e-03,0.000000000000000000e+00
1.450951814651489258e+00,-9.336521148681640625e+00,7.346513366699218750e+01,7.346513366699218750e+01,3.827637806534767151e-02,8.945927429199218750e+01,5.196013953536748886e-04,7.737713307142257690e-02,8.989497184753417969e+00,1.287277200390235521e-06,-3.354946675244718790e-04,1.068605303764343262e+00,1.405838929713354446e-06,-3.943762183189392090e-02,2.147298073396086693e-03,1.571256220340728760e-01,5.000000000000000000e-01,2.163018099963665009e-03,0.000000000000000000e+00
1.450951814651489258e+00,-9.336521148681640625e+00,7.346513366699218750e+01,7.346513366699218750e+01,3.827637806534767151e-02,8.945927429199218750e+01,5.196013953536748886e-04,7.737713307142257690e-02,8.989497184753417969e+00,1.287277200390235521e-06,-3.354946675244718790e-04,1.068605303764343262e+00,1.405838929713354446e-06,-3.943762183189392090e-02,2.147298073396086693e-03,1.571256220340728760e-01,5.000000000000000000e-01,2.163018099963665009e-03,0.000000000000000000e+00
1.527701377868652344e+00,-9.331211090087890625e+00,7.407665252685546875e+01,7.407665252685546875e+01,3.550332039594650269e-02,8.947118377685546875e+01,3.872247471008449793e-04,7.653731107711791992e-02,9.032302856445312500e+00,1.191931119137734640e-06,-1.094236876815557480e-02,5.577318072319030762e-01,-1.242301323145511560e-06,-4.144201800227165222e-02,2.432967070490121841e-03,1.879321336746215820e-01,5.000000000000000000e-01,2.100965706631541252e-03,0.000000000000000000e+00
1.527701377868652344e+00,-9.331211090087890625e+00,7.407665252685546875e+01,7.407665252685546875e+01,3.550332039594650269e-02,8.947118377685546875e+01,3.872247471008449793e-04,7.653731107711791992e-02,9.032302856445312500e+00,1.191931119137734640e-06,-1.094236876815557480e-02,5.577318072319030762e-01,-1.242301323145511560e-06,-4.144201800227165222e-02,2.432967070490121841e-03,1.879321336746215820e-01,5.000000000000000000e-01,2.100965706631541252e-03,0.000000000000000000e+00
1.527701377868652344e+00,-9.331211090087890625e+00,7.407665252685546875e+01,7.407665252685546875e+01,3.550332039594650269e-02,8.947118377685546875e+01,3.872247471008449793e-04,7.653731107711791992e-02,9.032302856445312500e+00,1.191931119137734640e-06,-1.094236876815557480e-02,5.577318072319030762e-01,-1.242301323145511560e-06,-4.144201800227165222e-02,2.432967070490121841e-03,1.879321336746215820e-01,5.000000000000000000e-01,2.100965706631541252e-03,0.000000000000000000e+00
1.600134611129760742e+00,-9.325199127197265625e+00,7.477120208740234375e+01,7.477120208740234375e+01,3.234094381332397461e-02,8.948346710205078125e+01,3.046021156478673220e-04,7.704557478427886963e-02,9.059280395507812500e+00,8.581750989833381027e-07,7.016995921730995178e-03,3.724469840526580811e-01,-4.607774826581589878e-06,-3.997452184557914734e-02,1.597147085703909397e-03,1.512374579906463623e-01,5.000000000000000000e-01,1.370578305795788765e-03,0.000000000000000000e+00
1.600134611129760742e+00,-9.325199127197265625e+00,7.477120208740234375e+01,7.477120208740234375e+01,3.234094381332397461e-02,8.948346710205078125e+01,3.046021156478673220e-04,7.704557478427886963e-02,9.059280395507812500e+00,8.581750989833381027e-07,7.016995921730995178e-03,3.724469840526580811e-01,-4.607774826581589878e-06,-3.997452184557914734e-02,1.597147085703909397e-03,1.512374579906463623e-01,5.000000000000000000e-01,1.370578305795788765e-03,0.000000000000000000e+00
1.600134611129760742e+00,-9.325199127197265625e+00,7.477120208740234375e+01,7.477120208740234375e+01,3.234094381332397461e-02,8.948346710205078125e+01,3.046021156478673220e-04,7.704557478427886963e-02,9.059280395507812500e+00,8.581750989833381027e-07,7.016995921730995178e-03,3.724469840526580811e-01,-4.607774826581589878e-06,-3.997452184557914734e-02,1.597147085703909397e-03,1.512374579906463623e-01,5.000000000000000000e-01,1.370578305795788765e-03,0.000000000000000000e+00
1.600134611129760742e+00,-9.325199127197265625e+00,7.477120208740234375e+01,7.477120208740234375e+01,3.234094381332397461e-02,8.948346710205078125e+01,3.046021156478673220e-04,7.704557478427886963e-02,9.059280395507812500e+00,8.581750989833381027e-07,7.016995921730995178e-03,3.724469840526580811e-01,-4.607774826581589878e-06,-3.997452184557914734e-02,1.597147085703909397e-03,1.512374579906463623e-01,5.000000000000000000e-01,1.370578305795788765e-03,0.000000000000000000e+00
1.600134611129760742e+00,-9.325199127197265625e+00,7.477120208740234375e+01,7.477120208740234375e+01,3.234094381332397461e-02,8.948346710205078125e+01,3.046021156478673220e-04,7.704557478427886963e-02,9.059280395507812500e+00,8.581750989833381027e-07,7.016995921730995178e-03,3.724469840526580811e-01,-4.607774826581589878e-06,-3.997452184557914734e-02,1.597147085703909397e-03,1.512374579906463623e-01,5.000000000000000000e-01,1.370578305795788765e-03,0.000000000000000000e+00
1.600134611129760742e+00,-9.319549560546875000e+00,7.542792510986328125e+01,7.542792510986328125e+01,2.967034094035625458e-02,8.949325561523437500e+01,2.210323436884209514e-04,7.671442627906799316e-02,9.070367813110351562e+00,5.053742029303975869e-07,-2.870096825063228607e-03,9.609574824571609497e-02,-3.057760295632760972e-06,-3.509127721190452576e-02,1.574174501001834869e-03,1.296450197696685791e-01,5.000000000000000000e-01,1.109992153942584991e-03,0.000000000000000000e+00
1.715513467788696289e+00,-9.319549560546875000e+00,7.542792510986328125e+01,7.542792510986328125e+01,2.967034094035625458e-02,8.949325561523437500e+01,2.210323436884209514e-04,7.671442627906799316e-02,9.070367813110351562e+00,5.053742029303975869e-07,-2.870096825063228607e-03,9.609574824571609497e-02,-3.057760295632760972e-06,-3.509127721190452576e-02,1.574174501001834869e-03,1.296450197696685791e-01,5.000000000000000000e-01,1.109992153942584991e-03,0.000000000000000000e+00
1.715513467788696289e+00,-9.319549560546875000e+00,7.542792510986328125e+01,7.542792510986328125e+01,2.967034094035625458e-02,8.949325561523437500e+01,2.210323436884209514e-04,7.671442627906799316e-02,9.070367813110351562e+00,5.053742029303975869e-07,-2.870096825063228607e-03,9.609574824571609497e-02,-3.057760295632760972e-06,-3.509127721190452576e-02,1.574174501001834869e-03,1.296450197696685791e-01,5.000000000000000000e-01,1.109992153942584991e-03,0.000000000000000000e+00
1.715513467788696289e+00,-9.311836242675781250e+00,7.633511352539062500e+01,7.633511352539062500e+01,2.652162313461303711e-02,8.950492858886718750e+01,1.001900091068819165e-04,7.570616900920867920e-02,9.071257591247558594e+00,2.326577487110625952e-06,-1.033033058047294617e-02,9.116425178945064545e-03,1.865955528046470135e-05,-2.784855663776397705e-02,1.507123582996428013e-03,1.129030063748359680e-01,5.000000000000000000e-01,9.229871793650090694e-04,0.000000000000000000e+00
1.813115119934082031e+00,-9.311836242675781250e+00,7.633511352539062500e+01,7.633511352539062500e+01,2.652162313461303711e-02,8.950492858886718750e+01,1.001900091068819165e-04,7.570616900920867920e-02,9.071257591247558594e+00,2.326577487110625952e-06,-1.033033058047294617e-02,9.116425178945064545e-03,1.865955528046470135e-05,-2.784855663776397705e-02,1.507123582996428013e-03,1.129030063748359680e-01,5.000000000000000000e-01,9.229871793650090694e-04,0.000000000000000000e+00
1.813115119934082031e+00,-9.311836242675781250e+00,7.633511352539062500e+01,7.633511352539062500e+01,2.652162313461303711e-02,8.950492858886718750e+01,1.001900091068819165e-04,7.570616900920867920e-02,9.071257591247558594e+00,2.326577487110625952e-06,-1.033033058047294617e-02,9.116425178945064545e-03,1.865955528046470135e-05,-2.784855663776397705e-02,1.507123582996428013e-03,1.129030063748359680e-01,5.000000000000000000e-01,9.229871793650090694e-04,0.000000000000000000e+00
1.813115119934082031e+00,-9.311836242675781250e+00,7.633511352539062500e+01,7.633511352539062500e+01,2.652162313461303711e-02,8.950492858886718750e+01,1.001900091068819165e-04,7.570616900920867920e-02,9.071257591247558594e+00,2.326577487110625952e-06,-1.033033058047294617e-02,9.116425178945064545e-03,1.865955528046470135e-05,-2.784855663776397705e-02,1.507123582996428013e-03,1.129030063748359680e-01,5.000000000000000000e-01,9.229871793650090694e-04,0.000000000000000000e+00
1.813115119934082031e+00,-9.304342269897460938e+00,7.722000122070312500e+01,7.722000122070312500e+01,2.422668039798736572e-02,8.951190185546875000e+01,7.475938764400780201e-05,7.620585709810256958e-02,9.062365531921386719e+00,3.814076521280185261e-08,6.018907297402620316e-03,-1.071077808737754822e-01,-2.756497269729152322e-05,-2.043773047626018524e-02,5.652726395055651665e-04,5.564500764012336731e-02,5.000000000000000000e-01,3.275553463026881218e-04,0.000000000000000000e+00
1.896134853363037109e+00,-9.304342269897460938e+00,7.722000122070312500e+01,7.722000122070312500e+01,2.422668039798736572e-02,8.951190185546875000e+01,7.475938764400780201e-05,7.620585709810256958e-02,9.062365531921386719e+00,3.814076521280185261e-08,6.018907297402620316e-03,-1.071077808737754822e-01,-2.756497269729152322e-05,-2.043773047626018524e-02,5.652726395055651665e-04,5.564500764012336731e-02,5.000000000000000000e-01,3.275553463026881218e-04,0.000000000000000000e+00
1.896134853363037109e+00,-9.304342269897460938e+00,7.722000122070312500e+01,7.722000122070312500e+01,2.422668039798736572e-02,8.951190185546875000e+01,7.475938764400780201e-05,7.620585709810256958e-02,9.062365531921386719e+00,3.814076521280185261e-08,6.018907297402620316e-03,-1.071077808737754822e-01,-2.756497269729152322e-05,-2.043773047626018524e-02,5.652726395055651665e-04,5.564500764012336731e-02,5.000000000000000000e-01,3.275553463026881218e-04,0.000000000000000000e+00
1.896134853363037109e+00,-9.304342269897460938e+00,7.722000122070312500e+01,7.722000122070312500e+01,2.422668039798736572e-02,8.951190185546875000e+01,7.475938764400780201e-05,7.620585709810256958e-02,9.062365531921386719e+00,3.814076521280185261e-08,6.018907297402620316e-03,-1.071077808737754822e-01,-2.756497269729152322e-05,-2.043773047626018524e-02,5.652726395055651665e-04,5.564500764012336731e-02,5.000000000000000000e-01,3.275553463026881218e-04,0.000000000000000000e+00
1.896134853363037109e+00,-9.304342269897460938e+00,7.722000122070312500e+01,7.722000122070312500e+01,2.422668039798736572e-02,8.951190185546875000e+01,7.475938764400780201e-05,7.620585709810256958e-02,9.062365531921386719e+00,3.814076521280185261e-08,6.018907297402620316e-03,-1.071077808737754822e-01,-2.756497269729152322e-05,-2.043773047626018524e-02,5.652726395055651665e-04,5.564500764012336731e-02,5.000000000000000000e-01,3.275553463026881218e-04,0.000000000000000000e+00
1.896134853363037109e+00,-9.304342269897460938e+00,7.722000122070312500e+01,7.722000122070312500e+01,2.422668039798736572e-02,8.951190185546875000e+01,7.475938764400780201e-05,7.620585709810256958e-02,9.062365531921386719e+00,3.814076521280185261e-08,6.018907297402620316e-03,-1.071077808737754822e-01,-2.756497269729152322e-05,-2.043773047626018524e-02,5.652726395055651665e-04,5.564500764012336731e-02,5.000000000000000000e-01,3.275553463026881218e-04,0.000000000000000000e+00
1.896134853363037109e+00,-9.304342269897460938e+00,7.722000122070312500e+01,7.722000122070312500e+01,2.422668039798736572e-02,8.951190185546875000e+01,7.475938764400780201e-05,7.620585709810256958e-02,9.062365531921386719e+00,3.814076521280185261e-08,6.018907297402620316e-03,-1.071077808737754822e-01,-2.756497269729152322e-05,-2.043773047626018524e-02,5.652726395055651665e-04,5.564500764012336731e-02,5.000000000000000000e-01,3.275553463026881218e-04,0.000000000000000000e+00
1.896134853363037109e+00,-9.304342269897460938e+00,7.722000122070312500e+01,7.722000122070312500e+01,2.422668039798736572e-02,8.951190185546875000e+01,7.475938764400780201e-05,7.620585709810256958e-02,9.062365531921386719e+00,3.814076521280185261e-08,6.018907297402620316e-03,-1.071077808737754822e-01,-2.756497269729152322e-05,-2.043773047626018524e-02,5.652726395055651665e-04,5.564500764012336731e-02,5.000000000000000000e-01,3.275553463026881218e-04,0.000000000000000000e+00
2.195794820785522461e+00,-9.283624649047851562e+00,7.966673278808593750e+01,7.966673278808593750e+01,2.082524634897708893e-02,8.951609802246093750e+01,4.238602559780701995e-05,7.669977843761444092e-02,9.016915321350097656e+00,4.386260741284786491e-07,8.202048949897289276e-03,-3.098210394382476807e-01,3.377817120053805411e-05,-7.209867238998413086e-03,1.321582476521143690e-05,-1.013430766761302948e-02,5.000000000000000000e-01,-1.875135640148073435e-04,0.000000000000000000e+00
2.195794820785522461e+00,-9.283624649047851562e+00,7.966673278808593750e+01,7.966673278808593750e+01,2.082524634897708893e-02,8.951609802246093750e+01,4.238602559780701995e-05,7.669977843761444092e-02,9.016915321350097656e+00,4.386260741284786491e-07,8.202048949897289276e-03,-3.098210394382476807e-01,3.377817120053805411e-05,-7.209867238998413086e-03,1.321582476521143690e-05,-1.013430766761302948e-02,5.000000000000000000e-01,-1.875135640148073435e-04,0.000000000000000000e+00
2.195794820785522461e+00,-9.283624649047851562e+00,7.966673278808593750e+01,7.966673278808593750e+01,2.082524634897708893e-02,8.951609802246093750e+01,4.238602559780701995e-05,7.669977843761444092e-02,9.016915321350097656e+00,4.386260741284786491e-07,8.202048949897289276e-03,-3.098210394382476807e-01,3.377817120053805411e-05,-7.209867238998413086e-03,1.321582476521143690e-05,-1.013430766761302948e-02,5.000000000000000000e-01,-1.875135640148073435e-04,0.000000000000000000e+00
2.195794820785522461e+00,-9.283624649047851562e+00,7.966673278808593750e+01,7.966673278808593750e+01,2.082524634897708893e-02,8.951609802246093750e+01,4.238602559780701995e-05,7.669977843761444092e-02,9.016915321350097656e+00,4.386260741284786491e-07,8.202048949897289276e-03,-3.098210394382476807e-01,3.377817120053805411e-05,-7.209867238998413086e-03,1.321582476521143690e-05,-1.013430766761302948e-02,5.000000000000000000e-01,-1.875135640148073435e-04,0.000000000000000000e+00
2.195794820785522461e+00,-9.283624649047851562e+00,7.966673278808593750e+01,7.966673278808593750e+01,2.082524634897708893e-02,8.951609802246093750e+01,4.238602559780701995e-05,7.669977843761444092e-02,9.016915321350097656e+00,4.386260741284786491e-07,8.202048949897289276e-03,-3.098210394382476807e-01,3.377817120053805411e-05,-7.209867238998413086e-03,1.321582476521143690e-05,-1.013430766761302948e-02,5.000000000000000000e-01,-1.875135640148073435e-04,0.000000000000000000e+00
2.195794820785522461e+00,-9.283624649047851562e+00,7.966673278808593750e+01,7.966673278808593750e+01,2.082524634897708893e-02,8.951609802246093750e+01,4.238602559780701995e-05,7.669977843761444092e-02,9.016915321350097656e+00,4.386260741284786491e-07,8.202048949897289276e-03,-3.098210394382476807e-01,3.377817120053805411e-05,-7.209867238998413086e-03,1.321582476521143690e-05,-1.013430766761302948e-02,5.000000000000000000e-01,-1.875135640148073435e-04,0.000000000000000000e+00
2.195794820785522461e+00,-9.283624649047851562e+00,7.966673278808593750e+01,7.966673278808593750e+01,2.082524634897708893e-02,8.951609802246093750e+01,4.238602559780701995e-05,7.669977843761444092e-02,9.016915321350097656e+00,4.386260741284786491e-07,8.202048949897289276e-03,-3.098210394382476807e-01,3.377817120053805411e-05,-7.209867238998413086e-03,1.321582476521143690e-05,-1.013430766761302948e-02,5.000000000000000000e-01,-1.875135640148073435e-04,0.000000000000000000e+00
2.195794820785522461e+00,-9.283624649047851562e+00,7.966673278808593750e+01,7.966673278808593750e+01,2.082524634897708893e-02,8.951609802246093750e+01,4.238602559780701995e-05,7.669977843761444092e-02,9.016915321350097656e+00,4.386260741284786491e-07,8.202048949897289276e-03,-3.098210394382476807e-01,3.377817120053805411e-05,-7.209867238998413086e-03,1.321582476521143690e-05,-1.013430766761302948e-02,5.000000000000000000e-01,-1.875135640148073435e-04,0.000000000000000000e+00
2.195794820785522461e+00,-9.283624649047851562e+00,7.966673278808593750e+01,7.966673278808593750e+01,2.082524634897708893e-02,8.951609802246093750e+01,4.238602559780701995e-05,7.669977843761444092e-02,9.016915321350097656e+00,4.386260741284786491e-07,8.202048949897289276e-03,-3.098210394382476807e-01,3.377817120053805411e-05,-7.209867238998413086e-03,1.321582476521143690e-05,-1.013430766761302948e-02,5.000000000000000000e-01,-1.875135640148073435e-04,0.000000000000000000e+00
2.195794820785522461e+00,-9.283624649047851562e+00,7.966673278808593750e+01,7.966673278808593750e+01,2.082524634897708893e-02,8.951609802246093750e+01,4.238602559780701995e-05,7.669977843761444092e-02,9.016915321350097656e+00,4.386260741284786491e-07,8.202048949897289276e-03,-3.098210394382476807e-01,3.377817120053805411e-05,-7.209867238998413086e-03,1.321582476521143690e-05,-1.013430766761302948e-02,5.000000000000000000e-01,-1.875135640148073435e-04,0.000000000000000000e+00
2.374083757400512695e+00,-9.279555320739746094e+00,8.014496612548828125e+01,8.014496612548828125e+01,2.050422690808773041e-02,8.951526641845703125e+01,4.339654697105288506e-05,7.688085734844207764e-02,9.008437156677246094e+00,5.053803420196345542e-07,1.015648595057427883e-03,-4.755294695496559143e-02,3.744162029306608019e-07,-5.226022098213434219e-03,4.606251604855060577e-05,-1.886348426342010498e-02,5.000000000000000000e-01,-2.295599988428875804e-04,0.000000000000000000e+00
2.374083757400512695e+00,-9.279555320739746094e+00,8.014496612548828125e+01,8.014496612548828125e+01,2.050422690808773041e-02,8.951526641845703125e+01,4.339654697105288506e-05,7.688085734844207764e-02,9.008437156677246094e+00,5.053803420196345542e-07,1.015648595057427883e-03,-4.755294695496559143e-02,3.744162029306608019e-07,-5.226022098213434219e-03,4.606251604855060577e-05,-1.886348426342010498e-02,5.000000000000000000e-01,-2.295599988428875804e-04,0.000000000000000000e+00
2.374083757400512695e+00,-9.279555320739746094e+00,8.014496612548828125e+01,8.014496612548828125e+01,2.050422690808773041e-02,8.951526641845703125e+01,4.339654697105288506e-05,7.688085734844207764e-02,9.008437156677246094e+00,5.053803420196345542e-07,1.015648595057427883e-03,-4.755294695496559143e-02,3.744162029306608019e-07,-5.226022098213434219e-03,4.606251604855060577e-05,-1.886348426342010498e-02,5.000000000000000000e-01,-2.295599988428875804e-04,0.000000000000000000e+00
2.447860002517700195e+00,-9.271868705749511719e+00,8.104505157470703125e+01,8.104505157470703125e+01,2.014905773103237152e-02,8.951287841796875000e+01,4.673743751482106745e-05,7.715163379907608032e-02,8.995127677917480469e+00,4.195467795398144517e-07,3.670239122584462166e-03,-1.804033070802688599e-01,-1.163430852102464996e-06,-2.643815008923411369e-03,4.114198964089155197e-05,-2.594228461384773254e-02,5.000000000000000000e-01,-2.327812981093302369e-04,0.000000000000000000e+00
2.447860002517700195e+00,-9.271868705749511719e+00,8.104505157470703125e+01,8.104505157470703125e+01,2.014905773103237152e-02,8.951287841796875000e+01,4.673743751482106745e-05,7.715163379907608032e-02,8.995127677917480469e+00,4.195467795398144517e-07,3.670239122584462166e-03,-1.804033070802688599e-01,-1.163430852102464996e-06,-2.643815008923411369e-03,4.114198964089155197e-05,-2.594228461384773254e-02,5.000000000000000000e-01,-2.327812981093302369e-04,0.000000000000000000e+00
2.500878810882568359e+00,-9.266186714172363281e+00,8.170823669433593750e+01,8.170823669433593750e+01,1.999879255890846252e-02,8.951105499267578125e+01,4.580612585414201021e-05,7.725392282009124756e-02,8.985318183898925781e+00,3.242014088300493313e-07,1.929296879097819328e-03,-1.850191354751586914e-01,-1.798331027202948462e-06,-1.576703274622559547e-03,-9.087831131182610989e-06,-2.402283996343612671e-02,5.000000000000000000e-01,-1.975165505427867174e-04,0.000000000000000000e+00
2.500878810882568359e+00,-9.266186714172363281e+00,8.170823669433593750e+01,8.170823669433593750e+01,1.999879255890846252e-02,8.951105499267578125e+01,4.580612585414201021e-05,7.725392282009124756e-02,8.985318183898925781e+00,3.242014088300493313e-07,1.929296879097819328e-03,-1.850191354751586914e-01,-1.798331027202948462e-06,-1.576703274622559547e-03,-9.087831131182610989e-06,-2.402283996343612671e-02,5.000000000000000000e-01,-1.975165505427867174e-04,0.000000000000000000e+00
2.560195446014404297e+00,-9.262099266052246094e+00,8.218437957763671875e+01,8.218437957763671875e+01,1.993049122393131256e-02,8.950988769531250000e+01,4.352161340648308396e-05,7.729703933000564575e-02,8.978260993957519531e+00,6.770189884264254943e-07,7.268873159773647785e-04,-1.189748868346214294e-01,5.948037596681388095e-06,-1.106045325286686420e-03,3.513730553095228970e-05,-2.127780765295028687e-02,5.000000000000000000e-01,-1.664903393248096108e-04,0.000000000000000000e+00
2.560195446014404297e+00,-9.262099266052246094e+00,8.218437957763671875e+01,8.218437957763671875e+01,1.993049122393131256e-02,8.950988769531250000e+01,4.352161340648308396e-05,7.729703933000564575e-02,8.978260993957519531e+00,6.770189884264254943e-07,7.268873159773647785e-04,-1.189748868346214294e-01,5.948037596681388095e-06,-1.106045325286686420e-03,3.513730553095228970e-05,-2.127780765295028687e-02,5.000000000000000000e-01,-1.664903393248096108e-04,0.000000000000000000e+00
2.560195446014404297e+00,-9.262099266052246094e+00,8.218437957763671875e+01,8.218437957763671875e+01,1.993049122393131256e-02,8.950988769531250000e+01,4.352161340648308396e-05,7.729703933000564575e-02,8.978260993957519531e+00,6.770189884264254943e-07,7.268873159773647785e-04,-1.189748868346214294e-01,5.948037596681388095e-06,-1.106045325286686420e-03,3.513730553095228970e-05,-2.127780765295028687e-02,5.000000000000000000e-01,-1.664903393248096108e-04,0.000000000000000000e+00
2.618730545043945312e+00,-9.257522583007812500e+00,8.271666717529296875e+01,8.271666717529296875e+01,1.988950930535793304e-02,8.950880432128906250e+01,3.913018008461222053e-05,7.728347927331924438e-02,8.970376014709472656e+00,2.955951856620231410e-07,-2.316568425158038735e-04,-1.347051411867141724e-01,-6.516155281133251265e-06,-7.837678422220051289e-04,7.108790305210277438e-05,-1.675291173160076141e-02,5.000000000000000000e-01,-1.249525230377912521e-04,0.000000000000000000e+00
2.618730545043945312e+00,-9.257522583007812500e+00,8.271666717529296875e+01,8.271666717529296875e+01,1.988950930535793304e-02,8.950880432128906250e+01,3.913018008461222053e-05,7.728347927331924438e-02,8.970376014709472656e+00,2.955951856620231410e-07,-2.316568425158038735e-04,-1.347051411867141724e-01,-6.516155281133251265e-06,-7.837678422220051289e-04,7.108790305210277438e-05,-1.675291173160076141e-02,5.000000000000000000e-01,-1.249525230377912521e-04,0.000000000000000000e+00
2.677334070205688477e+00,-9.253005981445312500e+00,8.324146270751953125e+01,8.324146270751953125e+01,1.984852924942970276e-02,8.950796508789062500e+01,3.408257907722145319e-05,7.727348804473876953e-02,8.962601661682128906e+00,7.151510885705647524e-07,-1.704885216895490885e-04,-1.326601654291152954e-01,7.159226242947624996e-06,-5.292894784361124039e-04,7.110412843758240342e-05,-1.323896087706089020e-02,5.000000000000000000e-01,-1.018948023556731641e-04,0.000000000000000000e+00
2.677334070205688477e+00,-9.253005981445312500e+00,8.324146270751953125e+01,8.324146270751953125e+01,1.984852924942970276e-02,8.950796508789062500e+01,3.408257907722145319e-05,7.727348804473876953e-02,8.962601661682128906e+00,7.151510885705647524e-07,-1.704885216895490885e-04,-1.326601654291152954e-01,7.159226242947624996e-06,-5.292894784361124039e-04,7.110412843758240342e-05,-1.323896087706089020e-02,5.000000000000000000e-01,-1.018948023556731641e-04,0.000000000000000000e+00
2.677334070205688477e+00,-9.253005981445312500e+00,8.324146270751953125e+01,8.324146270751953125e+01,1.984852924942970276e-02,8.950796508789062500e+01,3.408257907722145319e-05,7.727348804473876953e-02,8.962601661682128906e+00,7.151510885705647524e-07,-1.704885216895490885e-04,-1.326601654291152954e-01,7.159226242947624996e-06,-5.292894784361124039e-04,7.110412843758240342e-05,-1.323896087706089020e-02,5.000000000000000000e-01,-1.018948023556731641e-04,0.000000000000000000e+00
2.677334070205688477e+00,-9.253005981445312500e+00,8.324146270751953125e+01,8.324146270751953125e+01,1.984852924942970276e-02,8.950796508789062500e+01,3.408257907722145319e-05,7.727348804473876953e-02,8.962601661682128906e+00,7.151510885705647524e-07,-1.704885216895490885e-04,-1.326601654291152954e-01,7.159226242947624996e-06,-5.292894784361124039e-04,7.110412843758240342e-05,-1.323896087706089020e-02,5.000000000000000000e-01,-1.018948023556731641e-04,0.000000000000000000e+00
2.755024909973144531e+00,-9.248482704162597656e+00,8.376640319824218750e+01,8.376640319824218750e+01,1.982803829014301300e-02,8.950728607177734375e+01,3.017806557181756943e-05,7.725761085748672485e-02,8.954827308654785156e+00,-1.239594951130129630e-07,-2.043637068709358573e-04,-1.000678241252899170e-01,-1.080063793779117987e-05,-3.914129629265516996e-04,5.150007564225234091e-05,-1.048834435641765594e-02,5.000000000000000000e-01,-8.409288420807570219e-05,0.000000000000000000e+00
2.755024909973144531e+00,-9.248482704162597656e+00,8.376640319824218750e+01,8.376640319824218750e+01,1.982803829014301300e-02,8.950728607177734375e+01,3.017806557181756943e-05,7.725761085748672485e-02,8.954827308654785156e+00,-1.239594951130129630e-07,-2.043637068709358573e-04,-1.000678241252899170e-01,-1.080063793779117987e-05,-3.914129629265516996e-04,5.150007564225234091e-05,-1.048834435641765594e-02,5.000000000000000000e-01,-8.409288420807570219e-05,0.000000000000000000e+00
2.755024909973144531e+00,-9.248482704162597656e+00,8.376640319824218750e+01,8.376640319824218750e+01,1.982803829014301300e-02,8.950728607177734375e+01,3.017806557181756943e-05,7.725761085748672485e-02,8.954827308654785156e+00,-1.239594951130129630e-07,-2.043637068709358573e-04,-1.000678241252899170e-01,-1.080063793779117987e-05,-3.914129629265516996e-04,5.150007564225234091e-05,-1.048834435641765594e-02,5.000000000000000000e-01,-8.409288420807570219e-05,0.000000000000000000e+00
2.830169916152954102e+00,-9.242487907409667969e+00,8.446163940429687500e+01,8.446163940429687500e+01,1.980071701109409332e-02,8.950659942626953125e+01,2.574494465079624206e-05,7.723619788885116577e-02,8.944529533386230469e+00,5.339746280696999747e-07,-2.849553129635751247e-04,-1.370387077331542969e-01,8.755527233006432652e-06,-2.516830863896757364e-04,3.337439557071775198e-05,-8.076499216258525848e-03,5.000000000000000000e-01,-7.137722423067316413e-05,0.000000000000000000e+00
2.830169916152954102e+00,-9.242487907409667969e+00,8.446163940429687500e+01,8.446163940429687500e+01,1.980071701109409332e-02,8.950659942626953125e+01,2.574494465079624206e-05,7.723619788885116577e-02,8.944529533386230469e+00,5.339746280696999747e-07,-2.849553129635751247e-04,-1.370387077331542969e-01,8.755527233006432652e-06,-2.516830863896757364e-04,3.337439557071775198e-05,-8.076499216258525848e-03,5.000000000000000000e-01,-7.137722423067316413e-05,0.000000000000000000e+00
2.830169916152954102e+00,-9.242487907409667969e+00,8.446163940429687500e+01,8.446163940429687500e+01,1.980071701109409332e-02,8.950659942626953125e+01,2.574494465079624206e-05,7.723619788885116577e-02,8.944529533386230469e+00,5.339746280696999747e-07,-2.849553129635751247e-04,-1.370387077331542969e-01,8.755527233006432652e-06,-2.516830863896757364e-04,3.337439557071775198e-05,-8.076499216258525848e-03,5.000000000000000000e-01,-7.137722423067316413e-05,0.000000000000000000e+00
2.830169916152954102e+00,-9.242487907409667969e+00,8.446163940429687500e+01,8.446163940429687500e+01,1.980071701109409332e-02,8.950659942626953125e+01,2.574494465079624206e-05,7.723619788885116577e-02,8.944529533386230469e+00,5.339746280696999747e-07,-2.849553129635751247e-04,-1.370387077331542969e-01,8.755527233006432652e-06,-2.516830863896757364e-04,3.337439557071775198e-05,-8.076499216258525848e-03,5.000000000000000000e-01,-7.137722423067316413e-05,0.000000000000000000e+00
2.830169916152954102e+00,-9.242487907409667969e+00,8.446163940429687500e+01,8.446163940429687500e+01,1.980071701109409332e-02,8.950659942626953125e+01,2.574494465079624206e-05,7.723619788885116577e-02,8.944529533386230469e+00,5.339746280696999747e-07,-2.849553129635751247e-04,-1.370387077331542969e-01,8.755527233006432652e-06,-2.516830863896757364e-04,3.337439557071775198e-05,-8.076499216258525848e-03,5.000000000000000000e-01,-7.137722423067316413e-05,0.000000000000000000e+00
2.917726278305053711e+00,-9.236736297607421875e+00,8.511373901367187500e+01,8.511373901367187500e+01,1.528596226125955582e-02,8.952478790283203125e+01,-6.103481427999213338e-05,7.285672426223754883e-02,8.514555931091308594e+00,8.391073151869932190e-07,-5.001890659332275391e-02,-4.910820484161376953e+00,3.484985654722549953e-06,-8.138137310743331909e-02,2.925323089584708214e-03,3.455356359481811523e-01,5.000000000000000000e-01,-4.475911555346101522e-05,0.000000000000000000e+00
