# Time,X,Y,Z,Roll,Pitch,Yaw,Vx,Vy,Vz,Ax,Ay,Az,Wx,Wy,Wz,Throttle,Steer,Brake
0.000000000000000000e+00,-2.151490020751953125e+02,2.360263061523437500e+02,2.360263061523437500e+02,-2.756937444210052490e-01,2.733313322067260742e+00,3.185615241527557373e-01,6.198384761810302734e+00,3.146115243434906006e-01,2.929273250629194081e-05,5.938292741775512695e-01,-9.081117510795593262e-01,1.139747037086635828e-04,2.673039436340332031e-01,-9.338912963867187500e-01,-1.299106979370117188e+01,1.000000000000000000e+00,-6.696702539920806885e-02,0.000000000000000000e+00
1.045818328857421875e-01,-2.151490020751953125e+02,2.360263061523437500e+02,2.360263061523437500e+02,-2.756937444210052490e-01,2.733313322067260742e+00,3.185615241527557373e-01,6.198384761810302734e+00,3.146115243434906006e-01,2.929273250629194081e-05,5.938292741775512695e-01,-9.081117510795593262e-01,1.139747037086635828e-04,2.673039436340332031e-01,-9.338912963867187500e-01,-1.299106979370117188e+01,1.000000000000000000e+00,-6.696702539920806885e-02,0.000000000000000000e+00
1.045818328857421875e-01,-2.151490020751953125e+02,2.360263061523437500e+02,2.360263061523437500e+02,-2.756937444210052490e-01,2.733313322067260742e+00,3.185615241527557373e-01,6.198384761810302734e+00,3.146115243434906006e-01,2.929273250629194081e-05,5.938292741775512695e-01,-9.081117510795593262e-01,1.139747037086635828e-04,2.673039436340332031e-01,-9.338912963867187500e-01,-1.299106979370117188e+01,1.000000000000000000e+00,-6.696702539920806885e-02,0.000000000000000000e+00
1.045818328857421875e-01,-2.151490020751953125e+02,2.360263061523437500e+02,2.360263061523437500e+02,-2.756937444210052490e-01,2.733313322067260742e+00,3.185615241527557373e-01,6.198384761810302734e+00,3.146115243434906006e-01,2.929273250629194081e-05,5.938292741775512695e-01,-9.081117510795593262e-01,1.139747037086635828e-04,2.673039436340332031e-01,-9.338912963867187500e-01,-1.299106979370117188e+01,1.000000000000000000e+00,-6.696702539920806885e-02,0.000000000000000000e+00
1.045818328857421875e-01,-2.151490020751953125e+02,2.360263061523437500e+02,2.360263061523437500e+02,-2.756937444210052490e-01,2.733313322067260742e+00,3.185615241527557373e-01,6.198384761810302734e+00,3.146115243434906006e-01,2.929273250629194081e-05,5.938292741775512695e-01,-9.081117510795593262e-01,1.139747037086635828e-04,2.673039436340332031e-01,-9.338912963867187500e-01,-1.299106979370117188e+01,1.000000000000000000e+00,-6.696702539920806885e-02,0.000000000000000000e+00
1.045818328857421875e-01,-2.151490020751953125e+02,2.360263061523437500e+02,2.360263061523437500e+02,-2.756937444210052490e-01,2.733313322067260742e+00,3.185615241527557373e-01,6.198384761810302734e+00,3.146115243434906006e-01,2.929273250629194081e-05,5.938292741775512695e-01,-9.081117510795593262e-01,1.139747037086635828e-04,2.673039436340332031e-01,-9.338912963867187500e-01,-1.299106979370117188e+01,1.000000000000000000e+00,-6.696702539920806885e-02,0.000000000000000000e+00
1.045818328857421875e-01,-2.145272979736328125e+02,2.360473632812500000e+02,2.360473632812500000e+02,-2.025150954723358154e-01,1.785018801689147949e+00,2.961315214633941650e-01,6.451446533203125000e+00,2.294671535491943359e-01,3.466981797828339040e-05,2.416812181472778320e+00,-8.131530284881591797e-01,5.135270112077705562e-05,2.199997901916503906e-01,-1.404112100601196289e+00,-9.005193710327148438e+00,1.000000000000000000e+00,-4.010686650872230530e-02,0.000000000000000000e+00
2.092907428741455078e-01,-2.145272979736328125e+02,2.360473632812500000e+02,2.360473632812500000e+02,-2.025150954723358154e-01,1.785018801689147949e+00,2.961315214633941650e-01,6.451446533203125000e+00,2.294671535491943359e-01,3.466981797828339040e-05,2.416812181472778320e+00,-8.131530284881591797e-01,5.135270112077705562e-05,2.199997901916503906e-01,-1.404112100601196289e+00,-9.005193710327148438e+00,1.000000000000000000e+00,-4.010686650872230530e-02,0.000000000000000000e+00
2.092907428741455078e-01,-2.145272979736328125e+02,2.360473632812500000e+02,2.360473632812500000e+02,-2.025150954723358154e-01,1.785018801689147949e+00,2.961315214633941650e-01,6.451446533203125000e+00,2.294671535491943359e-01,3.466981797828339040e-05,2.416812181472778320e+00,-8.131530284881591797e-01,5.135270112077705562e-05,2.199997901916503906e-01,-1.404112100601196289e+00,-9.005193710327148438e+00,1.000000000000000000e+00,-4.010686650872230530e-02,0.000000000000000000e+00
2.092907428741455078e-01,-2.145272979736328125e+02,2.360473632812500000e+02,2.360473632812500000e+02,-2.025150954723358154e-01,1.785018801689147949e+00,2.961315214633941650e-01,6.451446533203125000e+00,2.294671535491943359e-01,3.466981797828339040e-05,2.416812181472778320e+00,-8.131530284881591797e-01,5.135270112077705562e-05,2.199997901916503906e-01,-1.404112100601196289e+00,-9.005193710327148438e+00,1.000000000000000000e+00,-4.010686650872230530e-02,0.000000000000000000e+00
2.092907428741455078e-01,-2.145272979736328125e+02,2.360473632812500000e+02,2.360473632812500000e+02,-2.025150954723358154e-01,1.785018801689147949e+00,2.961315214633941650e-01,6.451446533203125000e+00,2.294671535491943359e-01,3.466981797828339040e-05,2.416812181472778320e+00,-8.131530284881591797e-01,5.135270112077705562e-05,2.199997901916503906e-01,-1.404112100601196289e+00,-9.005193710327148438e+00,1.000000000000000000e+00,-4.010686650872230530e-02,0.000000000000000000e+00
2.092907428741455078e-01,-2.138823547363281250e+02,2.360652618408203125e+02,2.360652618408203125e+02,-1.258257329463958740e-01,1.423473358154296875e+00,2.682567536830902100e-01,6.689229011535644531e+00,1.820879727602005005e-01,2.181643139920197427e-05,3.186639070510864258e+00,-6.349515318870544434e-01,-1.722545130178332329e-04,3.498165607452392578e-01,-1.269733428955078125e+00,-2.347865819931030273e+00,1.000000000000000000e+00,-6.182126235216856003e-03,0.000000000000000000e+00
2.839093208312988281e-01,-2.138823547363281250e+02,2.360652618408203125e+02,2.360652618408203125e+02,-1.258257329463958740e-01,1.423473358154296875e+00,2.682567536830902100e-01,6.689229011535644531e+00,1.820879727602005005e-01,2.181643139920197427e-05,3.186639070510864258e+00,-6.349515318870544434e-01,-1.722545130178332329e-04,3.498165607452392578e-01,-1.269733428955078125e+00,-2.347865819931030273e+00,1.000000000000000000e+00,-6.182126235216856003e-03,0.000000000000000000e+00
2.839093208312988281e-01,-2.138823547363281250e+02,2.360652618408203125e+02,2.360652618408203125e+02,-1.258257329463958740e-01,1.423473358154296875e+00,2.682567536830902100e-01,6.689229011535644531e+00,1.820879727602005005e-01,2.181643139920197427e-05,3.186639070510864258e+00,-6.349515318870544434e-01,-1.722545130178332329e-04,3.498165607452392578e-01,-1.269733428955078125e+00,-2.347865819931030273e+00,1.000000000000000000e+00,-6.182126235216856003e-03,0.000000000000000000e+00
2.839093208312988281e-01,-2.138823547363281250e+02,2.360652618408203125e+02,2.360652618408203125e+02,-1.258257329463958740e-01,1.423473358154296875e+00,2.682567536830902100e-01,6.689229011535644531e+00,1.820879727602005005e-01,2.181643139920197427e-05,3.186639070510864258e+00,-6.349515318870544434e-01,-1.722545130178332329e-04,3.498165607452392578e-01,-1.269733428955078125e+00,-2.347865819931030273e+00,1.000000000000000000e+00,-6.182126235216856003e-03,0.000000000000000000e+00
2.839093208312988281e-01,-2.138823547363281250e+02,2.360652618408203125e+02,2.360652618408203125e+02,-1.258257329463958740e-01,1.423473358154296875e+00,2.682567536830902100e-01,6.689229011535644531e+00,1.820879727602005005e-01,2.181643139920197427e-05,3.186639070510864258e+00,-6.349515318870544434e-01,-1.722545130178332329e-04,3.498165607452392578e-01,-1.269733428955078125e+00,-2.347865819931030273e+00,1.000000000000000000e+00,-6.182126235216856003e-03,0.000000000000000000e+00
3.569011688232421875e-01,-2.133855590820312500e+02,2.360751190185546875e+02,2.360751190185546875e+02,-8.617649227380752563e-02,1.101644396781921387e+00,2.454514205455780029e-01,6.664178371429443359e+00,1.392525285482406616e-01,7.561508482467615977e-06,-3.431977927684783936e-01,-5.868524312973022461e-01,-1.952947350218892097e-04,3.133309483528137207e-01,-1.754886806011199951e-01,-4.853288173675537109e+00,1.000000000000000000e+00,-2.195290848612785339e-02,0.000000000000000000e+00
3.569011688232421875e-01,-2.133855590820312500e+02,2.360751190185546875e+02,2.360751190185546875e+02,-8.617649227380752563e-02,1.101644396781921387e+00,2.454514205455780029e-01,6.664178371429443359e+00,1.392525285482406616e-01,7.561508482467615977e-06,-3.431977927684783936e-01,-5.868524312973022461e-01,-1.952947350218892097e-04,3.133309483528137207e-01,-1.754886806011199951e-01,-4.853288173675537109e+00,1.000000000000000000e+00,-2.195290848612785339e-02,0.000000000000000000e+00
3.569011688232421875e-01,-2.133855590820312500e+02,2.360751190185546875e+02,2.360751190185546875e+02,-8.617649227380752563e-02,1.101644396781921387e+00,2.454514205455780029e-01,6.664178371429443359e+00,1.392525285482406616e-01,7.561508482467615977e-06,-3.431977927684783936e-01,-5.868524312973022461e-01,-1.952947350218892097e-04,3.133309483528137207e-01,-1.754886806011199951e-01,-4.853288173675537109e+00,1.000000000000000000e+00,-2.195290848612785339e-02,0.000000000000000000e+00
3.569011688232421875e-01,-2.133855590820312500e+02,2.360751190185546875e+02,2.360751190185546875e+02,-8.617649227380752563e-02,1.101644396781921387e+00,2.454514205455780029e-01,6.664178371429443359e+00,1.392525285482406616e-01,7.561508482467615977e-06,-3.431977927684783936e-01,-5.868524312973022461e-01,-1.952947350218892097e-04,3.133309483528137207e-01,-1.754886806011199951e-01,-4.853288173675537109e+00,1.000000000000000000e+00,-2.195290848612785339e-02,0.000000000000000000e+00
4.765405654907226562e-01,-2.128821258544921875e+02,2.360828704833984375e+02,2.360828704833984375e+02,-4.824162274599075317e-02,8.402159810066223145e-01,2.214458435773849487e-01,7.034546852111816406e+00,1.142595633864402771e-01,-3.604362746045808308e-06,3.095706701278686523e+00,-2.089024782180786133e-01,-9.332938498118892312e-05,3.404286801815032959e-01,-6.915335059165954590e-01,-3.211136817932128906e+00,1.000000000000000000e+00,-1.217872742563486099e-02,0.000000000000000000e+00
4.765405654907226562e-01,-2.128821258544921875e+02,2.360828704833984375e+02,2.360828704833984375e+02,-4.824162274599075317e-02,8.402159810066223145e-01,2.214458435773849487e-01,7.034546852111816406e+00,1.142595633864402771e-01,-3.604362746045808308e-06,3.095706701278686523e+00,-2.089024782180786133e-01,-9.332938498118892312e-05,3.404286801815032959e-01,-6.915335059165954590e-01,-3.211136817932128906e+00,1.000000000000000000e+00,-1.217872742563486099e-02,0.000000000000000000e+00
4.765405654907226562e-01,-2.128821258544921875e+02,2.360828704833984375e+02,2.360828704833984375e+02,-4.824162274599075317e-02,8.402159810066223145e-01,2.214458435773849487e-01,7.034546852111816406e+00,1.142595633864402771e-01,-3.604362746045808308e-06,3.095706701278686523e+00,-2.089024782180786133e-01,-9.332938498118892312e-05,3.404286801815032959e-01,-6.915335059165954590e-01,-3.211136817932128906e+00,1.000000000000000000e+00,-1.217872742563486099e-02,0.000000000000000000e+00
4.765405654907226562e-01,-2.128821258544921875e+02,2.360828704833984375e+02,2.360828704833984375e+02,-4.824162274599075317e-02,8.402159810066223145e-01,2.214458435773849487e-01,7.034546852111816406e+00,1.142595633864402771e-01,-3.604362746045808308e-06,3.095706701278686523e+00,-2.089024782180786133e-01,-9.332938498118892312e-05,3.404286801815032959e-01,-6.915335059165954590e-01,-3.211136817932128906e+00,1.000000000000000000e+00,-1.217872742563486099e-02,0.000000000000000000e+00
4.765405654907226562e-01,-2.128821258544921875e+02,2.360828704833984375e+02,2.360828704833984375e+02,-4.824162274599075317e-02,8.402159810066223145e-01,2.214458435773849487e-01,7.034546852111816406e+00,1.142595633864402771e-01,-3.604362746045808308e-06,3.095706701278686523e+00,-2.089024782180786133e-01,-9.332938498118892312e-05,3.404286801815032959e-01,-6.915335059165954590e-01,-3.211136817932128906e+00,1.000000000000000000e+00,-1.217872742563486099e-02,0.000000000000000000e+00
4.765405654907226562e-01,-2.128821258544921875e+02,2.360828704833984375e+02,2.360828704833984375e+02,-4.824162274599075317e-02,8.402159810066223145e-01,2.214458435773849487e-01,7.034546852111816406e+00,1.142595633864402771e-01,-3.604362746045808308e-06,3.095706701278686523e+00,-2.089024782180786133e-01,-9.332938498118892312e-05,3.404286801815032959e-01,-6.915335059165954590e-01,-3.211136817932128906e+00,1.000000000000000000e+00,-1.217872742563486099e-02,0.000000000000000000e+00
4.765405654907226562e-01,-2.128821258544921875e+02,2.360828704833984375e+02,2.360828704833984375e+02,-4.824162274599075317e-02,8.402159810066223145e-01,2.214458435773849487e-01,7.034546852111816406e+00,1.142595633864402771e-01,-3.604362746045808308e-06,3.095706701278686523e+00,-2.089024782180786133e-01,-9.332938498118892312e-05,3.404286801815032959e-01,-6.915335059165954590e-01,-3.211136817932128906e+00,1.000000000000000000e+00,-1.217872742563486099e-02,0.000000000000000000e+00
6.200885772705078125e-01,-2.121704711914062500e+02,2.360923156738281250e+02,2.360923156738281250e+02,-2.126920782029628754e-02,6.941754221916198730e-01,1.840283870697021484e-01,7.337756156921386719e+00,9.404588490724563599e-02,-1.281524600926786661e-05,2.112250089645385742e+00,-1.408147662878036499e-01,-6.416586984414607286e-05,3.999813199043273926e-01,-6.410476565361022949e-01,-1.009487390518188477e+00,1.000000000000000000e+00,-2.824729774147272110e-03,0.000000000000000000e+00
6.200885772705078125e-01,-2.121704711914062500e+02,2.360923156738281250e+02,2.360923156738281250e+02,-2.126920782029628754e-02,6.941754221916198730e-01,1.840283870697021484e-01,7.337756156921386719e+00,9.404588490724563599e-02,-1.281524600926786661e-05,2.112250089645385742e+00,-1.408147662878036499e-01,-6.416586984414607286e-05,3.999813199043273926e-01,-6.410476565361022949e-01,-1.009487390518188477e+00,1.000000000000000000e+00,-2.824729774147272110e-03,0.000000000000000000e+00
6.200885772705078125e-01,-2.121704711914062500e+02,2.360923156738281250e+02,2.360923156738281250e+02,-2.126920782029628754e-02,6.941754221916198730e-01,1.840283870697021484e-01,7.337756156921386719e+00,9.404588490724563599e-02,-1.281524600926786661e-05,2.112250089645385742e+00,-1.408147662878036499e-01,-6.416586984414607286e-05,3.999813199043273926e-01,-6.410476565361022949e-01,-1.009487390518188477e+00,1.000000000000000000e+00,-2.824729774147272110e-03,0.000000000000000000e+00
6.200885772705078125e-01,-2.121704711914062500e+02,2.360923156738281250e+02,2.360923156738281250e+02,-2.126920782029628754e-02,6.941754221916198730e-01,1.840283870697021484e-01,7.337756156921386719e+00,9.404588490724563599e-02,-1.281524600926786661e-05,2.112250089645385742e+00,-1.408147662878036499e-01,-6.416586984414607286e-05,3.999813199043273926e-01,-6.410476565361022949e-01,-1.009487390518188477e+00,1.000000000000000000e+00,-2.824729774147272110e-03,0.000000000000000000e+00
6.200885772705078125e-01,-2.121704711914062500e+02,2.360923156738281250e+02,2.360923156738281250e+02,-2.126920782029628754e-02,6.941754221916198730e-01,1.840283870697021484e-01,7.337756156921386719e+00,9.404588490724563599e-02,-1.281524600926786661e-05,2.112250089645385742e+00,-1.408147662878036499e-01,-6.416586984414607286e-05,3.999813199043273926e-01,-6.410476565361022949e-01,-1.009487390518188477e+00,1.000000000000000000e+00,-2.824729774147272110e-03,0.000000000000000000e+00
6.200885772705078125e-01,-2.121704711914062500e+02,2.360923156738281250e+02,2.360923156738281250e+02,-2.126920782029628754e-02,6.941754221916198730e-01,1.840283870697021484e-01,7.337756156921386719e+00,9.404588490724563599e-02,-1.281524600926786661e-05,2.112250089645385742e+00,-1.408147662878036499e-01,-6.416586984414607286e-05,3.999813199043273926e-01,-6.410476565361022949e-01,-1.009487390518188477e+00,1.000000000000000000e+00,-2.824729774147272110e-03,0.000000000000000000e+00
7.946169376373291016e-01,-2.114322052001953125e+02,2.361019134521484375e+02,2.361019134521484375e+02,-1.077120751142501831e-02,7.204847931861877441e-01,1.407116204500198364e-01,7.601645469665527344e+00,9.342470765113830566e-02,-1.546601924928836524e-05,1.512013912200927734e+00,-3.559176577255129814e-03,-1.518820863566361368e-05,4.588206112384796143e-01,-4.961148798465728760e-01,6.341142058372497559e-01,1.000000000000000000e+00,3.374113701283931732e-03,0.000000000000000000e+00
7.946169376373291016e-01,-2.114322052001953125e+02,2.361019134521484375e+02,2.361019134521484375e+02,-1.077120751142501831e-02,7.204847931861877441e-01,1.407116204500198364e-01,7.601645469665527344e+00,9.342470765113830566e-02,-1.546601924928836524e-05,1.512013912200927734e+00,-3.559176577255129814e-03,-1.518820863566361368e-05,4.588206112384796143e-01,-4.961148798465728760e-01,6.341142058372497559e-01,1.000000000000000000e+00,3.374113701283931732e-03,0.000000000000000000e+00
7.946169376373291016e-01,-2.114322052001953125e+02,2.361019134521484375e+02,2.361019134521484375e+02,-1.077120751142501831e-02,7.204847931861877441e-01,1.407116204500198364e-01,7.601645469665527344e+00,9.342470765113830566e-02,-1.546601924928836524e-05,1.512013912200927734e+00,-3.559176577255129814e-03,-1.518820863566361368e-05,4.588206112384796143e-01,-4.961148798465728760e-01,6.341142058372497559e-01,1.000000000000000000e+00,3.374113701283931732e-03,0.000000000000000000e+00
8.783230781555175781e-01,-2.106664276123046875e+02,2.361117095947265625e+02,2.361117095947265625e+02,-7.021434139460325241e-03,7.373194098472595215e-01,9.625232219696044922e-02,7.865730285644531250e+00,9.772519022226333618e-02,-1.317758233199128881e-05,3.154903888702392578e+00,5.137595161795616150e-02,2.733893779804930091e-05,4.364192485809326172e-01,-4.009568393230438232e-01,6.272578984498977661e-02,1.000000000000000000e+00,0.000000000000000000e+00,0.000000000000000000e+00
8.783230781555175781e-01,-2.106664276123046875e+02,2.361117095947265625e+02,2.361117095947265625e+02,-7.021434139460325241e-03,7.373194098472595215e-01,9.625232219696044922e-02,7.865730285644531250e+00,9.772519022226333618e-02,-1.317758233199128881e-05,3.154903888702392578e+00,5.137595161795616150e-02,2.733893779804930091e-05,4.364192485809326172e-01,-4.009568393230438232e-01,6.272578984498977661e-02,1.000000000000000000e+00,0.000000000000000000e+00,0.000000000000000000e+00
8.783230781555175781e-01,-2.106664276123046875e+02,2.361117095947265625e+02,2.361117095947265625e+02,-7.021434139460325241e-03,7.373194098472595215e-01,9.625232219696044922e-02,7.865730285644531250e+00,9.772519022226333618e-02,-1.317758233199128881e-05,3.154903888702392578e+00,5.137595161795616150e-02,2.733893779804930091e-05,4.364192485809326172e-01,-4.009568393230438232e-01,6.272578984498977661e-02,1.000000000000000000e+00,0.000000000000000000e+00,0.000000000000000000e+00
9.483780860900878906e-01,-2.100050659179687500e+02,2.361202087402343750e+02,2.361202087402343750e+02,-8.640188723802566528e-03,7.399741411209106445e-01,6.358176469802856445e-02,8.026061058044433594e+00,1.009994596242904663e-01,-9.325633072876371443e-06,2.288641214370727539e+00,4.673855006694793701e-02,5.498463724507018924e-05,3.637295961380004883e-01,-9.520037472248077393e-02,1.896978169679641724e-02,1.000000000000000000e+00,0.000000000000000000e+00,0.000000000000000000e+00
9.483780860900878906e-01,-2.100050659179687500e+02,2.361202087402343750e+02,2.361202087402343750e+02,-8.640188723802566528e-03,7.399741411209106445e-01,6.358176469802856445e-02,8.026061058044433594e+00,1.009994596242904663e-01,-9.325633072876371443e-06,2.288641214370727539e+00,4.673855006694793701e-02,5.498463724507018924e-05,3.637295961380004883e-01,-9.520037472248077393e-02,1.896978169679641724e-02,1.000000000000000000e+00,0.000000000000000000e+00,0.000000000000000000e+00
9.483780860900878906e-01,-2.100050659179687500e+02,2.361202087402343750e+02,2.361202087402343750e+02,-8.640188723802566528e-03,7.399741411209106445e-01,6.358176469802856445e-02,8.026061058044433594e+00,1.009994596242904663e-01,-9.325633072876371443e-06,2.288641214370727539e+00,4.673855006694793701e-02,5.498463724507018924e-05,3.637295961380004883e-01,-9.520037472248077393e-02,1.896978169679641724e-02,1.000000000000000000e+00,0.000000000000000000e+00,0.000000000000000000e+00
9.483780860900878906e-01,-2.100050659179687500e+02,2.361202087402343750e+02,2.361202087402343750e+02,-8.640188723802566528e-03,7.399741411209106445e-01,6.358176469802856445e-02,8.026061058044433594e+00,1.009994596242904663e-01,-9.325633072876371443e-06,2.288641214370727539e+00,4.673855006694793701e-02,5.498463724507018924e-05,3.637295961380004883e-01,-9.520037472248077393e-02,1.896978169679641724e-02,1.000000000000000000e+00,0.000000000000000000e+00,0.000000000000000000e+00
9.483780860900878906e-01,-2.094379425048828125e+02,2.361383972167968750e+02,2.361383972167968750e+02,-1.238996256142854691e-02,1.852002859115600586e+00,1.600726507604122162e-02,8.151063919067382812e+00,2.313942164182662964e-01,-9.325627615908160806e-06,1.586350679397583008e+00,1.654776573181152344e+00,6.925173628991032615e-11,1.006888389587402344e+00,1.485440731048583984e-01,2.915244102478027344e+01,1.000000000000000000e+00,3.638515770435333252e-01,0.000000000000000000e+00
1.027177095413208008e+00,-2.094379425048828125e+02,2.361383972167968750e+02,2.361383972167968750e+02,-1.238996256142854691e-02,1.852002859115600586e+00,1.600726507604122162e-02,8.151063919067382812e+00,2.313942164182662964e-01,-9.325627615908160806e-06,1.586350679397583008e+00,1.654776573181152344e+00,6.925173628991032615e-11,1.006888389587402344e+00,1.485440731048583984e-01,2.915244102478027344e+01,1.000000000000000000e+00,3.638515770435333252e-01,0.000000000000000000e+00
1.027177095413208008e+00,-2.094379425048828125e+02,2.361383972167968750e+02,2.361383972167968750e+02,-1.238996256142854691e-02,1.852002859115600586e+00,1.600726507604122162e-02,8.151063919067382812e+00,2.313942164182662964e-01,-9.325627615908160806e-06,1.586350679397583008e+00,1.654776573181152344e+00,6.925173628991032615e-11,1.006888389587402344e+00,1.485440731048583984e-01,2.915244102478027344e+01,1.000000000000000000e+00,3.638515770435333252e-01,0.000000000000000000e+00
1.095043420791625977e+00,-2.087869110107421875e+02,2.361896362304687500e+02,2.361896362304687500e+02,-1.391992438584566116e-02,4.958033084869384766e+00,-1.203918531537055969e-01,8.361107826232910156e+00,5.615087151527404785e-01,-1.094645540433702990e-05,3.094964981079101562e+00,4.864186763763427734e+00,-2.388265056652016938e-05,2.247344255447387695e+00,9.905629605054855347e-02,4.337794113159179688e+01,1.000000000000000000e+00,1.725292503833770752e-01,0.000000000000000000e+00
1.095043420791625977e+00,-2.087869110107421875e+02,2.361896362304687500e+02,2.361896362304687500e+02,-1.391992438584566116e-02,4.958033084869384766e+00,-1.203918531537055969e-01,8.361107826232910156e+00,5.615087151527404785e-01,-1.094645540433702990e-05,3.094964981079101562e+00,4.864186763763427734e+00,-2.388265056652016938e-05,2.247344255447387695e+00,9.905629605054855347e-02,4.337794113159179688e+01,1.000000000000000000e+00,1.725292503833770752e-01,0.000000000000000000e+00
1.095043420791625977e+00,-2.087869110107421875e+02,2.361896362304687500e+02,2.361896362304687500e+02,-1.391992438584566116e-02,4.958033084869384766e+00,-1.203918531537055969e-01,8.361107826232910156e+00,5.615087151527404785e-01,-1.094645540433702990e-05,3.094964981079101562e+00,4.864186763763427734e+00,-2.388265056652016938e-05,2.247344255447387695e+00,9.905629605054855347e-02,4.337794113159179688e+01,1.000000000000000000e+00,1.725292503833770752e-01,0.000000000000000000e+00
1.095043420791625977e+00,-2.087869110107421875e+02,2.361896362304687500e+02,2.361896362304687500e+02,-1.391992438584566116e-02,4.958033084869384766e+00,-1.203918531537055969e-01,8.361107826232910156e+00,5.615087151527404785e-01,-1.094645540433702990e-05,3.094964981079101562e+00,4.864186763763427734e+00,-2.388265056652016938e-05,2.247344255447387695e+00,9.905629605054855347e-02,4.337794113159179688e+01,1.000000000000000000e+00,1.725292503833770752e-01,0.000000000000000000e+00
1.168572425842285156e+00,-2.082173461914062500e+02,2.362532348632812500e+02,2.362532348632812500e+02,-1.425460446625947952e-02,7.115902900695800781e+00,-2.926025092601776123e-01,8.461259841918945312e+00,8.658949732780456543e-01,-4.067822374054230750e-05,1.362074851989746094e+00,4.139676094055175781e+00,-4.043542721774429083e-04,2.710786342620849609e+00,3.404572308063507080e-01,2.718425559997558594e+01,1.000000000000000000e+00,7.550837099552154541e-02,0.000000000000000000e+00
1.168572425842285156e+00,-2.082173461914062500e+02,2.362532348632812500e+02,2.362532348632812500e+02,-1.425460446625947952e-02,7.115902900695800781e+00,-2.926025092601776123e-01,8.461259841918945312e+00,8.658949732780456543e-01,-4.067822374054230750e-05,1.362074851989746094e+00,4.139676094055175781e+00,-4.043542721774429083e-04,2.710786342620849609e+00,3.404572308063507080e-01,2.718425559997558594e+01,1.000000000000000000e+00,7.550837099552154541e-02,0.000000000000000000e+00
1.168572425842285156e+00,-2.082173461914062500e+02,2.362532348632812500e+02,2.362532348632812500e+02,-1.425460446625947952e-02,7.115902900695800781e+00,-2.926025092601776123e-01,8.461259841918945312e+00,8.658949732780456543e-01,-4.067822374054230750e-05,1.362074851989746094e+00,4.139676094055175781e+00,-4.043542721774429083e-04,2.710786342620849609e+00,3.404572308063507080e-01,2.718425559997558594e+01,1.000000000000000000e+00,7.550837099552154541e-02,0.000000000000000000e+00
1.168572425842285156e+00,-2.082173461914062500e+02,2.362532348632812500e+02,2.362532348632812500e+02,-1.425460446625947952e-02,7.115902900695800781e+00,-2.926025092601776123e-01,8.461259841918945312e+00,8.658949732780456543e-01,-4.067822374054230750e-05,1.362074851989746094e+00,4.139676094055175781e+00,-4.043542721774429083e-04,2.710786342620849609e+00,3.404572308063507080e-01,2.718425559997558594e+01,1.000000000000000000e+00,7.550837099552154541e-02,0.000000000000000000e+00
1.168572425842285156e+00,-2.075895385742187500e+02,2.363331451416015625e+02,2.363331451416015625e+02,-1.559332106262445450e-02,7.955471992492675781e+00,-4.755249023437500000e-01,8.606063842773437500e+00,1.090149879455566406e+00,-9.150112600764259696e-05,1.929473638534545898e+00,2.988135099411010742e+00,-6.772012566216289997e-04,2.209499597549438477e+00,3.421893715858459473e-01,5.805924415588378906e+00,1.000000000000000000e+00,-2.069822978228330612e-03,0.000000000000000000e+00
1.243620872497558594e+00,-2.075895385742187500e+02,2.363331451416015625e+02,2.363331451416015625e+02,-1.559332106262445450e-02,7.955471992492675781e+00,-4.755249023437500000e-01,8.606063842773437500e+00,1.090149879455566406e+00,-9.150112600764259696e-05,1.929473638534545898e+00,2.988135099411010742e+00,-6.772012566216289997e-04,2.209499597549438477e+00,3.421893715858459473e-01,5.805924415588378906e+00,1.000000000000000000e+00,-2.069822978228330612e-03,0.000000000000000000e+00
1.243620872497558594e+00,-2.075895385742187500e+02,2.363331451416015625e+02,2.363331451416015625e+02,-1.559332106262445450e-02,7.955471992492675781e+00,-4.755249023437500000e-01,8.606063842773437500e+00,1.090149879455566406e+00,-9.150112600764259696e-05,1.929473638534545898e+00,2.988135099411010742e+00,-6.772012566216289997e-04,2.209499597549438477e+00,3.421893715858459473e-01,5.805924415588378906e+00,1.000000000000000000e+00,-2.069822978228330612e-03,0.000000000000000000e+00
1.243620872497558594e+00,-2.075895385742187500e+02,2.363331451416015625e+02,2.363331451416015625e+02,-1.559332106262445450e-02,7.955471992492675781e+00,-4.755249023437500000e-01,8.606063842773437500e+00,1.090149879455566406e+00,-9.150112600764259696e-05,1.929473638534545898e+00,2.988135099411010742e+00,-6.772012566216289997e-04,2.209499597549438477e+00,3.421893715858459473e-01,5.805924415588378906e+00,1.000000000000000000e+00,-2.069822978228330612e-03,0.000000000000000000e+00
1.312042951583862305e+00,-2.069371643066406250e+02,2.364178314208984375e+02,2.364178314208984375e+02,-2.260792441666126251e-02,7.678010940551757812e+00,-5.836791992187500000e-01,8.749953269958496094e+00,1.159258723258972168e+00,-1.004831065074540675e-04,2.102967739105224609e+00,1.010037183761596680e+00,-1.312731328653171659e-04,8.464760780334472656e-01,2.404827326536178589e-01,-7.230379104614257812e+00,1.000000000000000000e+00,-3.882389143109321594e-02,0.000000000000000000e+00
1.312042951583862305e+00,-2.069371643066406250e+02,2.364178314208984375e+02,2.364178314208984375e+02,-2.260792441666126251e-02,7.678010940551757812e+00,-5.836791992187500000e-01,8.749953269958496094e+00,1.159258723258972168e+00,-1.004831065074540675e-04,2.102967739105224609e+00,1.010037183761596680e+00,-1.312731328653171659e-04,8.464760780334472656e-01,2.404827326536178589e-01,-7.230379104614257812e+00,1.000000000000000000e+00,-3.882389143109321594e-02,0.000000000000000000e+00
1.383129358291625977e+00,-2.063311157226562500e+02,2.364832153320312500e+02,2.364832153320312500e+02,-3.219750896096229553e-02,6.072717666625976562e+00,-5.654602050781250000e-01,8.900850296020507812e+00,1.019301295280456543e+00,-3.620606003096327186e-05,2.122726917266845703e+00,-1.968835234642028809e+00,9.042100864462554455e-04,-1.084532618522644043e+00,2.389250695705413818e-02,-3.450141525268554688e+01,1.000000000000000000e+00,-1.691258102655410767e-01,0.000000000000000000e+00
1.383129358291625977e+00,-2.063311157226562500e+02,2.364832153320312500e+02,2.364832153320312500e+02,-3.219750896096229553e-02,6.072717666625976562e+00,-5.654602050781250000e-01,8.900850296020507812e+00,1.019301295280456543e+00,-3.620606003096327186e-05,2.122726917266845703e+00,-1.968835234642028809e+00,9.042100864462554455e-04,-1.084532618522644043e+00,2.389250695705413818e-02,-3.450141525268554688e+01,1.000000000000000000e+00,-1.691258102655410767e-01,0.000000000000000000e+00
1.383129358291625977e+00,-2.063311157226562500e+02,2.364832153320312500e+02,2.364832153320312500e+02,-3.219750896096229553e-02,6.072717666625976562e+00,-5.654602050781250000e-01,8.900850296020507812e+00,1.019301295280456543e+00,-3.620606003096327186e-05,2.122726917266845703e+00,-1.968835234642028809e+00,9.042100864462554455e-04,-1.084532618522644043e+00,2.389250695705413818e-02,-3.450141525268554688e+01,1.000000000000000000e+00,-1.691258102655410767e-01,0.000000000000000000e+00
1.450951814651489258e+00,-2.056901550292968750e+02,2.365282745361328125e+02,2.365282745361328125e+02,-3.918479382991790771e-02,3.409098148345947266e+00,-4.097289741039276123e-01,9.059221267700195312e+00,7.366274595260620117e-01,7.511024887207895517e-05,2.335081577301025391e+00,-4.167850017547607422e+00,1.641289796680212021e-03,-2.915860891342163086e+00,-1.253275573253631592e-01,-3.920846939086914062e+01,1.000000000000000000e+00,-1.383053511381149292e-01,0.000000000000000000e+00
1.450951814651489258e+00,-2.056901550292968750e+02,2.365282745361328125e+02,2.365282745361328125e+02,-3.918479382991790771e-02,3.409098148345947266e+00,-4.097289741039276123e-01,9.059221267700195312e+00,7.366274595260620117e-01,7.511024887207895517e-05,2.335081577301025391e+00,-4.167850017547607422e+00,1.641289796680212021e-03,-2.915860891342163086e+00,-1.253275573253631592e-01,-3.920846939086914062e+01,1.000000000000000000e+00,-1.383053511381149292e-01,0.000000000000000000e+00
1.450951814651489258e+00,-2.056901550292968750e+02,2.365282745361328125e+02,2.365282745361328125e+02,-3.918479382991790771e-02,3.409098148345947266e+00,-4.097289741039276123e-01,9.059221267700195312e+00,7.366274595260620117e-01,7.511024887207895517e-05,2.335081577301025391e+00,-4.167850017547607422e+00,1.641289796680212021e-03,-2.915860891342163086e+00,-1.253275573253631592e-01,-3.920846939086914062e+01,1.000000000000000000e+00,-1.383053511381149292e-01,0.000000000000000000e+00
1.527701377868652344e+00,-2.050693664550781250e+02,2.365548400878906250e+02,2.365548400878906250e+02,-4.031860455870628357e-02,1.531200647354125977e+00,-1.758422553539276123e-01,9.199374198913574219e+00,4.564860165119171143e-01,1.232075446750968695e-04,1.826107263565063477e+00,-3.650072097778320312e+00,6.266784621402621269e-04,-3.746697902679443359e+00,-1.070927008986473083e-01,-2.347429084777832031e+01,1.000000000000000000e+00,-5.598121136426925659e-02,0.000000000000000000e+00
1.527701377868652344e+00,-2.050693664550781250e+02,2.365548400878906250e+02,2.365548400878906250e+02,-4.031860455870628357e-02,1.531200647354125977e+00,-1.758422553539276123e-01,9.199374198913574219e+00,4.564860165119171143e-01,1.232075446750968695e-04,1.826107263565063477e+00,-3.650072097778320312e+00,6.266784621402621269e-04,-3.746697902679443359e+00,-1.070927008986473083e-01,-2.347429084777832031e+01,1.000000000000000000e+00,-5.598121136426925659e-02,0.000000000000000000e+00
1.527701377868652344e+00,-2.050693664550781250e+02,2.365548400878906250e+02,2.365548400878906250e+02,-4.031860455870628357e-02,1.531200647354125977e+00,-1.758422553539276123e-01,9.199374198913574219e+00,4.564860165119171143e-01,1.232075446750968695e-04,1.826107263565063477e+00,-3.650072097778320312e+00,6.266784621402621269e-04,-3.746697902679443359e+00,-1.070927008986473083e-01,-2.347429084777832031e+01,1.000000000000000000e+00,-5.598121136426925659e-02,0.000000000000000000e+00
1.600134611129760742e+00,-2.043566131591796875e+02,2.365693054199218750e+02,2.365693054199218750e+02,-4.156852886080741882e-02,3.620509803295135498e-01,1.129996851086616516e-01,9.339957237243652344e+00,2.052802294492721558e-01,7.167669537011533976e-05,1.940863728523254395e+00,-3.468101501464843750e+00,-7.114254985935986042e-04,-3.621857881546020508e+00,3.935754764825105667e-03,-1.217028617858886719e+01,1.000000000000000000e+00,-2.531085722148418427e-02,0.000000000000000000e+00
1.600134611129760742e+00,-2.043566131591796875e+02,2.365693054199218750e+02,2.365693054199218750e+02,-4.156852886080741882e-02,3.620509803295135498e-01,1.129996851086616516e-01,9.339957237243652344e+00,2.052802294492721558e-01,7.167669537011533976e-05,1.940863728523254395e+00,-3.468101501464843750e+00,-7.114254985935986042e-04,-3.621857881546020508e+00,3.935754764825105667e-03,-1.217028617858886719e+01,1.000000000000000000e+00,-2.531085722148418427e-02,0.000000000000000000e+00
1.600134611129760742e+00,-2.043566131591796875e+02,2.365693054199218750e+02,2.365693054199218750e+02,-4.156852886080741882e-02,3.620509803295135498e-01,1.129996851086616516e-01,9.339957237243652344e+00,2.052802294492721558e-01,7.167669537011533976e-05,1.940863728523254395e+00,-3.468101501464843750e+00,-7.114254985935986042e-04,-3.621857881546020508e+00,3.935754764825105667e-03,-1.217028617858886719e+01,1.000000000000000000e+00,-2.531085722148418427e-02,0.000000000000000000e+00
1.600134611129760742e+00,-2.043566131591796875e+02,2.365693054199218750e+02,2.365693054199218750e+02,-4.156852886080741882e-02,3.620509803295135498e-01,1.129996851086616516e-01,9.339957237243652344e+00,2.052802294492721558e-01,7.167669537011533976e-05,1.940863728523254395e+00,-3.468101501464843750e+00,-7.114254985935986042e-04,-3.621857881546020508e+00,3.935754764825105667e-03,-1.217028617858886719e+01,1.000000000000000000e+00,-2.531085722148418427e-02,0.000000000000000000e+00
1.600134611129760742e+00,-2.043566131591796875e+02,2.365693054199218750e+02,2.365693054199218750e+02,-4.156852886080741882e-02,3.620509803295135498e-01,1.129996851086616516e-01,9.339957237243652344e+00,2.052802294492721558e-01,7.167669537011533976e-05,1.940863728523254395e+00,-3.468101501464843750e+00,-7.114254985935986042e-04,-3.621857881546020508e+00,3.935754764825105667e-03,-1.217028617858886719e+01,1.000000000000000000e+00,-2.531085722148418427e-02,0.000000000000000000e+00
1.600134611129760742e+00,-2.036748352050781250e+02,2.365760498046875000e+02,2.365760498046875000e+02,-4.662969708442687988e-02,1.149733290076255798e-01,3.282254636287689209e-01,9.461048126220703125e+00,9.199489653110504150e-02,-1.954749131982680410e-05,1.049506664276123047e+00,-9.818552136421203613e-01,-7.906490936875343323e-04,-2.509182453155517578e+00,9.076537191867828369e-02,-7.258025556802749634e-02,1.000000000000000000e+00,1.482251379638910294e-02,0.000000000000000000e+00
1.715513467788696289e+00,-2.036748352050781250e+02,2.365760498046875000e+02,2.365760498046875000e+02,-4.662969708442687988e-02,1.149733290076255798e-01,3.282254636287689209e-01,9.461048126220703125e+00,9.199489653110504150e-02,-1.954749131982680410e-05,1.049506664276123047e+00,-9.818552136421203613e-01,-7.906490936875343323e-04,-2.509182453155517578e+00,9.076537191867828369e-02,-7.258025556802749634e-02,1.000000000000000000e+00,1.482251379638910294e-02,0.000000000000000000e+00
1.715513467788696289e+00,-2.036748352050781250e+02,2.365760498046875000e+02,2.365760498046875000e+02,-4.662969708442687988e-02,1.149733290076255798e-01,3.282254636287689209e-01,9.461048126220703125e+00,9.199489653110504150e-02,-1.954749131982680410e-05,1.049506664276123047e+00,-9.818552136421203613e-01,-7.906490936875343323e-04,-2.509182453155517578e+00,9.076537191867828369e-02,-7.258025556802749634e-02,1.000000000000000000e+00,1.482251379638910294e-02,0.000000000000000000e+00
1.715513467788696289e+00,-2.027196197509765625e+02,2.365861053466796875e+02,2.365861053466796875e+02,-5.960022658109664917e-02,6.191605329513549805e-01,4.677146673202514648e-01,9.616919517517089844e+00,9.164369106292724609e-02,-6.096777360653504729e-05,1.597015976905822754e+00,-3.598355920985341072e-03,-4.243809380568563938e-04,-5.802251696586608887e-01,1.340784132480621338e-01,6.934195041656494141e+00,1.000000000000000000e+00,2.717019245028495789e-02,0.000000000000000000e+00
1.813115119934082031e+00,-2.027196197509765625e+02,2.365861053466796875e+02,2.365861053466796875e+02,-5.960022658109664917e-02,6.191605329513549805e-01,4.677146673202514648e-01,9.616919517517089844e+00,9.164369106292724609e-02,-6.096777360653504729e-05,1.597015976905822754e+00,-3.598355920985341072e-03,-4.243809380568563938e-04,-5.802251696586608887e-01,1.340784132480621338e-01,6.934195041656494141e+00,1.000000000000000000e+00,2.717019245028495789e-02,0.000000000000000000e+00
1.813115119934082031e+00,-2.027196197509765625e+02,2.365861053466796875e+02,2.365861053466796875e+02,-5.960022658109664917e-02,6.191605329513549805e-01,4.677146673202514648e-01,9.616919517517089844e+00,9.164369106292724609e-02,-6.096777360653504729e-05,1.597015976905822754e+00,-3.598355920985341072e-03,-4.243809380568563938e-04,-5.802251696586608887e-01,1.340784132480621338e-01,6.934195041656494141e+00,1.000000000000000000e+00,2.717019245028495789e-02,0.000000000000000000e+00
1.813115119934082031e+00,-2.027196197509765625e+02,2.365861053466796875e+02,2.365861053466796875e+02,-5.960022658109664917e-02,6.191605329513549805e-01,4.677146673202514648e-01,9.616919517517089844e+00,9.164369106292724609e-02,-6.096777360653504729e-05,1.597015976905822754e+00,-3.598355920985341072e-03,-4.243809380568563938e-04,-5.802251696586608887e-01,1.340784132480621338e-01,6.934195041656494141e+00,1.000000000000000000e+00,2.717019245028495789e-02,0.000000000000000000e+00
1.813115119934082031e+00,-2.017729034423828125e+02,2.365961456298828125e+02,2.365961456298828125e+02,-7.229071855545043945e-02,6.514449715614318848e-01,4.560037851333618164e-01,9.759094238281250000e+00,1.051180139183998108e-01,-6.245550139283295721e-06,1.712541341781616211e+00,1.623026579618453979e-01,6.591471610590815544e-04,5.076128244400024414e-01,1.283435225486755371e-01,-1.729675531387329102e+00,1.000000000000000000e+00,-1.021241955459117889e-02,0.000000000000000000e+00
1.896134853363037109e+00,-2.017729034423828125e+02,2.365961456298828125e+02,2.365961456298828125e+02,-7.229071855545043945e-02,6.514449715614318848e-01,4.560037851333618164e-01,9.759094238281250000e+00,1.051180139183998108e-01,-6.245550139283295721e-06,1.712541341781616211e+00,1.623026579618453979e-01,6.591471610590815544e-04,5.076128244400024414e-01,1.283435225486755371e-01,-1.729675531387329102e+00,1.000000000000000000e+00,-1.021241955459117889e-02,0.000000000000000000e+00
1.896134853363037109e+00,-2.017729034423828125e+02,2.365961456298828125e+02,2.365961456298828125e+02,-7.229071855545043945e-02,6.514449715614318848e-01,4.560037851333618164e-01,9.759094238281250000e+00,1.051180139183998108e-01,-6.245550139283295721e-06,1.712541341781616211e+00,1.623026579618453979e-01,6.591471610590815544e-04,5.076128244400024414e-01,1.283435225486755371e-01,-1.729675531387329102e+00,1.000000000000000000e+00,-1.021241955459117889e-02,0.000000000000000000e+00
1.896134853363037109e+00,-2.017729034423828125e+02,2.365961456298828125e+02,2.365961456298828125e+02,-7.229071855545043945e-02,6.514449715614318848e-01,4.560037851333618164e-01,9.759094238281250000e+00,1.051180139183998108e-01,-6.245550139283295721e-06,1.712541341781616211e+00,1.623026579618453979e-01,6.591471610590815544e-04,5.076128244400024414e-01,1.283435225486755371e-01,-1.729675531387329102e+00,1.000000000000000000e+00,-1.021241955459117889e-02,0.000000000000000000e+00
1.896134853363037109e+00,-2.017729034423828125e+02,2.365961456298828125e+02,2.365961456298828125e+02,-7.229071855545043945e-02,6.514449715614318848e-01,4.560037851333618164e-01,9.759094238281250000e+00,1.051180139183998108e-01,-6.245550139283295721e-06,1.712541341781616211e+00,1.623026579618453979e-01,6.591471610590815544e-04,5.076128244400024414e-01,1.283435225486755371e-01,-1.729675531387329102e+00,1.000000000000000000e+00,-1.021241955459117889e-02,0.000000000000000000e+00
1.896134853363037109e+00,-2.017729034423828125e+02,2.365961456298828125e+02,2.365961456298828125e+02,-7.229071855545043945e-02,6.514449715614318848e-01,4.560037851333618164e-01,9.759094238281250000e+00,1.051180139183998108e-01,-6.245550139283295721e-06,1.712541341781616211e+00,1.623026579618453979e-01,6.591471610590815544e-04,5.076128244400024414e-01,1.283435225486755371e-01,-1.729675531387329102e+00,1.000000000000000000e+00,-1.021241955459117889e-02,0.000000000000000000e+00
1.896134853363037109e+00,-2.017729034423828125e+02,2.365961456298828125e+02,2.365961456298828125e+02,-7.229071855545043945e-02,6.514449715614318848e-01,4.560037851333618164e-01,9.759094238281250000e+00,1.051180139183998108e-01,-6.245550139283295721e-06,1.712541341781616211e+00,1.623026579618453979e-01,6.591471610590815544e-04,5.076128244400024414e-01,1.283435225486755371e-01,-1.729675531387329102e+00,1.000000000000000000e+00,-1.021241955459117889e-02,0.000000000000000000e+00
1.896134853363037109e+00,-2.017729034423828125e+02,2.365961456298828125e+02,2.365961456298828125e+02,-7.229071855545043945e-02,6.514449715614318848e-01,4.560037851333618164e-01,9.759094238281250000e+00,1.051180139183998108e-01,-6.245550139283295721e-06,1.712541341781616211e+00,1.623026579618453979e-01,6.591471610590815544e-04,5.076128244400024414e-01,1.283435225486755371e-01,-1.729675531387329102e+00,1.000000000000000000e+00,-1.021241955459117889e-02,0.000000000000000000e+00
2.195794820785522461e+00,-1.990802307128906250e+02,2.366021423339843750e+02,2.366021423339843750e+02,-9.786977618932723999e-02,-2.152709662914276123e-01,2.737948000431060791e-01,1.010740947723388672e+01,-2.688598632812500000e-02,4.186972000752575696e-05,1.990341067314147949e+00,-6.576805114746093750e-01,-8.353043813258409500e-05,6.407203078269958496e-01,6.942424178123474121e-02,-2.514138817787170410e-01,1.000000000000000000e+00,2.648098859935998917e-03,0.000000000000000000e+00
2.195794820785522461e+00,-1.990802307128906250e+02,2.366021423339843750e+02,2.366021423339843750e+02,-9.786977618932723999e-02,-2.152709662914276123e-01,2.737948000431060791e-01,1.010740947723388672e+01,-2.688598632812500000e-02,4.186972000752575696e-05,1.990341067314147949e+00,-6.576805114746093750e-01,-8.353043813258409500e-05,6.407203078269958496e-01,6.942424178123474121e-02,-2.514138817787170410e-01,1.000000000000000000e+00,2.648098859935998917e-03,0.000000000000000000e+00
2.195794820785522461e+00,-1.990802307128906250e+02,2.366021423339843750e+02,2.366021423339843750e+02,-9.786977618932723999e-02,-2.152709662914276123e-01,2.737948000431060791e-01,1.010740947723388672e+01,-2.688598632812500000e-02,4.186972000752575696e-05,1.990341067314147949e+00,-6.576805114746093750e-01,-8.353043813258409500e-05,6.407203078269958496e-01,6.942424178123474121e-02,-2.514138817787170410e-01,1.000000000000000000e+00,2.648098859935998917e-03,0.000000000000000000e+00
2.195794820785522461e+00,-1.990802307128906250e+02,2.366021423339843750e+02,2.366021423339843750e+02,-9.786977618932723999e-02,-2.152709662914276123e-01,2.737948000431060791e-01,1.010740947723388672e+01,-2.688598632812500000e-02,4.186972000752575696e-05,1.990341067314147949e+00,-6.576805114746093750e-01,-8.353043813258409500e-05,6.407203078269958496e-01,6.942424178123474121e-02,-2.514138817787170410e-01,1.000000000000000000e+00,2.648098859935998917e-03,0.000000000000000000e+00
2.195794820785522461e+00,-1.990802307128906250e+02,2.366021423339843750e+02,2.366021423339843750e+02,-9.786977618932723999e-02,-2.152709662914276123e-01,2.737948000431060791e-01,1.010740947723388672e+01,-2.688598632812500000e-02,4.186972000752575696e-05,1.990341067314147949e+00,-6.576805114746093750e-01,-8.353043813258409500e-05,6.407203078269958496e-01,6.942424178123474121e-02,-2.514138817787170410e-01,1.000000000000000000e+00,2.648098859935998917e-03,0.000000000000000000e+00
2.195794820785522461e+00,-1.990802307128906250e+02,2.366021423339843750e+02,2.366021423339843750e+02,-9.786977618932723999e-02,-2.152709662914276123e-01,2.737948000431060791e-01,1.010740947723388672e+01,-2.688598632812500000e-02,4.186972000752575696e-05,1.990341067314147949e+00,-6.576805114746093750e-01,-8.353043813258409500e-05,6.407203078269958496e-01,6.942424178123474121e-02,-2.514138817787170410e-01,1.000000000000000000e+00,2.648098859935998917e-03,0.000000000000000000e+00
2.195794820785522461e+00,-1.990802307128906250e+02,2.366021423339843750e+02,2.366021423339843750e+02,-9.786977618932723999e-02,-2.152709662914276123e-01,2.737948000431060791e-01,1.010740947723388672e+01,-2.688598632812500000e-02,4.186972000752575696e-05,1.990341067314147949e+00,-6.576805114746093750e-01,-8.353043813258409500e-05,6.407203078269958496e-01,6.942424178123474121e-02,-2.514138817787170410e-01,1.000000000000000000e+00,2.648098859935998917e-03,0.000000000000000000e+00
2.195794820785522461e+00,-1.990802307128906250e+02,2.366021423339843750e+02,2.366021423339843750e+02,-9.786977618932723999e-02,-2.152709662914276123e-01,2.737948000431060791e-01,1.010740947723388672e+01,-2.688598632812500000e-02,4.186972000752575696e-05,1.990341067314147949e+00,-6.576805114746093750e-01,-8.353043813258409500e-05,6.407203078269958496e-01,6.942424178123474121e-02,-2.514138817787170410e-01,1.000000000000000000e+00,2.648098859935998917e-03,0.000000000000000000e+00
2.195794820785522461e+00,-1.990802307128906250e+02,2.366021423339843750e+02,2.366021423339843750e+02,-9.786977618932723999e-02,-2.152709662914276123e-01,2.737948000431060791e-01,1.010740947723388672e+01,-2.688598632812500000e-02,4.186972000752575696e-05,1.990341067314147949e+00,-6.576805114746093750e-01,-8.353043813258409500e-05,6.407203078269958496e-01,6.942424178123474121e-02,-2.514138817787170410e-01,1.000000000000000000e+00,2.648098859935998917e-03,0.000000000000000000e+00
2.195794820785522461e+00,-1.990802307128906250e+02,2.366021423339843750e+02,2.366021423339843750e+02,-9.786977618932723999e-02,-2.152709662914276123e-01,2.737948000431060791e-01,1.010740947723388672e+01,-2.688598632812500000e-02,4.186972000752575696e-05,1.990341067314147949e+00,-6.576805114746093750e-01,-8.353043813258409500e-05,6.407203078269958496e-01,6.942424178123474121e-02,-2.514138817787170410e-01,1.000000000000000000e+00,2.648098859935998917e-03,0.000000000000000000e+00
2.374083757400512695e+00,-1.985418243408203125e+02,2.366009674072265625e+02,2.366009674072265625e+02,-1.014419645071029663e-01,-1.759948432445526123e-01,2.385370135307312012e-01,1.016838073730468750e+01,-3.157384693622589111e-02,3.951502003474161029e-05,3.419800400733947754e-01,-2.629361487925052643e-02,-1.320721275988034904e-05,6.828073859214782715e-01,6.268212944269180298e-02,1.143576860427856445e+00,1.000000000000000000e+00,6.434125825762748718e-03,0.000000000000000000e+00
2.374083757400512695e+00,-1.985418243408203125e+02,2.366009674072265625e+02,2.366009674072265625e+02,-1.014419645071029663e-01,-1.759948432445526123e-01,2.385370135307312012e-01,1.016838073730468750e+01,-3.157384693622589111e-02,3.951502003474161029e-05,3.419800400733947754e-01,-2.629361487925052643e-02,-1.320721275988034904e-05,6.828073859214782715e-01,6.268212944269180298e-02,1.143576860427856445e+00,1.000000000000000000e+00,6.434125825762748718e-03,0.000000000000000000e+00
2.374083757400512695e+00,-1.985418243408203125e+02,2.366009674072265625e+02,2.366009674072265625e+02,-1.014419645071029663e-01,-1.759948432445526123e-01,2.385370135307312012e-01,1.016838073730468750e+01,-3.157384693622589111e-02,3.951502003474161029e-05,3.419800400733947754e-01,-2.629361487925052643e-02,-1.320721275988034904e-05,6.828073859214782715e-01,6.268212944269180298e-02,1.143576860427856445e+00,1.000000000000000000e+00,6.434125825762748718e-03,0.000000000000000000e+00
2.447860002517700195e+00,-1.975185852050781250e+02,2.365997772216796875e+02,2.365997772216796875e+02,-1.076027974486351013e-01,-1.705932617187500000e-02,1.643028259277343750e-01,1.027755451202392578e+01,-1.755635812878608704e-02,3.241952072130516171e-05,1.479795813560485840e+00,1.900000274181365967e-01,-9.617593605071306229e-05,7.669078707695007324e-01,5.758654326200485229e-02,1.798107385635375977e+00,1.000000000000000000e+00,5.828815046697854996e-03,0.000000000000000000e+00
2.447860002517700195e+00,-1.975185852050781250e+02,2.365997772216796875e+02,2.365997772216796875e+02,-1.076027974486351013e-01,-1.705932617187500000e-02,1.643028259277343750e-01,1.027755451202392578e+01,-1.755635812878608704e-02,3.241952072130516171e-05,1.479795813560485840e+00,1.900000274181365967e-01,-9.617593605071306229e-05,7.669078707695007324e-01,5.758654326200485229e-02,1.798107385635375977e+00,1.000000000000000000e+00,5.828815046697854996e-03,0.000000000000000000e+00
2.500878810882568359e+00,-1.967569885253906250e+02,2.365996093750000000e+02,2.365996093750000000e+02,-1.116667538881301880e-01,3.307873383164405823e-02,1.106174513697624207e-01,1.035346794128417969e+01,-6.072329357266426086e-03,2.785271499305963516e-05,1.431820750236511230e+00,2.166029214859008789e-01,-8.613558020442724228e-05,7.008150219917297363e-01,5.463253334164619446e-02,2.768302261829376221e-01,1.000000000000000000e+00,-8.829863509163260460e-04,0.000000000000000000e+00
2.500878810882568359e+00,-1.967569885253906250e+02,2.365996093750000000e+02,2.365996093750000000e+02,-1.116667538881301880e-01,3.307873383164405823e-02,1.106174513697624207e-01,1.035346794128417969e+01,-6.072329357266426086e-03,2.785271499305963516e-05,1.431820750236511230e+00,2.166029214859008789e-01,-8.613558020442724228e-05,7.008150219917297363e-01,5.463253334164619446e-02,2.768302261829376221e-01,1.000000000000000000e+00,-8.829863509163260460e-04,0.000000000000000000e+00
2.560195446014404297e+00,-1.962063446044921875e+02,2.365995483398437500e+02,2.365995483398437500e+02,-1.144739612936973572e-01,1.995494589209556580e-02,7.691466063261032104e-02,1.040571022033691406e+01,-2.968966262415051460e-03,2.163600038329605013e-05,8.807356953620910645e-01,5.231859534978866577e-02,-1.048055855790153146e-04,5.972315073013305664e-01,5.318634957075119019e-02,-4.628286361694335938e-01,1.000000000000000000e+00,-2.966060303151607513e-03,0.000000000000000000e+00
2.560195446014404297e+00,-1.962063446044921875e+02,2.365995483398437500e+02,2.365995483398437500e+02,-1.144739612936973572e-01,1.995494589209556580e-02,7.691466063261032104e-02,1.040571022033691406e+01,-2.968966262415051460e-03,2.163600038329605013e-05,8.807356953620910645e-01,5.231859534978866577e-02,-1.048055855790153146e-04,5.972315073013305664e-01,5.318634957075119019e-02,-4.628286361694335938e-01,1.000000000000000000e+00,-2.966060303151607513e-03,0.000000000000000000e+00
2.560195446014404297e+00,-1.962063446044921875e+02,2.365995483398437500e+02,2.365995483398437500e+02,-1.144739612936973572e-01,1.995494589209556580e-02,7.691466063261032104e-02,1.040571022033691406e+01,-2.968966262415051460e-03,2.163600038329605013e-05,8.807356953620910645e-01,5.231859534978866577e-02,-1.048055855790153146e-04,5.972315073013305664e-01,5.318634957075119019e-02,-4.628286361694335938e-01,1.000000000000000000e+00,-2.966060303151607513e-03,0.000000000000000000e+00
2.618730545043945312e+00,-1.955870513916015625e+02,2.365993347167968750e+02,2.365993347167968750e+02,-1.176431700587272644e-01,-1.800536736845970154e-02,4.611859098076820374e-02,1.046197032928466797e+01,-4.324081353843212128e-03,1.869877996796276420e-05,9.611346125602722168e-01,-2.315047010779380798e-02,-5.017878720536828041e-05,4.657371938228607178e-01,5.300488322973251343e-02,-7.236959338188171387e-01,1.000000000000000000e+00,-2.701864577829837799e-03,0.000000000000000000e+00
2.618730545043945312e+00,-1.955870513916015625e+02,2.365993347167968750e+02,2.365993347167968750e+02,-1.176431700587272644e-01,-1.800536736845970154e-02,4.611859098076820374e-02,1.046197032928466797e+01,-4.324081353843212128e-03,1.869877996796276420e-05,9.611346125602722168e-01,-2.315047010779380798e-02,-5.017878720536828041e-05,4.657371938228607178e-01,5.300488322973251343e-02,-7.236959338188171387e-01,1.000000000000000000e+00,-2.701864577829837799e-03,0.000000000000000000e+00
2.677334070205688477e+00,-1.949726867675781250e+02,2.365989074707031250e+02,2.365989074707031250e+02,-1.206962689757347107e-01,-5.300902947783470154e-02,2.379935607314109802e-02,1.051529788970947266e+01,-8.160090073943138123e-03,1.297760809393366799e-05,9.099718928337097168e-01,-6.545696407556533813e-02,-9.762504487298429012e-05,3.317697942256927490e-01,5.158668011426925659e-02,-5.625103116035461426e-01,1.000000000000000000e+00,-1.452565426006913185e-03,0.000000000000000000e+00
2.677334070205688477e+00,-1.949726867675781250e+02,2.365989074707031250e+02,2.365989074707031250e+02,-1.206962689757347107e-01,-5.300902947783470154e-02,2.379935607314109802e-02,1.051529788970947266e+01,-8.160090073943138123e-03,1.297760809393366799e-05,9.099718928337097168e-01,-6.545696407556533813e-02,-9.762504487298429012e-05,3.317697942256927490e-01,5.158668011426925659e-02,-5.625103116035461426e-01,1.000000000000000000e+00,-1.452565426006913185e-03,0.000000000000000000e+00
2.677334070205688477e+00,-1.949726867675781250e+02,2.365989074707031250e+02,2.365989074707031250e+02,-1.206962689757347107e-01,-5.300902947783470154e-02,2.379935607314109802e-02,1.051529788970947266e+01,-8.160090073943138123e-03,1.297760809393366799e-05,9.099718928337097168e-01,-6.545696407556533813e-02,-9.762504487298429012e-05,3.317697942256927490e-01,5.158668011426925659e-02,-5.625103116035461426e-01,1.000000000000000000e+00,-1.452565426006913185e-03,0.000000000000000000e+00
2.677334070205688477e+00,-1.943545837402343750e+02,2.365981903076171875e+02,2.365981903076171875e+02,-1.236878857016563416e-01,-8.023070544004440308e-02,8.626719005405902863e-03,1.056659793853759766e+01,-1.261424273252487183e-02,1.108960714191198349e-05,6.603101491928100586e-01,-5.733176320791244507e-02,-2.430146196275018156e-05,2.180631607770919800e-01,5.007775872945785522e-02,-4.301303029060363770e-01,1.000000000000000000e+00,-1.003724755719304085e-03,0.000000000000000000e+00
2.755024909973144531e+00,-1.943545837402343750e+02,2.365981903076171875e+02,2.365981903076171875e+02,-1.236878857016563416e-01,-8.023070544004440308e-02,8.626719005405902863e-03,1.056659793853759766e+01,-1.261424273252487183e-02,1.108960714191198349e-05,6.603101491928100586e-01,-5.733176320791244507e-02,-2.430146196275018156e-05,2.180631607770919800e-01,5.007775872945785522e-02,-4.301303029060363770e-01,1.000000000000000000e+00,-1.003724755719304085e-03,0.000000000000000000e+00
2.755024909973144531e+00,-1.943545837402343750e+02,2.365981903076171875e+02,2.365981903076171875e+02,-1.236878857016563416e-01,-8.023070544004440308e-02,8.626719005405902863e-03,1.056659793853759766e+01,-1.261424273252487183e-02,1.108960714191198349e-05,6.603101491928100586e-01,-5.733176320791244507e-02,-2.430146196275018156e-05,2.180631607770919800e-01,5.007775872945785522e-02,-4.301303029060363770e-01,1.000000000000000000e+00,-1.003724755719304085e-03,0.000000000000000000e+00
2.755024909973144531e+00,-1.943545837402343750e+02,2.365981903076171875e+02,2.365981903076171875e+02,-1.236878857016563416e-01,-8.023070544004440308e-02,8.626719005405902863e-03,1.056659793853759766e+01,-1.261424273252487183e-02,1.108960714191198349e-05,6.603101491928100586e-01,-5.733176320791244507e-02,-2.430146196275018156e-05,2.180631607770919800e-01,5.007775872945785522e-02,-4.301303029060363770e-01,1.000000000000000000e+00,-1.003724755719304085e-03,0.000000000000000000e+00
2.830169916152954102e+00,-1.935306243896484375e+02,2.365970001220703125e+02,2.365970001220703125e+02,-1.275264620780944824e-01,-9.631346911191940308e-02,-3.265381092205643654e-03,1.063152599334716797e+01,-1.655646227300167084e-02,8.801045623840764165e-06,8.640368580818176270e-01,-5.246149748563766479e-02,-3.045527046197094023e-05,1.143081188201904297e-01,4.842083156108856201e-02,-1.243793517351150513e-01,1.000000000000000000e+00,-1.438409071852220222e-05,0.000000000000000000e+00
2.830169916152954102e+00,-1.935306243896484375e+02,2.365970001220703125e+02,2.365970001220703125e+02,-1.275264620780944824e-01,-9.631346911191940308e-02,-3.265381092205643654e-03,1.063152599334716797e+01,-1.655646227300167084e-02,8.801045623840764165e-06,8.640368580818176270e-01,-5.246149748563766479e-02,-3.045527046197094023e-05,1.143081188201904297e-01,4.842083156108856201e-02,-1.243793517351150513e-01,1.000000000000000000e+00,-1.438409071852220222e-05,0.000000000000000000e+00
2.830169916152954102e+00,-1.935306243896484375e+02,2.365970001220703125e+02,2.365970001220703125e+02,-1.275264620780944824e-01,-9.631346911191940308e-02,-3.265381092205643654e-03,1.063152599334716797e+01,-1.655646227300167084e-02,8.801045623840764165e-06,8.640368580818176270e-01,-5.246149748563766479e-02,-3.045527046197094023e-05,1.143081188201904297e-01,4.842083156108856201e-02,-1.243793517351150513e-01,1.000000000000000000e+00,-1.438409071852220222e-05,0.000000000000000000e+00
2.830169916152954102e+00,-1.935306243896484375e+02,2.365970001220703125e+02,2.365970001220703125e+02,-1.275264620780944824e-01,-9.631346911191940308e-02,-3.265381092205643654e-03,1.063152599334716797e+01,-1.655646227300167084e-02,8.801045623840764165e-06,8.640368580818176270e-01,-5.246149748563766479e-02,-3.045527046197094023e-05,1.143081188201904297e-01,4.842083156108856201e-02,-1.243793517351150513e-01,1.000000000000000000e+00,-1.438409071852220222e-05,0.000000000000000000e+00
2.830169916152954102e+00,-1.935306243896484375e+02,2.365970001220703125e+02,2.365970001220703125e+02,-1.275264620780944824e-01,-9.631346911191940308e-02,-3.265381092205643654e-03,1.063152599334716797e+01,-1.655646227300167084e-02,8.801045623840764165e-06,8.640368580818176270e-01,-5.246149748563766479e-02,-3.045527046197094023e-05,1.143081188201904297e-01,4.842083156108856201e-02,-1.243793517351150513e-01,1.000000000000000000e+00,-1.438409071852220222e-05,0.000000000000000000e+00
2.917726278305053711e+00,-1.927290191650390625e+02,2.365957031250000000e+02,2.365957031250000000e+02,-1.310713291168212891e-01,-9.790037572383880615e-02,-8.911131881177425385e-03,1.069114494323730469e+01,-1.806858181953430176e-02,9.888115528156049550e-06,6.809207797050476074e-01,-1.727024093270301819e-02,1.241565769305452704e-05,5.380663275718688965e-02,4.633232951164245605e-02,2.201630733907222748e-02,1.000000000000000000e+00,2.553299127612262964e-04,0.000000000000000000e+00
