# Time,X,Y,Z,Roll,Pitch,Yaw,Vx,Vy,Vz,Ax,Ay,Az,Wx,Wy,Wz,Throttle,Steer,Brake
0.000000000000000000e+00,-1.528550720214843750e+02,-1.538014602661132812e+01,-1.538014602661132812e+01,-2.086144536733627319e-01,1.797913818359375000e+02,1.020775289362063631e-05,-1.167765522003173828e+01,4.251383617520332336e-02,-5.911944640502042603e-07,1.066914759576320648e-03,-1.579783274792134762e-04,1.640990490159310866e-06,-9.204577509080991149e-05,-2.582393644843250513e-04,1.495105243520811200e-04,1.000000000000000000e+00,-1.525878928987367544e-06,0.000000000000000000e+00
1.045818328857421875e-01,-1.528550720214843750e+02,-1.538014602661132812e+01,-1.538014602661132812e+01,-2.086144536733627319e-01,1.797913818359375000e+02,1.020775289362063631e-05,-1.167765522003173828e+01,4.251383617520332336e-02,-5.911944640502042603e-07,1.066914759576320648e-03,-1.579783274792134762e-04,1.640990490159310866e-06,-9.204577509080991149e-05,-2.582393644843250513e-04,1.495105243520811200e-04,1.000000000000000000e+00,-1.525878928987367544e-06,0.000000000000000000e+00
1.045818328857421875e-01,-1.528550720214843750e+02,-1.538014602661132812e+01,-1.538014602661132812e+01,-2.086144536733627319e-01,1.797913818359375000e+02,1.020775289362063631e-05,-1.167765522003173828e+01,4.251383617520332336e-02,-5.911944640502042603e-07,1.066914759576320648e-03,-1.579783274792134762e-04,1.640990490159310866e-06,-9.204577509080991149e-05,-2.582393644843250513e-04,1.495105243520811200e-04,1.000000000000000000e+00,-1.525878928987367544e-06,0.000000000000000000e+00
1.045818328857421875e-01,-1.528550720214843750e+02,-1.538014602661132812e+01,-1.538014602661132812e+01,-2.086144536733627319e-01,1.797913818359375000e+02,1.020775289362063631e-05,-1.167765522003173828e+01,4.251383617520332336e-02,-5.911944640502042603e-07,1.066914759576320648e-03,-1.579783274792134762e-04,1.640990490159310866e-06,-9.204577509080991149e-05,-2.582393644843250513e-04,1.495105243520811200e-04,1.000000000000000000e+00,-1.525878928987367544e-06,0.000000000000000000e+00
1.045818328857421875e-01,-1.528550720214843750e+02,-1.538014602661132812e+01,-1.538014602661132812e+01,-2.086144536733627319e-01,1.797913818359375000e+02,1.020775289362063631e-05,-1.167765522003173828e+01,4.251383617520332336e-02,-5.911944640502042603e-07,1.066914759576320648e-03,-1.579783274792134762e-04,1.640990490159310866e-06,-9.204577509080991149e-05,-2.582393644843250513e-04,1.495105243520811200e-04,1.000000000000000000e+00,-1.525878928987367544e-06,0.000000000000000000e+00
1.045818328857421875e-01,-1.528550720214843750e+02,-1.538014602661132812e+01,-1.538014602661132812e+01,-2.086144536733627319e-01,1.797913818359375000e+02,1.020775289362063631e-05,-1.167765522003173828e+01,4.251383617520332336e-02,-5.911944640502042603e-07,1.066914759576320648e-03,-1.579783274792134762e-04,1.640990490159310866e-06,-9.204577509080991149e-05,-2.582393644843250513e-04,1.495105243520811200e-04,1.000000000000000000e+00,-1.525878928987367544e-06,0.000000000000000000e+00
1.045818328857421875e-01,-1.540228424072265625e+02,-1.537589836120605469e+01,-1.537589836120605469e+01,-2.086144536733627319e-01,1.797913818359375000e+02,1.020775289362063631e-05,-1.167774391174316406e+01,4.251401498913764954e-02,-2.669843013336503645e-07,-8.470311295241117477e-04,1.707724095467710868e-06,3.096299451499362476e-06,-8.587951015215367079e-05,2.408827858744189143e-04,-1.027244259603321552e-03,1.000000000000000000e+00,-3.560384129741578363e-06,0.000000000000000000e+00
2.092907428741455078e-01,-1.540228424072265625e+02,-1.537589836120605469e+01,-1.537589836120605469e+01,-2.086144536733627319e-01,1.797913818359375000e+02,1.020775289362063631e-05,-1.167774391174316406e+01,4.251401498913764954e-02,-2.669843013336503645e-07,-8.470311295241117477e-04,1.707724095467710868e-06,3.096299451499362476e-06,-8.587951015215367079e-05,2.408827858744189143e-04,-1.027244259603321552e-03,1.000000000000000000e+00,-3.560384129741578363e-06,0.000000000000000000e+00
2.092907428741455078e-01,-1.540228424072265625e+02,-1.537589836120605469e+01,-1.537589836120605469e+01,-2.086144536733627319e-01,1.797913818359375000e+02,1.020775289362063631e-05,-1.167774391174316406e+01,4.251401498913764954e-02,-2.669843013336503645e-07,-8.470311295241117477e-04,1.707724095467710868e-06,3.096299451499362476e-06,-8.587951015215367079e-05,2.408827858744189143e-04,-1.027244259603321552e-03,1.000000000000000000e+00,-3.560384129741578363e-06,0.000000000000000000e+00
2.092907428741455078e-01,-1.540228424072265625e+02,-1.537589836120605469e+01,-1.537589836120605469e+01,-2.086144536733627319e-01,1.797913818359375000e+02,1.020775289362063631e-05,-1.167774391174316406e+01,4.251401498913764954e-02,-2.669843013336503645e-07,-8.470311295241117477e-04,1.707724095467710868e-06,3.096299451499362476e-06,-8.587951015215367079e-05,2.408827858744189143e-04,-1.027244259603321552e-03,1.000000000000000000e+00,-3.560384129741578363e-06,0.000000000000000000e+00
2.092907428741455078e-01,-1.540228424072265625e+02,-1.537589836120605469e+01,-1.537589836120605469e+01,-2.086144536733627319e-01,1.797913818359375000e+02,1.020775289362063631e-05,-1.167774391174316406e+01,4.251401498913764954e-02,-2.669843013336503645e-07,-8.470311295241117477e-04,1.707724095467710868e-06,3.096299451499362476e-06,-8.587951015215367079e-05,2.408827858744189143e-04,-1.027244259603321552e-03,1.000000000000000000e+00,-3.560384129741578363e-06,0.000000000000000000e+00
2.092907428741455078e-01,-1.551906433105468750e+02,-1.537164020538330078e+01,-1.537164020538330078e+01,-2.085871398448944092e-01,1.797911224365234375e+02,2.605527599230939018e-11,-1.167782974243164062e+01,4.254620522260665894e-02,-3.814061244611366419e-07,-1.150258933193981647e-03,4.313970275688916445e-04,-1.533422732791223098e-06,1.434792939107865095e-04,2.202253381256014109e-04,-3.058528294786810875e-03,1.000000000000000000e+00,-9.155273801297880709e-06,0.000000000000000000e+00
2.839093208312988281e-01,-1.551906433105468750e+02,-1.537164020538330078e+01,-1.537164020538330078e+01,-2.085871398448944092e-01,1.797911224365234375e+02,2.605527599230939018e-11,-1.167782974243164062e+01,4.254620522260665894e-02,-3.814061244611366419e-07,-1.150258933193981647e-03,4.313970275688916445e-04,-1.533422732791223098e-06,1.434792939107865095e-04,2.202253381256014109e-04,-3.058528294786810875e-03,1.000000000000000000e+00,-9.155273801297880709e-06,0.000000000000000000e+00
2.839093208312988281e-01,-1.551906433105468750e+02,-1.537164020538330078e+01,-1.537164020538330078e+01,-2.085871398448944092e-01,1.797911224365234375e+02,2.605527599230939018e-11,-1.167782974243164062e+01,4.254620522260665894e-02,-3.814061244611366419e-07,-1.150258933193981647e-03,4.313970275688916445e-04,-1.533422732791223098e-06,1.434792939107865095e-04,2.202253381256014109e-04,-3.058528294786810875e-03,1.000000000000000000e+00,-9.155273801297880709e-06,0.000000000000000000e+00
2.839093208312988281e-01,-1.551906433105468750e+02,-1.537164020538330078e+01,-1.537164020538330078e+01,-2.085871398448944092e-01,1.797911224365234375e+02,2.605527599230939018e-11,-1.167782974243164062e+01,4.254620522260665894e-02,-3.814061244611366419e-07,-1.150258933193981647e-03,4.313970275688916445e-04,-1.533422732791223098e-06,1.434792939107865095e-04,2.202253381256014109e-04,-3.058528294786810875e-03,1.000000000000000000e+00,-9.155273801297880709e-06,0.000000000000000000e+00
2.839093208312988281e-01,-1.551906433105468750e+02,-1.537164020538330078e+01,-1.537164020538330078e+01,-2.085871398448944092e-01,1.797911224365234375e+02,2.605527599230939018e-11,-1.167782974243164062e+01,4.254620522260665894e-02,-3.814061244611366419e-07,-1.150258933193981647e-03,4.313970275688916445e-04,-1.533422732791223098e-06,1.434792939107865095e-04,2.202253381256014109e-04,-3.058528294786810875e-03,1.000000000000000000e+00,-9.155273801297880709e-06,0.000000000000000000e+00
3.569011688232421875e-01,-1.560620422363281250e+02,-1.536846637725830078e+01,-1.536846637725830078e+01,-2.085871398448944092e-01,1.797911224365234375e+02,2.605527599230939018e-11,-1.167777156829833984e+01,4.256550595164299011e-02,-5.625838639389257878e-07,7.969949510879814625e-04,2.644230844452977180e-04,-2.482164063621894456e-06,2.281649794895201921e-04,-1.828388194553554058e-04,-4.145283310208469629e-05,1.000000000000000000e+00,3.560384129741578363e-06,0.000000000000000000e+00
3.569011688232421875e-01,-1.560620422363281250e+02,-1.536846637725830078e+01,-1.536846637725830078e+01,-2.085871398448944092e-01,1.797911224365234375e+02,2.605527599230939018e-11,-1.167777156829833984e+01,4.256550595164299011e-02,-5.625838639389257878e-07,7.969949510879814625e-04,2.644230844452977180e-04,-2.482164063621894456e-06,2.281649794895201921e-04,-1.828388194553554058e-04,-4.145283310208469629e-05,1.000000000000000000e+00,3.560384129741578363e-06,0.000000000000000000e+00
3.569011688232421875e-01,-1.560620422363281250e+02,-1.536846637725830078e+01,-1.536846637725830078e+01,-2.085871398448944092e-01,1.797911224365234375e+02,2.605527599230939018e-11,-1.167777156829833984e+01,4.256550595164299011e-02,-5.625838639389257878e-07,7.969949510879814625e-04,2.644230844452977180e-04,-2.482164063621894456e-06,2.281649794895201921e-04,-1.828388194553554058e-04,-4.145283310208469629e-05,1.000000000000000000e+00,3.560384129741578363e-06,0.000000000000000000e+00
3.569011688232421875e-01,-1.560620422363281250e+02,-1.536846637725830078e+01,-1.536846637725830078e+01,-2.085871398448944092e-01,1.797911224365234375e+02,2.605527599230939018e-11,-1.167777156829833984e+01,4.256550595164299011e-02,-5.625838639389257878e-07,7.969949510879814625e-04,2.644230844452977180e-04,-2.482164063621894456e-06,2.281649794895201921e-04,-1.828388194553554058e-04,-4.145283310208469629e-05,1.000000000000000000e+00,3.560384129741578363e-06,0.000000000000000000e+00
4.765405654907226562e-01,-1.569144287109375000e+02,-1.536535930633544922e+01,-1.536535930633544922e+01,-2.085871398448944092e-01,1.797911224365234375e+02,2.605527599230939018e-11,-1.167769336700439453e+01,4.256821051239967346e-02,-6.197977882038685493e-07,6.536416476592421532e-04,2.260593828395940363e-05,-4.782197606800764333e-07,1.478880731156095862e-04,-4.623248241841793060e-04,1.357374829240143299e-03,1.000000000000000000e+00,5.594889444182626903e-06,0.000000000000000000e+00
4.765405654907226562e-01,-1.569144287109375000e+02,-1.536535930633544922e+01,-1.536535930633544922e+01,-2.085871398448944092e-01,1.797911224365234375e+02,2.605527599230939018e-11,-1.167769336700439453e+01,4.256821051239967346e-02,-6.197977882038685493e-07,6.536416476592421532e-04,2.260593828395940363e-05,-4.782197606800764333e-07,1.478880731156095862e-04,-4.623248241841793060e-04,1.357374829240143299e-03,1.000000000000000000e+00,5.594889444182626903e-06,0.000000000000000000e+00
4.765405654907226562e-01,-1.569144287109375000e+02,-1.536535930633544922e+01,-1.536535930633544922e+01,-2.085871398448944092e-01,1.797911224365234375e+02,2.605527599230939018e-11,-1.167769336700439453e+01,4.256821051239967346e-02,-6.197977882038685493e-07,6.536416476592421532e-04,2.260593828395940363e-05,-4.782197606800764333e-07,1.478880731156095862e-04,-4.623248241841793060e-04,1.357374829240143299e-03,1.000000000000000000e+00,5.594889444182626903e-06,0.000000000000000000e+00
4.765405654907226562e-01,-1.569144287109375000e+02,-1.536535930633544922e+01,-1.536535930633544922e+01,-2.085871398448944092e-01,1.797911224365234375e+02,2.605527599230939018e-11,-1.167769336700439453e+01,4.256821051239967346e-02,-6.197977882038685493e-07,6.536416476592421532e-04,2.260593828395940363e-05,-4.782197606800764333e-07,1.478880731156095862e-04,-4.623248241841793060e-04,1.357374829240143299e-03,1.000000000000000000e+00,5.594889444182626903e-06,0.000000000000000000e+00
4.765405654907226562e-01,-1.569144287109375000e+02,-1.536535930633544922e+01,-1.536535930633544922e+01,-2.085871398448944092e-01,1.797911224365234375e+02,2.605527599230939018e-11,-1.167769336700439453e+01,4.256821051239967346e-02,-6.197977882038685493e-07,6.536416476592421532e-04,2.260593828395940363e-05,-4.782197606800764333e-07,1.478880731156095862e-04,-4.623248241841793060e-04,1.357374829240143299e-03,1.000000000000000000e+00,5.594889444182626903e-06,0.000000000000000000e+00
4.765405654907226562e-01,-1.569144287109375000e+02,-1.536535930633544922e+01,-1.536535930633544922e+01,-2.085871398448944092e-01,1.797911224365234375e+02,2.605527599230939018e-11,-1.167769336700439453e+01,4.256821051239967346e-02,-6.197977882038685493e-07,6.536416476592421532e-04,2.260593828395940363e-05,-4.782197606800764333e-07,1.478880731156095862e-04,-4.623248241841793060e-04,1.357374829240143299e-03,1.000000000000000000e+00,5.594889444182626903e-06,0.000000000000000000e+00
4.765405654907226562e-01,-1.569144287109375000e+02,-1.536535930633544922e+01,-1.536535930633544922e+01,-2.085871398448944092e-01,1.797911224365234375e+02,2.605527599230939018e-11,-1.167769336700439453e+01,4.256821051239967346e-02,-6.197977882038685493e-07,6.536416476592421532e-04,2.260593828395940363e-05,-4.782197606800764333e-07,1.478880731156095862e-04,-4.623248241841793060e-04,1.357374829240143299e-03,1.000000000000000000e+00,5.594889444182626903e-06,0.000000000000000000e+00
6.200885772705078125e-01,-1.580821990966796875e+02,-1.536110591888427734e+01,-1.536110591888427734e+01,-2.086486071348190308e-01,1.797913513183593750e+02,2.031381336564663798e-05,-1.167777538299560547e+01,4.254464432597160339e-02,-1.125148060054925736e-06,-5.713488790206611156e-04,-1.641693670535460114e-04,-3.520426844261237420e-06,-1.811423280742019415e-04,1.514729228802025318e-04,2.318455372005701065e-03,1.000000000000000000e+00,6.612141987716313452e-06,0.000000000000000000e+00
6.200885772705078125e-01,-1.580821990966796875e+02,-1.536110591888427734e+01,-1.536110591888427734e+01,-2.086486071348190308e-01,1.797913513183593750e+02,2.031381336564663798e-05,-1.167777538299560547e+01,4.254464432597160339e-02,-1.125148060054925736e-06,-5.713488790206611156e-04,-1.641693670535460114e-04,-3.520426844261237420e-06,-1.811423280742019415e-04,1.514729228802025318e-04,2.318455372005701065e-03,1.000000000000000000e+00,6.612141987716313452e-06,0.000000000000000000e+00
6.200885772705078125e-01,-1.580821990966796875e+02,-1.536110591888427734e+01,-1.536110591888427734e+01,-2.086486071348190308e-01,1.797913513183593750e+02,2.031381336564663798e-05,-1.167777538299560547e+01,4.254464432597160339e-02,-1.125148060054925736e-06,-5.713488790206611156e-04,-1.641693670535460114e-04,-3.520426844261237420e-06,-1.811423280742019415e-04,1.514729228802025318e-04,2.318455372005701065e-03,1.000000000000000000e+00,6.612141987716313452e-06,0.000000000000000000e+00
6.200885772705078125e-01,-1.580821990966796875e+02,-1.536110591888427734e+01,-1.536110591888427734e+01,-2.086486071348190308e-01,1.797913513183593750e+02,2.031381336564663798e-05,-1.167777538299560547e+01,4.254464432597160339e-02,-1.125148060054925736e-06,-5.713488790206611156e-04,-1.641693670535460114e-04,-3.520426844261237420e-06,-1.811423280742019415e-04,1.514729228802025318e-04,2.318455372005701065e-03,1.000000000000000000e+00,6.612141987716313452e-06,0.000000000000000000e+00
6.200885772705078125e-01,-1.580821990966796875e+02,-1.536110591888427734e+01,-1.536110591888427734e+01,-2.086486071348190308e-01,1.797913513183593750e+02,2.031381336564663798e-05,-1.167777538299560547e+01,4.254464432597160339e-02,-1.125148060054925736e-06,-5.713488790206611156e-04,-1.641693670535460114e-04,-3.520426844261237420e-06,-1.811423280742019415e-04,1.514729228802025318e-04,2.318455372005701065e-03,1.000000000000000000e+00,6.612141987716313452e-06,0.000000000000000000e+00
6.200885772705078125e-01,-1.580821990966796875e+02,-1.536110591888427734e+01,-1.536110591888427734e+01,-2.086486071348190308e-01,1.797913513183593750e+02,2.031381336564663798e-05,-1.167777538299560547e+01,4.254464432597160339e-02,-1.125148060054925736e-06,-5.713488790206611156e-04,-1.641693670535460114e-04,-3.520426844261237420e-06,-1.811423280742019415e-04,1.514729228802025318e-04,2.318455372005701065e-03,1.000000000000000000e+00,6.612141987716313452e-06,0.000000000000000000e+00
7.946169376373291016e-01,-1.592500305175781250e+02,-1.535685157775878906e+01,-1.535685157775878906e+01,-2.086486071348190308e-01,1.797913513183593750e+02,2.031381336564663798e-05,-1.167785453796386719e+01,4.252335429191589355e-02,-6.483904826382058673e-07,-4.535364278126507998e-04,-1.219861005665734410e-04,2.731691211010911502e-06,-2.090309426421299577e-04,2.580390137154608965e-04,7.612282206537202001e-05,1.000000000000000000e+00,-1.525878928987367544e-06,0.000000000000000000e+00
7.946169376373291016e-01,-1.592500305175781250e+02,-1.535685157775878906e+01,-1.535685157775878906e+01,-2.086486071348190308e-01,1.797913513183593750e+02,2.031381336564663798e-05,-1.167785453796386719e+01,4.252335429191589355e-02,-6.483904826382058673e-07,-4.535364278126507998e-04,-1.219861005665734410e-04,2.731691211010911502e-06,-2.090309426421299577e-04,2.580390137154608965e-04,7.612282206537202001e-05,1.000000000000000000e+00,-1.525878928987367544e-06,0.000000000000000000e+00
7.946169376373291016e-01,-1.592500305175781250e+02,-1.535685157775878906e+01,-1.535685157775878906e+01,-2.086486071348190308e-01,1.797913513183593750e+02,2.031381336564663798e-05,-1.167785453796386719e+01,4.252335429191589355e-02,-6.483904826382058673e-07,-4.535364278126507998e-04,-1.219861005665734410e-04,2.731691211010911502e-06,-2.090309426421299577e-04,2.580390137154608965e-04,7.612282206537202001e-05,1.000000000000000000e+00,-1.525878928987367544e-06,0.000000000000000000e+00
8.783230781555175781e-01,-1.604178619384765625e+02,-1.535259628295898438e+01,-1.535259628295898438e+01,-2.086486071348190308e-01,1.797913513183593750e+02,2.031381336564663798e-05,-1.167791461944580078e+01,4.251687973737716675e-02,-1.334921506668251823e-07,-7.177667575888335705e-04,-7.734862447250634432e-05,6.151261004561092705e-06,-1.102194000850431621e-04,1.565525599289685488e-04,-2.242481423309072852e-04,1.000000000000000000e+00,-1.017252657220524270e-06,0.000000000000000000e+00
8.783230781555175781e-01,-1.604178619384765625e+02,-1.535259628295898438e+01,-1.535259628295898438e+01,-2.086486071348190308e-01,1.797913513183593750e+02,2.031381336564663798e-05,-1.167791461944580078e+01,4.251687973737716675e-02,-1.334921506668251823e-07,-7.177667575888335705e-04,-7.734862447250634432e-05,6.151261004561092705e-06,-1.102194000850431621e-04,1.565525599289685488e-04,-2.242481423309072852e-04,1.000000000000000000e+00,-1.017252657220524270e-06,0.000000000000000000e+00
8.783230781555175781e-01,-1.604178619384765625e+02,-1.535259628295898438e+01,-1.535259628295898438e+01,-2.086486071348190308e-01,1.797913513183593750e+02,2.031381336564663798e-05,-1.167791461944580078e+01,4.251687973737716675e-02,-1.334921506668251823e-07,-7.177667575888335705e-04,-7.734862447250634432e-05,6.151261004561092705e-06,-1.102194000850431621e-04,1.565525599289685488e-04,-2.242481423309072852e-04,1.000000000000000000e+00,-1.017252657220524270e-06,0.000000000000000000e+00
9.483780860900878906e-01,-1.613953704833984375e+02,-1.534903621673583984e+01,-1.534903621673583984e+01,-2.086486071348190308e-01,1.797913513183593750e+02,2.031381336564663798e-05,-1.167776107788085938e+01,4.251492395997047424e-02,-7.628329967701574787e-08,2.191728679463267326e-03,-2.791773840726818889e-05,8.166275620169471949e-07,-1.670325946179218590e-05,-5.992280202917754650e-04,1.115498525905422866e-04,1.000000000000000000e+00,5.086263286102621350e-07,0.000000000000000000e+00
9.483780860900878906e-01,-1.613953704833984375e+02,-1.534903621673583984e+01,-1.534903621673583984e+01,-2.086486071348190308e-01,1.797913513183593750e+02,2.031381336564663798e-05,-1.167776107788085938e+01,4.251492395997047424e-02,-7.628329967701574787e-08,2.191728679463267326e-03,-2.791773840726818889e-05,8.166275620169471949e-07,-1.670325946179218590e-05,-5.992280202917754650e-04,1.115498525905422866e-04,1.000000000000000000e+00,5.086263286102621350e-07,0.000000000000000000e+00
9.483780860900878906e-01,-1.613953704833984375e+02,-1.534903621673583984e+01,-1.534903621673583984e+01,-2.086486071348190308e-01,1.797913513183593750e+02,2.031381336564663798e-05,-1.167776107788085938e+01,4.251492395997047424e-02,-7.628329967701574787e-08,2.191728679463267326e-03,-2.791773840726818889e-05,8.166275620169471949e-07,-1.670325946179218590e-05,-5.992280202917754650e-04,1.115498525905422866e-04,1.000000000000000000e+00,5.086263286102621350e-07,0.000000000000000000e+00
9.483780860900878906e-01,-1.613953704833984375e+02,-1.534903621673583984e+01,-1.534903621673583984e+01,-2.086486071348190308e-01,1.797913513183593750e+02,2.031381336564663798e-05,-1.167776107788085938e+01,4.251492395997047424e-02,-7.628329967701574787e-08,2.191728679463267326e-03,-2.791773840726818889e-05,8.166275620169471949e-07,-1.670325946179218590e-05,-5.992280202917754650e-04,1.115498525905422866e-04,1.000000000000000000e+00,5.086263286102621350e-07,0.000000000000000000e+00
9.483780860900878906e-01,-1.622134399414062500e+02,-1.534605789184570312e+01,-1.534605789184570312e+01,-2.086486071348190308e-01,1.797913513183593750e+02,2.031381336564663798e-05,-1.167764091491699219e+01,4.251318797469139099e-02,-4.576995138450001832e-07,1.524929888546466827e-03,-2.203054646088276058e-05,-4.840368092118296772e-06,1.156099460786208510e-05,-6.459758733399212360e-04,1.660447887843474746e-04,1.000000000000000000e+00,5.086263286102621350e-07,0.000000000000000000e+00
1.027177095413208008e+00,-1.622134399414062500e+02,-1.534605789184570312e+01,-1.534605789184570312e+01,-2.086486071348190308e-01,1.797913513183593750e+02,2.031381336564663798e-05,-1.167764091491699219e+01,4.251318797469139099e-02,-4.576995138450001832e-07,1.524929888546466827e-03,-2.203054646088276058e-05,-4.840368092118296772e-06,1.156099460786208510e-05,-6.459758733399212360e-04,1.660447887843474746e-04,1.000000000000000000e+00,5.086263286102621350e-07,0.000000000000000000e+00
1.027177095413208008e+00,-1.622134399414062500e+02,-1.534605789184570312e+01,-1.534605789184570312e+01,-2.086486071348190308e-01,1.797913513183593750e+02,2.031381336564663798e-05,-1.167764091491699219e+01,4.251318797469139099e-02,-4.576995138450001832e-07,1.524929888546466827e-03,-2.203054646088276058e-05,-4.840368092118296772e-06,1.156099460786208510e-05,-6.459758733399212360e-04,1.660447887843474746e-04,1.000000000000000000e+00,5.086263286102621350e-07,0.000000000000000000e+00
1.095043420791625977e+00,-1.631336059570312500e+02,-1.534270763397216797e+01,-1.534270763397216797e+01,-2.086486071348190308e-01,1.797913513183593750e+02,2.031381336564663798e-05,-1.167764949798583984e+01,4.251354187726974487e-02,-2.574514894604362780e-07,-1.264702150365337729e-04,5.214700649958103895e-06,2.950624093500664458e-06,4.680174242821522057e-05,-9.461319132242351770e-05,-2.339292695978656411e-04,1.000000000000000000e+00,-1.017252657220524270e-06,0.000000000000000000e+00
1.095043420791625977e+00,-1.631336059570312500e+02,-1.534270763397216797e+01,-1.534270763397216797e+01,-2.086486071348190308e-01,1.797913513183593750e+02,2.031381336564663798e-05,-1.167764949798583984e+01,4.251354187726974487e-02,-2.574514894604362780e-07,-1.264702150365337729e-04,5.214700649958103895e-06,2.950624093500664458e-06,4.680174242821522057e-05,-9.461319132242351770e-05,-2.339292695978656411e-04,1.000000000000000000e+00,-1.017252657220524270e-06,0.000000000000000000e+00
1.095043420791625977e+00,-1.631336059570312500e+02,-1.534270763397216797e+01,-1.534270763397216797e+01,-2.086486071348190308e-01,1.797913513183593750e+02,2.031381336564663798e-05,-1.167764949798583984e+01,4.251354187726974487e-02,-2.574514894604362780e-07,-1.264702150365337729e-04,5.214700649958103895e-06,2.950624093500664458e-06,4.680174242821522057e-05,-9.461319132242351770e-05,-2.339292695978656411e-04,1.000000000000000000e+00,-1.017252657220524270e-06,0.000000000000000000e+00
1.095043420791625977e+00,-1.631336059570312500e+02,-1.534270763397216797e+01,-1.534270763397216797e+01,-2.086486071348190308e-01,1.797913513183593750e+02,2.031381336564663798e-05,-1.167764949798583984e+01,4.251354187726974487e-02,-2.574514894604362780e-07,-1.264702150365337729e-04,5.214700649958103895e-06,2.950624093500664458e-06,4.680174242821522057e-05,-9.461319132242351770e-05,-2.339292695978656411e-04,1.000000000000000000e+00,-1.017252657220524270e-06,0.000000000000000000e+00
1.168572425842285156e+00,-1.639261322021484375e+02,-1.533981990814208984e+01,-1.533981990814208984e+01,-2.086486071348190308e-01,1.797913513183593750e+02,2.031381336564663798e-05,-1.167754936218261719e+01,4.251541569828987122e-02,-4.290951949315058300e-07,1.361854374408721924e-03,2.548410520830657333e-05,-2.334367309231311083e-06,2.131506698788143694e-05,-2.949578920379281044e-04,-3.203467931598424911e-04,1.000000000000000000e+00,-1.017252657220524270e-06,0.000000000000000000e+00
1.168572425842285156e+00,-1.639261322021484375e+02,-1.533981990814208984e+01,-1.533981990814208984e+01,-2.086486071348190308e-01,1.797913513183593750e+02,2.031381336564663798e-05,-1.167754936218261719e+01,4.251541569828987122e-02,-4.290951949315058300e-07,1.361854374408721924e-03,2.548410520830657333e-05,-2.334367309231311083e-06,2.131506698788143694e-05,-2.949578920379281044e-04,-3.203467931598424911e-04,1.000000000000000000e+00,-1.017252657220524270e-06,0.000000000000000000e+00
1.168572425842285156e+00,-1.639261322021484375e+02,-1.533981990814208984e+01,-1.533981990814208984e+01,-2.086486071348190308e-01,1.797913513183593750e+02,2.031381336564663798e-05,-1.167754936218261719e+01,4.251541569828987122e-02,-4.290951949315058300e-07,1.361854374408721924e-03,2.548410520830657333e-05,-2.334367309231311083e-06,2.131506698788143694e-05,-2.949578920379281044e-04,-3.203467931598424911e-04,1.000000000000000000e+00,-1.017252657220524270e-06,0.000000000000000000e+00
1.168572425842285156e+00,-1.639261322021484375e+02,-1.533981990814208984e+01,-1.533981990814208984e+01,-2.086486071348190308e-01,1.797913513183593750e+02,2.031381336564663798e-05,-1.167754936218261719e+01,4.251541569828987122e-02,-4.290951949315058300e-07,1.361854374408721924e-03,2.548410520830657333e-05,-2.334367309231311083e-06,2.131506698788143694e-05,-2.949578920379281044e-04,-3.203467931598424911e-04,1.000000000000000000e+00,-1.017252657220524270e-06,0.000000000000000000e+00
1.168572425842285156e+00,-1.647847442626953125e+02,-1.533669567108154297e+01,-1.533669567108154297e+01,-2.086486071348190308e-01,1.797913513183593750e+02,2.031381336564663798e-05,-1.167750930786132812e+01,4.251915216445922852e-02,-3.337369207656593062e-07,5.337128532119095325e-04,4.978738797944970429e-05,1.270622874471882824e-06,1.221282582264393568e-04,-9.110334940487518907e-05,-3.954230342060327530e-04,1.000000000000000000e+00,-1.017252657220524270e-06,0.000000000000000000e+00
1.243620872497558594e+00,-1.647847442626953125e+02,-1.533669567108154297e+01,-1.533669567108154297e+01,-2.086486071348190308e-01,1.797913513183593750e+02,2.031381336564663798e-05,-1.167750930786132812e+01,4.251915216445922852e-02,-3.337369207656593062e-07,5.337128532119095325e-04,4.978738797944970429e-05,1.270622874471882824e-06,1.221282582264393568e-04,-9.110334940487518907e-05,-3.954230342060327530e-04,1.000000000000000000e+00,-1.017252657220524270e-06,0.000000000000000000e+00
1.243620872497558594e+00,-1.647847442626953125e+02,-1.533669567108154297e+01,-1.533669567108154297e+01,-2.086486071348190308e-01,1.797913513183593750e+02,2.031381336564663798e-05,-1.167750930786132812e+01,4.251915216445922852e-02,-3.337369207656593062e-07,5.337128532119095325e-04,4.978738797944970429e-05,1.270622874471882824e-06,1.221282582264393568e-04,-9.110334940487518907e-05,-3.954230342060327530e-04,1.000000000000000000e+00,-1.017252657220524270e-06,0.000000000000000000e+00
1.243620872497558594e+00,-1.647847442626953125e+02,-1.533669567108154297e+01,-1.533669567108154297e+01,-2.086486071348190308e-01,1.797913513183593750e+02,2.031381336564663798e-05,-1.167750930786132812e+01,4.251915216445922852e-02,-3.337369207656593062e-07,5.337128532119095325e-04,4.978738797944970429e-05,1.270622874471882824e-06,1.221282582264393568e-04,-9.110334940487518907e-05,-3.954230342060327530e-04,1.000000000000000000e+00,-1.017252657220524270e-06,0.000000000000000000e+00
1.312042951583862305e+00,-1.656611022949218750e+02,-1.533350181579589844e+01,-1.533350181579589844e+01,-2.086486071348190308e-01,1.797913513183593750e+02,2.031381336564663798e-05,-1.167750453948974609e+01,4.252714663743972778e-02,-3.432712389894732041e-07,6.969054084038361907e-05,1.168405506177805364e-04,-1.393456443565810332e-07,7.120829832274466753e-05,1.475838071200996637e-04,-8.210471132770180702e-04,1.000000000000000000e+00,-2.543131586207891814e-06,0.000000000000000000e+00
1.312042951583862305e+00,-1.656611022949218750e+02,-1.533350181579589844e+01,-1.533350181579589844e+01,-2.086486071348190308e-01,1.797913513183593750e+02,2.031381336564663798e-05,-1.167750453948974609e+01,4.252714663743972778e-02,-3.432712389894732041e-07,6.969054084038361907e-05,1.168405506177805364e-04,-1.393456443565810332e-07,7.120829832274466753e-05,1.475838071200996637e-04,-8.210471132770180702e-04,1.000000000000000000e+00,-2.543131586207891814e-06,0.000000000000000000e+00
1.383129358291625977e+00,-1.664601287841796875e+02,-1.533059024810791016e+01,-1.533059024810791016e+01,-2.087100744247436523e-01,1.797912445068359375e+02,3.642527417468954809e-06,-1.167743110656738281e+01,4.253646731376647949e-02,1.144252550488999987e-07,1.033009262755513191e-03,1.311175583396106958e-04,6.438593572966055945e-06,5.803803287562914193e-05,-6.462694727815687656e-05,-8.132638176903128624e-04,1.000000000000000000e+00,-2.034505314441048540e-06,0.000000000000000000e+00
1.383129358291625977e+00,-1.664601287841796875e+02,-1.533059024810791016e+01,-1.533059024810791016e+01,-2.087100744247436523e-01,1.797912445068359375e+02,3.642527417468954809e-06,-1.167743110656738281e+01,4.253646731376647949e-02,1.144252550488999987e-07,1.033009262755513191e-03,1.311175583396106958e-04,6.438593572966055945e-06,5.803803287562914193e-05,-6.462694727815687656e-05,-8.132638176903128624e-04,1.000000000000000000e+00,-2.034505314441048540e-06,0.000000000000000000e+00
1.383129358291625977e+00,-1.664601287841796875e+02,-1.533059024810791016e+01,-1.533059024810791016e+01,-2.087100744247436523e-01,1.797912445068359375e+02,3.642527417468954809e-06,-1.167743110656738281e+01,4.253646731376647949e-02,1.144252550488999987e-07,1.033009262755513191e-03,1.311175583396106958e-04,6.438593572966055945e-06,5.803803287562914193e-05,-6.462694727815687656e-05,-8.132638176903128624e-04,1.000000000000000000e+00,-2.034505314441048540e-06,0.000000000000000000e+00
1.450951814651489258e+00,-1.672902069091796875e+02,-1.532756900787353516e+01,-1.532756900787353516e+01,-2.087100744247436523e-01,1.797912445068359375e+02,3.642527417468954809e-06,-1.167738723754882812e+01,4.254008829593658447e-02,9.058617820301151369e-07,6.468214560300111771e-04,5.338913251762278378e-05,1.166924084827769548e-05,9.097758265852462500e-06,-6.603322981391102076e-05,4.827458178624510765e-04,1.000000000000000000e+00,3.051757857974735089e-06,0.000000000000000000e+00
1.450951814651489258e+00,-1.672902069091796875e+02,-1.532756900787353516e+01,-1.532756900787353516e+01,-2.087100744247436523e-01,1.797912445068359375e+02,3.642527417468954809e-06,-1.167738723754882812e+01,4.254008829593658447e-02,9.058617820301151369e-07,6.468214560300111771e-04,5.338913251762278378e-05,1.166924084827769548e-05,9.097758265852462500e-06,-6.603322981391102076e-05,4.827458178624510765e-04,1.000000000000000000e+00,3.051757857974735089e-06,0.000000000000000000e+00
1.450951814651489258e+00,-1.672902069091796875e+02,-1.532756900787353516e+01,-1.532756900787353516e+01,-2.087100744247436523e-01,1.797912445068359375e+02,3.642527417468954809e-06,-1.167738723754882812e+01,4.254008829593658447e-02,9.058617820301151369e-07,6.468214560300111771e-04,5.338913251762278378e-05,1.166924084827769548e-05,9.097758265852462500e-06,-6.603322981391102076e-05,4.827458178624510765e-04,1.000000000000000000e+00,3.051757857974735089e-06,0.000000000000000000e+00
1.527701377868652344e+00,-1.680821990966796875e+02,-1.532468223571777344e+01,-1.532468223571777344e+01,-2.087100744247436523e-01,1.797912445068359375e+02,3.642527417468954809e-06,-1.167732143402099609e+01,4.253728315234184265e-02,-2.765280271432857262e-07,8.573798695579171181e-04,-3.654931060736998916e-05,-1.540581797598861158e-05,2.018356281041633338e-05,-5.461485852720215917e-05,7.716264226473867893e-04,1.000000000000000000e+00,2.543131586207891814e-06,0.000000000000000000e+00
1.527701377868652344e+00,-1.680821990966796875e+02,-1.532468223571777344e+01,-1.532468223571777344e+01,-2.087100744247436523e-01,1.797912445068359375e+02,3.642527417468954809e-06,-1.167732143402099609e+01,4.253728315234184265e-02,-2.765280271432857262e-07,8.573798695579171181e-04,-3.654931060736998916e-05,-1.540581797598861158e-05,2.018356281041633338e-05,-5.461485852720215917e-05,7.716264226473867893e-04,1.000000000000000000e+00,2.543131586207891814e-06,0.000000000000000000e+00
1.527701377868652344e+00,-1.680821990966796875e+02,-1.532468223571777344e+01,-1.532468223571777344e+01,-2.087100744247436523e-01,1.797912445068359375e+02,3.642527417468954809e-06,-1.167732143402099609e+01,4.253728315234184265e-02,-2.765280271432857262e-07,8.573798695579171181e-04,-3.654931060736998916e-05,-1.540581797598861158e-05,2.018356281041633338e-05,-5.461485852720215917e-05,7.716264226473867893e-04,1.000000000000000000e+00,2.543131586207891814e-06,0.000000000000000000e+00
1.600134611129760742e+00,-1.689783935546875000e+02,-1.532141780853271484e+01,-1.532141780853271484e+01,-2.087100744247436523e-01,1.797913818359375000e+02,4.255425665178336203e-06,-1.167737197875976562e+01,4.252619668841362000e-02,5.149050821273704059e-07,-6.978114251978695393e-04,-1.530576992081478238e-04,1.092638103727949783e-05,-6.862884038127958775e-05,3.216978802811354399e-04,1.221284270286560059e-03,1.000000000000000000e+00,3.560384129741578363e-06,0.000000000000000000e+00
1.600134611129760742e+00,-1.689783935546875000e+02,-1.532141780853271484e+01,-1.532141780853271484e+01,-2.087100744247436523e-01,1.797913818359375000e+02,4.255425665178336203e-06,-1.167737197875976562e+01,4.252619668841362000e-02,5.149050821273704059e-07,-6.978114251978695393e-04,-1.530576992081478238e-04,1.092638103727949783e-05,-6.862884038127958775e-05,3.216978802811354399e-04,1.221284270286560059e-03,1.000000000000000000e+00,3.560384129741578363e-06,0.000000000000000000e+00
1.600134611129760742e+00,-1.689783935546875000e+02,-1.532141780853271484e+01,-1.532141780853271484e+01,-2.087100744247436523e-01,1.797913818359375000e+02,4.255425665178336203e-06,-1.167737197875976562e+01,4.252619668841362000e-02,5.149050821273704059e-07,-6.978114251978695393e-04,-1.530576992081478238e-04,1.092638103727949783e-05,-6.862884038127958775e-05,3.216978802811354399e-04,1.221284270286560059e-03,1.000000000000000000e+00,3.560384129741578363e-06,0.000000000000000000e+00
1.600134611129760742e+00,-1.689783935546875000e+02,-1.532141780853271484e+01,-1.532141780853271484e+01,-2.087100744247436523e-01,1.797913818359375000e+02,4.255425665178336203e-06,-1.167737197875976562e+01,4.252619668841362000e-02,5.149050821273704059e-07,-6.978114251978695393e-04,-1.530576992081478238e-04,1.092638103727949783e-05,-6.862884038127958775e-05,3.216978802811354399e-04,1.221284270286560059e-03,1.000000000000000000e+00,3.560384129741578363e-06,0.000000000000000000e+00
1.600134611129760742e+00,-1.689783935546875000e+02,-1.532141780853271484e+01,-1.532141780853271484e+01,-2.087100744247436523e-01,1.797913818359375000e+02,4.255425665178336203e-06,-1.167737197875976562e+01,4.252619668841362000e-02,5.149050821273704059e-07,-6.978114251978695393e-04,-1.530576992081478238e-04,1.092638103727949783e-05,-6.862884038127958775e-05,3.216978802811354399e-04,1.221284270286560059e-03,1.000000000000000000e+00,3.560384129741578363e-06,0.000000000000000000e+00
1.600134611129760742e+00,-1.698241882324218750e+02,-1.531833553314208984e+01,-1.531833553314208984e+01,-2.087100744247436523e-01,1.797913818359375000e+02,4.255425665178336203e-06,-1.167737197875976562e+01,4.251925274729728699e-02,3.909498218490625732e-07,0.000000000000000000e+00,-6.018382555339485407e-05,-1.074332544703793246e-06,-4.922888911096379161e-05,2.689641842152923346e-04,-1.326065539615228772e-04,1.000000000000000000e+00,-2.034505314441048540e-06,0.000000000000000000e+00
1.715513467788696289e+00,-1.698241882324218750e+02,-1.531833553314208984e+01,-1.531833553314208984e+01,-2.087100744247436523e-01,1.797913818359375000e+02,4.255425665178336203e-06,-1.167737197875976562e+01,4.251925274729728699e-02,3.909498218490625732e-07,0.000000000000000000e+00,-6.018382555339485407e-05,-1.074332544703793246e-06,-4.922888911096379161e-05,2.689641842152923346e-04,-1.326065539615228772e-04,1.000000000000000000e+00,-2.034505314441048540e-06,0.000000000000000000e+00
1.715513467788696289e+00,-1.698241882324218750e+02,-1.531833553314208984e+01,-1.531833553314208984e+01,-2.087100744247436523e-01,1.797913818359375000e+02,4.255425665178336203e-06,-1.167737197875976562e+01,4.251925274729728699e-02,3.909498218490625732e-07,0.000000000000000000e+00,-6.018382555339485407e-05,-1.074332544703793246e-06,-4.922888911096379161e-05,2.689641842152923346e-04,-1.326065539615228772e-04,1.000000000000000000e+00,-2.034505314441048540e-06,0.000000000000000000e+00
1.715513467788696289e+00,-1.709919738769531250e+02,-1.531408023834228516e+01,-1.531408023834228516e+01,-2.087100744247436523e-01,1.797913818359375000e+02,4.255425665178336203e-06,-1.167753505706787109e+01,4.251768812537193298e-02,1.392132389810285531e-06,-1.670856028795242310e-03,-1.603069176780991256e-05,1.025784513331018388e-05,2.205393138865474612e-05,6.516794092021882534e-04,-2.907445013988763094e-04,1.000000000000000000e+00,-1.017252657220524270e-06,0.000000000000000000e+00
1.813115119934082031e+00,-1.709919738769531250e+02,-1.531408023834228516e+01,-1.531408023834228516e+01,-2.087100744247436523e-01,1.797913818359375000e+02,4.255425665178336203e-06,-1.167753505706787109e+01,4.251768812537193298e-02,1.392132389810285531e-06,-1.670856028795242310e-03,-1.603069176780991256e-05,1.025784513331018388e-05,2.205393138865474612e-05,6.516794092021882534e-04,-2.907445013988763094e-04,1.000000000000000000e+00,-1.017252657220524270e-06,0.000000000000000000e+00
1.813115119934082031e+00,-1.709919738769531250e+02,-1.531408023834228516e+01,-1.531408023834228516e+01,-2.087100744247436523e-01,1.797913818359375000e+02,4.255425665178336203e-06,-1.167753505706787109e+01,4.251768812537193298e-02,1.392132389810285531e-06,-1.670856028795242310e-03,-1.603069176780991256e-05,1.025784513331018388e-05,2.205393138865474612e-05,6.516794092021882534e-04,-2.907445013988763094e-04,1.000000000000000000e+00,-1.017252657220524270e-06,0.000000000000000000e+00
1.813115119934082031e+00,-1.709919738769531250e+02,-1.531408023834228516e+01,-1.531408023834228516e+01,-2.087100744247436523e-01,1.797913818359375000e+02,4.255425665178336203e-06,-1.167753505706787109e+01,4.251768812537193298e-02,1.392132389810285531e-06,-1.670856028795242310e-03,-1.603069176780991256e-05,1.025784513331018388e-05,2.205393138865474612e-05,6.516794092021882534e-04,-2.907445013988763094e-04,1.000000000000000000e+00,-1.017252657220524270e-06,0.000000000000000000e+00
1.813115119934082031e+00,-1.721317291259765625e+02,-1.530992794036865234e+01,-1.530992794036865234e+01,-2.085871398448944092e-01,1.797913665771484375e+02,6.868170032703346806e-08,-1.167764663696289062e+01,4.252123832702636719e-02,-1.239574913824981195e-07,-1.344016520306468010e-03,4.276334584574215114e-05,-1.826180232455953956e-05,-1.288812381972093135e-05,4.518489004112780094e-04,-2.313728327862918377e-04,1.000000000000000000e+00,-5.086263286102621350e-07,0.000000000000000000e+00
1.896134853363037109e+00,-1.721317291259765625e+02,-1.530992794036865234e+01,-1.530992794036865234e+01,-2.085871398448944092e-01,1.797913665771484375e+02,6.868170032703346806e-08,-1.167764663696289062e+01,4.252123832702636719e-02,-1.239574913824981195e-07,-1.344016520306468010e-03,4.276334584574215114e-05,-1.826180232455953956e-05,-1.288812381972093135e-05,4.518489004112780094e-04,-2.313728327862918377e-04,1.000000000000000000e+00,-5.086263286102621350e-07,0.000000000000000000e+00
1.896134853363037109e+00,-1.721317291259765625e+02,-1.530992794036865234e+01,-1.530992794036865234e+01,-2.085871398448944092e-01,1.797913665771484375e+02,6.868170032703346806e-08,-1.167764663696289062e+01,4.252123832702636719e-02,-1.239574913824981195e-07,-1.344016520306468010e-03,4.276334584574215114e-05,-1.826180232455953956e-05,-1.288812381972093135e-05,4.518489004112780094e-04,-2.313728327862918377e-04,1.000000000000000000e+00,-5.086263286102621350e-07,0.000000000000000000e+00
1.896134853363037109e+00,-1.721317291259765625e+02,-1.530992794036865234e+01,-1.530992794036865234e+01,-2.085871398448944092e-01,1.797913665771484375e+02,6.868170032703346806e-08,-1.167764663696289062e+01,4.252123832702636719e-02,-1.239574913824981195e-07,-1.344016520306468010e-03,4.276334584574215114e-05,-1.826180232455953956e-05,-1.288812381972093135e-05,4.518489004112780094e-04,-2.313728327862918377e-04,1.000000000000000000e+00,-5.086263286102621350e-07,0.000000000000000000e+00
1.896134853363037109e+00,-1.721317291259765625e+02,-1.530992794036865234e+01,-1.530992794036865234e+01,-2.085871398448944092e-01,1.797913665771484375e+02,6.868170032703346806e-08,-1.167764663696289062e+01,4.252123832702636719e-02,-1.239574913824981195e-07,-1.344016520306468010e-03,4.276334584574215114e-05,-1.826180232455953956e-05,-1.288812381972093135e-05,4.518489004112780094e-04,-2.313728327862918377e-04,1.000000000000000000e+00,-5.086263286102621350e-07,0.000000000000000000e+00
1.896134853363037109e+00,-1.721317291259765625e+02,-1.530992794036865234e+01,-1.530992794036865234e+01,-2.085871398448944092e-01,1.797913665771484375e+02,6.868170032703346806e-08,-1.167764663696289062e+01,4.252123832702636719e-02,-1.239574913824981195e-07,-1.344016520306468010e-03,4.276334584574215114e-05,-1.826180232455953956e-05,-1.288812381972093135e-05,4.518489004112780094e-04,-2.313728327862918377e-04,1.000000000000000000e+00,-5.086263286102621350e-07,0.000000000000000000e+00
1.896134853363037109e+00,-1.721317291259765625e+02,-1.530992794036865234e+01,-1.530992794036865234e+01,-2.085871398448944092e-01,1.797913665771484375e+02,6.868170032703346806e-08,-1.167764663696289062e+01,4.252123832702636719e-02,-1.239574913824981195e-07,-1.344016520306468010e-03,4.276334584574215114e-05,-1.826180232455953956e-05,-1.288812381972093135e-05,4.518489004112780094e-04,-2.313728327862918377e-04,1.000000000000000000e+00,-5.086263286102621350e-07,0.000000000000000000e+00
1.896134853363037109e+00,-1.721317291259765625e+02,-1.530992794036865234e+01,-1.530992794036865234e+01,-2.085871398448944092e-01,1.797913665771484375e+02,6.868170032703346806e-08,-1.167764663696289062e+01,4.252123832702636719e-02,-1.239574913824981195e-07,-1.344016520306468010e-03,4.276334584574215114e-05,-1.826180232455953956e-05,-1.288812381972093135e-05,4.518489004112780094e-04,-2.313728327862918377e-04,1.000000000000000000e+00,-5.086263286102621350e-07,0.000000000000000000e+00
2.195794820785522461e+00,-1.752924499511718750e+02,-1.529841613769531250e+01,-1.529841613769531250e+01,-2.085871398448944092e-01,1.797913665771484375e+02,6.868170032703346806e-08,-1.167773437500000000e+01,4.251665994524955750e-02,-6.865451496196328662e-07,1.671211561188101768e-03,-6.759815005352720618e-05,-2.656319053606637226e-10,-3.445404945523478091e-05,-5.278154858388006687e-04,2.181581221520900726e-04,1.000000000000000000e+00,5.086263286102621350e-07,0.000000000000000000e+00
2.195794820785522461e+00,-1.752924499511718750e+02,-1.529841613769531250e+01,-1.529841613769531250e+01,-2.085871398448944092e-01,1.797913665771484375e+02,6.868170032703346806e-08,-1.167773437500000000e+01,4.251665994524955750e-02,-6.865451496196328662e-07,1.671211561188101768e-03,-6.759815005352720618e-05,-2.656319053606637226e-10,-3.445404945523478091e-05,-5.278154858388006687e-04,2.181581221520900726e-04,1.000000000000000000e+00,5.086263286102621350e-07,0.000000000000000000e+00
2.195794820785522461e+00,-1.752924499511718750e+02,-1.529841613769531250e+01,-1.529841613769531250e+01,-2.085871398448944092e-01,1.797913665771484375e+02,6.868170032703346806e-08,-1.167773437500000000e+01,4.251665994524955750e-02,-6.865451496196328662e-07,1.671211561188101768e-03,-6.759815005352720618e-05,-2.656319053606637226e-10,-3.445404945523478091e-05,-5.278154858388006687e-04,2.181581221520900726e-04,1.000000000000000000e+00,5.086263286102621350e-07,0.000000000000000000e+00
2.195794820785522461e+00,-1.752924499511718750e+02,-1.529841613769531250e+01,-1.529841613769531250e+01,-2.085871398448944092e-01,1.797913665771484375e+02,6.868170032703346806e-08,-1.167773437500000000e+01,4.251665994524955750e-02,-6.865451496196328662e-07,1.671211561188101768e-03,-6.759815005352720618e-05,-2.656319053606637226e-10,-3.445404945523478091e-05,-5.278154858388006687e-04,2.181581221520900726e-04,1.000000000000000000e+00,5.086263286102621350e-07,0.000000000000000000e+00
2.195794820785522461e+00,-1.752924499511718750e+02,-1.529841613769531250e+01,-1.529841613769531250e+01,-2.085871398448944092e-01,1.797913665771484375e+02,6.868170032703346806e-08,-1.167773437500000000e+01,4.251665994524955750e-02,-6.865451496196328662e-07,1.671211561188101768e-03,-6.759815005352720618e-05,-2.656319053606637226e-10,-3.445404945523478091e-05,-5.278154858388006687e-04,2.181581221520900726e-04,1.000000000000000000e+00,5.086263286102621350e-07,0.000000000000000000e+00
2.195794820785522461e+00,-1.752924499511718750e+02,-1.529841613769531250e+01,-1.529841613769531250e+01,-2.085871398448944092e-01,1.797913665771484375e+02,6.868170032703346806e-08,-1.167773437500000000e+01,4.251665994524955750e-02,-6.865451496196328662e-07,1.671211561188101768e-03,-6.759815005352720618e-05,-2.656319053606637226e-10,-3.445404945523478091e-05,-5.278154858388006687e-04,2.181581221520900726e-04,1.000000000000000000e+00,5.086263286102621350e-07,0.000000000000000000e+00
2.195794820785522461e+00,-1.752924499511718750e+02,-1.529841613769531250e+01,-1.529841613769531250e+01,-2.085871398448944092e-01,1.797913665771484375e+02,6.868170032703346806e-08,-1.167773437500000000e+01,4.251665994524955750e-02,-6.865451496196328662e-07,1.671211561188101768e-03,-6.759815005352720618e-05,-2.656319053606637226e-10,-3.445404945523478091e-05,-5.278154858388006687e-04,2.181581221520900726e-04,1.000000000000000000e+00,5.086263286102621350e-07,0.000000000000000000e+00
2.195794820785522461e+00,-1.752924499511718750e+02,-1.529841613769531250e+01,-1.529841613769531250e+01,-2.085871398448944092e-01,1.797913665771484375e+02,6.868170032703346806e-08,-1.167773437500000000e+01,4.251665994524955750e-02,-6.865451496196328662e-07,1.671211561188101768e-03,-6.759815005352720618e-05,-2.656319053606637226e-10,-3.445404945523478091e-05,-5.278154858388006687e-04,2.181581221520900726e-04,1.000000000000000000e+00,5.086263286102621350e-07,0.000000000000000000e+00
2.195794820785522461e+00,-1.752924499511718750e+02,-1.529841613769531250e+01,-1.529841613769531250e+01,-2.085871398448944092e-01,1.797913665771484375e+02,6.868170032703346806e-08,-1.167773437500000000e+01,4.251665994524955750e-02,-6.865451496196328662e-07,1.671211561188101768e-03,-6.759815005352720618e-05,-2.656319053606637226e-10,-3.445404945523478091e-05,-5.278154858388006687e-04,2.181581221520900726e-04,1.000000000000000000e+00,5.086263286102621350e-07,0.000000000000000000e+00
2.195794820785522461e+00,-1.752924499511718750e+02,-1.529841613769531250e+01,-1.529841613769531250e+01,-2.085871398448944092e-01,1.797913665771484375e+02,6.868170032703346806e-08,-1.167773437500000000e+01,4.251665994524955750e-02,-6.865451496196328662e-07,1.671211561188101768e-03,-6.759815005352720618e-05,-2.656319053606637226e-10,-3.445404945523478091e-05,-5.278154858388006687e-04,2.181581221520900726e-04,1.000000000000000000e+00,5.086263286102621350e-07,0.000000000000000000e+00
2.374083757400512695e+00,-1.759122161865234375e+02,-1.529616069793701172e+01,-1.529616069793701172e+01,-2.085871398448944092e-01,1.797913665771484375e+02,6.868170032703346806e-08,-1.167762279510498047e+01,4.251249879598617554e-02,-6.198060873430222273e-07,6.258374196477234364e-04,-2.333935663045849651e-05,3.743309093806601595e-07,-5.692435297532938421e-05,-8.895768551155924797e-04,5.541259888559579849e-04,1.000000000000000000e+00,2.034505314441048540e-06,0.000000000000000000e+00
2.374083757400512695e+00,-1.759122161865234375e+02,-1.529616069793701172e+01,-1.529616069793701172e+01,-2.085871398448944092e-01,1.797913665771484375e+02,6.868170032703346806e-08,-1.167762279510498047e+01,4.251249879598617554e-02,-6.198060873430222273e-07,6.258374196477234364e-04,-2.333935663045849651e-05,3.743309093806601595e-07,-5.692435297532938421e-05,-8.895768551155924797e-04,5.541259888559579849e-04,1.000000000000000000e+00,2.034505314441048540e-06,0.000000000000000000e+00
2.374083757400512695e+00,-1.759122161865234375e+02,-1.529616069793701172e+01,-1.529616069793701172e+01,-2.085871398448944092e-01,1.797913665771484375e+02,6.868170032703346806e-08,-1.167762279510498047e+01,4.251249879598617554e-02,-6.198060873430222273e-07,6.258374196477234364e-04,-2.333935663045849651e-05,3.743309093806601595e-07,-5.692435297532938421e-05,-8.895768551155924797e-04,5.541259888559579849e-04,1.000000000000000000e+00,2.034505314441048540e-06,0.000000000000000000e+00
2.447860002517700195e+00,-1.770800018310546875e+02,-1.529191207885742188e+01,-1.529191207885742188e+01,-2.086486071348190308e-01,1.797915039062500000e+02,0.000000000000000000e+00,-1.167771244049072266e+01,4.250075668096542358e-02,-5.148983177605259698e-07,-1.215098309330642223e-03,-1.591584878042340279e-04,1.421972228854428977e-06,-4.731691296910867095e-05,7.031172572169452906e-05,9.174465667456388474e-04,1.000000000000000000e+00,2.543131586207891814e-06,0.000000000000000000e+00
2.447860002517700195e+00,-1.770800018310546875e+02,-1.529191207885742188e+01,-1.529191207885742188e+01,-2.086486071348190308e-01,1.797915039062500000e+02,0.000000000000000000e+00,-1.167771244049072266e+01,4.250075668096542358e-02,-5.148983177605259698e-07,-1.215098309330642223e-03,-1.591584878042340279e-04,1.421972228854428977e-06,-4.731691296910867095e-05,7.031172572169452906e-05,9.174465667456388474e-04,1.000000000000000000e+00,2.543131586207891814e-06,0.000000000000000000e+00
2.500878810882568359e+00,-1.779415130615234375e+02,-1.528877544403076172e+01,-1.528877544403076172e+01,-2.086486071348190308e-01,1.797915039062500000e+02,0.000000000000000000e+00,-1.167766952514648438e+01,4.250533133745193481e-02,-6.579381306437426247e-07,8.094361983239650726e-04,8.628365321783348918e-05,-2.697906893445178866e-06,1.494203115726122633e-05,-1.472663570893928409e-04,-1.890532206743955612e-03,1.000000000000000000e+00,-8.138021257764194161e-06,0.000000000000000000e+00
2.500878810882568359e+00,-1.779415130615234375e+02,-1.528877544403076172e+01,-1.528877544403076172e+01,-2.086486071348190308e-01,1.797915039062500000e+02,0.000000000000000000e+00,-1.167766952514648438e+01,4.250533133745193481e-02,-6.579381306437426247e-07,8.094361983239650726e-04,8.628365321783348918e-05,-2.697906893445178866e-06,1.494203115726122633e-05,-1.472663570893928409e-04,-1.890532206743955612e-03,1.000000000000000000e+00,-8.138021257764194161e-06,0.000000000000000000e+00
2.560195446014404297e+00,-1.785606536865234375e+02,-1.528651809692382812e+01,-1.528651809692382812e+01,-2.086486071348190308e-01,1.797912597656250000e+02,0.000000000000000000e+00,-1.167756843566894531e+01,4.252003878355026245e-02,1.716386179850815097e-07,1.704234862700104713e-03,2.479480754118412733e-04,1.398556560161523521e-05,5.726464587496593595e-05,-5.488071474246680737e-04,-2.919995458796620369e-03,1.000000000000000000e+00,-9.663899618317373097e-06,0.000000000000000000e+00
2.560195446014404297e+00,-1.785606536865234375e+02,-1.528651809692382812e+01,-1.528651809692382812e+01,-2.086486071348190308e-01,1.797912597656250000e+02,0.000000000000000000e+00,-1.167756843566894531e+01,4.252003878355026245e-02,1.716386179850815097e-07,1.704234862700104713e-03,2.479480754118412733e-04,1.398556560161523521e-05,5.726464587496593595e-05,-5.488071474246680737e-04,-2.919995458796620369e-03,1.000000000000000000e+00,-9.663899618317373097e-06,0.000000000000000000e+00
2.560195446014404297e+00,-1.785606536865234375e+02,-1.528651809692382812e+01,-1.528651809692382812e+01,-2.086486071348190308e-01,1.797912597656250000e+02,0.000000000000000000e+00,-1.167756843566894531e+01,4.252003878355026245e-02,1.716386179850815097e-07,1.704234862700104713e-03,2.479480754118412733e-04,1.398556560161523521e-05,5.726464587496593595e-05,-5.488071474246680737e-04,-2.919995458796620369e-03,1.000000000000000000e+00,-9.663899618317373097e-06,0.000000000000000000e+00
2.618730545043945312e+00,-1.792533111572265625e+02,-1.528399372100830078e+01,-1.528399372100830078e+01,-2.086486071348190308e-01,1.797912597656250000e+02,0.000000000000000000e+00,-1.167753028869628906e+01,4.253474995493888855e-02,-1.239592677393375197e-07,6.516940193250775337e-04,2.513222279958426952e-04,-5.049925221101148054e-06,8.557146065868437290e-05,-2.564861206337809563e-04,-7.809342932887375355e-04,1.000000000000000000e+00,1.525878928987367544e-06,0.000000000000000000e+00
2.618730545043945312e+00,-1.792533111572265625e+02,-1.528399372100830078e+01,-1.528399372100830078e+01,-2.086486071348190308e-01,1.797912597656250000e+02,0.000000000000000000e+00,-1.167753028869628906e+01,4.253474995493888855e-02,-1.239592677393375197e-07,6.516940193250775337e-04,2.513222279958426952e-04,-5.049925221101148054e-06,8.557146065868437290e-05,-2.564861206337809563e-04,-7.809342932887375355e-04,1.000000000000000000e+00,1.525878928987367544e-06,0.000000000000000000e+00
2.677334070205688477e+00,-1.799368286132812500e+02,-1.528150367736816406e+01,-1.528150367736816406e+01,-2.086486071348190308e-01,1.797912597656250000e+02,0.000000000000000000e+00,-1.167750453948974609e+01,4.254450649023056030e-02,2.860604126908583567e-07,4.393798299133777618e-04,1.664837618591263890e-04,6.996502179390517995e-06,1.402308844262734056e-04,-1.448220136808231473e-04,2.598169958218932152e-04,1.000000000000000000e+00,3.051757857974735089e-06,0.000000000000000000e+00
2.677334070205688477e+00,-1.799368286132812500e+02,-1.528150367736816406e+01,-1.528150367736816406e+01,-2.086486071348190308e-01,1.797912597656250000e+02,0.000000000000000000e+00,-1.167750453948974609e+01,4.254450649023056030e-02,2.860604126908583567e-07,4.393798299133777618e-04,1.664837618591263890e-04,6.996502179390517995e-06,1.402308844262734056e-04,-1.448220136808231473e-04,2.598169958218932152e-04,1.000000000000000000e+00,3.051757857974735089e-06,0.000000000000000000e+00
2.677334070205688477e+00,-1.799368286132812500e+02,-1.528150367736816406e+01,-1.528150367736816406e+01,-2.086486071348190308e-01,1.797912597656250000e+02,0.000000000000000000e+00,-1.167750453948974609e+01,4.254450649023056030e-02,2.860604126908583567e-07,4.393798299133777618e-04,1.664837618591263890e-04,6.996502179390517995e-06,1.402308844262734056e-04,-1.448220136808231473e-04,2.598169958218932152e-04,1.000000000000000000e+00,3.051757857974735089e-06,0.000000000000000000e+00
2.677334070205688477e+00,-1.806212005615234375e+02,-1.527900886535644531e+01,-1.527900886535644531e+01,-2.086486071348190308e-01,1.797912597656250000e+02,0.000000000000000000e+00,-1.167748546600341797e+01,4.254417866468429565e-02,1.144241466022322129e-07,2.455049543641507626e-04,-4.219616585032781586e-06,-2.209221293014707044e-06,4.116228592465631664e-05,-2.001884240598883480e-05,1.091307727620005608e-03,1.000000000000000000e+00,4.577636900648940355e-06,0.000000000000000000e+00
2.755024909973144531e+00,-1.806212005615234375e+02,-1.527900886535644531e+01,-1.527900886535644531e+01,-2.086486071348190308e-01,1.797912597656250000e+02,0.000000000000000000e+00,-1.167748546600341797e+01,4.254417866468429565e-02,1.144241466022322129e-07,2.455049543641507626e-04,-4.219616585032781586e-06,-2.209221293014707044e-06,4.116228592465631664e-05,-2.001884240598883480e-05,1.091307727620005608e-03,1.000000000000000000e+00,4.577636900648940355e-06,0.000000000000000000e+00
2.755024909973144531e+00,-1.806212005615234375e+02,-1.527900886535644531e+01,-1.527900886535644531e+01,-2.086486071348190308e-01,1.797912597656250000e+02,0.000000000000000000e+00,-1.167748546600341797e+01,4.254417866468429565e-02,1.144241466022322129e-07,2.455049543641507626e-04,-4.219616585032781586e-06,-2.209221293014707044e-06,4.116228592465631664e-05,-2.001884240598883480e-05,1.091307727620005608e-03,1.000000000000000000e+00,4.577636900648940355e-06,0.000000000000000000e+00
2.755024909973144531e+00,-1.806212005615234375e+02,-1.527900886535644531e+01,-1.527900886535644531e+01,-2.086486071348190308e-01,1.797912597656250000e+02,0.000000000000000000e+00,-1.167748546600341797e+01,4.254417866468429565e-02,1.144241466022322129e-07,2.455049543641507626e-04,-4.219616585032781586e-06,-2.209221293014707044e-06,4.116228592465631664e-05,-2.001884240598883480e-05,1.091307727620005608e-03,1.000000000000000000e+00,4.577636900648940355e-06,0.000000000000000000e+00
2.830169916152954102e+00,-1.815284271240234375e+02,-1.527570438385009766e+01,-1.527570438385009766e+01,-2.086486071348190308e-01,1.797912597656250000e+02,0.000000000000000000e+00,-1.167751789093017578e+01,4.253374785184860229e-02,-4.767630557012125792e-08,-4.314980760682374239e-04,-1.388091186527162790e-04,-2.157168637495487928e-06,8.276475273305550218e-05,2.655464923009276390e-04,1.279938267543911934e-03,1.000000000000000000e+00,3.560384129741578363e-06,0.000000000000000000e+00
2.830169916152954102e+00,-1.815284271240234375e+02,-1.527570438385009766e+01,-1.527570438385009766e+01,-2.086486071348190308e-01,1.797912597656250000e+02,0.000000000000000000e+00,-1.167751789093017578e+01,4.253374785184860229e-02,-4.767630557012125792e-08,-4.314980760682374239e-04,-1.388091186527162790e-04,-2.157168637495487928e-06,8.276475273305550218e-05,2.655464923009276390e-04,1.279938267543911934e-03,1.000000000000000000e+00,3.560384129741578363e-06,0.000000000000000000e+00
2.830169916152954102e+00,-1.815284271240234375e+02,-1.527570438385009766e+01,-1.527570438385009766e+01,-2.086486071348190308e-01,1.797912597656250000e+02,0.000000000000000000e+00,-1.167751789093017578e+01,4.253374785184860229e-02,-4.767630557012125792e-08,-4.314980760682374239e-04,-1.388091186527162790e-04,-2.157168637495487928e-06,8.276475273305550218e-05,2.655464923009276390e-04,1.279938267543911934e-03,1.000000000000000000e+00,3.560384129741578363e-06,0.000000000000000000e+00
2.830169916152954102e+00,-1.815284271240234375e+02,-1.527570438385009766e+01,-1.527570438385009766e+01,-2.086486071348190308e-01,1.797912597656250000e+02,0.000000000000000000e+00,-1.167751789093017578e+01,4.253374785184860229e-02,-4.767630557012125792e-08,-4.314980760682374239e-04,-1.388091186527162790e-04,-2.157168637495487928e-06,8.276475273305550218e-05,2.655464923009276390e-04,1.279938267543911934e-03,1.000000000000000000e+00,3.560384129741578363e-06,0.000000000000000000e+00
2.830169916152954102e+00,-1.815284271240234375e+02,-1.527570438385009766e+01,-1.527570438385009766e+01,-2.086486071348190308e-01,1.797912597656250000e+02,0.000000000000000000e+00,-1.167751789093017578e+01,4.253374785184860229e-02,-4.767630557012125792e-08,-4.314980760682374239e-04,-1.388091186527162790e-04,-2.157168637495487928e-06,8.276475273305550218e-05,2.655464923009276390e-04,1.279938267543911934e-03,1.000000000000000000e+00,3.560384129741578363e-06,0.000000000000000000e+00
