# Time,X,Y,Z,Roll,Pitch,Yaw,Vx,Vy,Vz,Ax,Ay,Az,Wx,Wy,Wz,Throttle,Steer,Brake
0.000000000000000000e+00,-6.511837005615234375e+00,2.266732788085937500e+02,2.266732788085937500e+02,0.000000000000000000e+00,8.907849121093750000e+01,7.924072065179643687e-07,1.091741008707458604e-08,-3.309655838279468298e-08,6.509242230094969273e-04,2.887283478969493444e-08,-6.684298909931385424e-07,7.778949569910764694e-03,-3.225584441679529846e-05,-1.006707407213980332e-05,-1.648422909283908666e-08,0.000000000000000000e+00,8.761088247410953045e-04,1.000000000000000000e+00
1.045818328857421875e-01,-6.511837005615234375e+00,2.266732788085937500e+02,2.266732788085937500e+02,0.000000000000000000e+00,8.907849121093750000e+01,7.924072065179643687e-07,1.091741008707458604e-08,-3.309655838279468298e-08,6.509242230094969273e-04,2.887283478969493444e-08,-6.684298909931385424e-07,7.778949569910764694e-03,-3.225584441679529846e-05,-1.006707407213980332e-05,-1.648422909283908666e-08,0.000000000000000000e+00,8.761088247410953045e-04,1.000000000000000000e+00
1.045818328857421875e-01,-6.511837005615234375e+00,2.266732788085937500e+02,2.266732788085937500e+02,0.000000000000000000e+00,8.907849121093750000e+01,7.924072065179643687e-07,1.091741008707458604e-08,-3.309655838279468298e-08,6.509242230094969273e-04,2.887283478969493444e-08,-6.684298909931385424e-07,7.778949569910764694e-03,-3.225584441679529846e-05,-1.006707407213980332e-05,-1.648422909283908666e-08,0.000000000000000000e+00,8.761088247410953045e-04,1.000000000000000000e+00
1.045818328857421875e-01,-6.511837005615234375e+00,2.266732788085937500e+02,2.266732788085937500e+02,0.000000000000000000e+00,8.907849121093750000e+01,7.924072065179643687e-07,1.091741008707458604e-08,-3.309655838279468298e-08,6.509242230094969273e-04,2.887283478969493444e-08,-6.684298909931385424e-07,7.778949569910764694e-03,-3.225584441679529846e-05,-1.006707407213980332e-05,-1.648422909283908666e-08,0.000000000000000000e+00,8.761088247410953045e-04,1.000000000000000000e+00
1.045818328857421875e-01,-6.511837005615234375e+00,2.266732788085937500e+02,2.266732788085937500e+02,0.000000000000000000e+00,8.907849121093750000e+01,7.924072065179643687e-07,1.091741008707458604e-08,-3.309655838279468298e-08,6.509242230094969273e-04,2.887283478969493444e-08,-6.684298909931385424e-07,7.778949569910764694e-03,-3.225584441679529846e-05,-1.006707407213980332e-05,-1.648422909283908666e-08,0.000000000000000000e+00,8.761088247410953045e-04,1.000000000000000000e+00
1.045818328857421875e-01,-6.511837005615234375e+00,2.266732788085937500e+02,2.266732788085937500e+02,0.000000000000000000e+00,8.907849121093750000e+01,7.924072065179643687e-07,1.091741008707458604e-08,-3.309655838279468298e-08,6.509242230094969273e-04,2.887283478969493444e-08,-6.684298909931385424e-07,7.778949569910764694e-03,-3.225584441679529846e-05,-1.006707407213980332e-05,-1.648422909283908666e-08,0.000000000000000000e+00,8.761088247410953045e-04,1.000000000000000000e+00
1.045818328857421875e-01,-6.511837005615234375e+00,2.266732788085937500e+02,2.266732788085937500e+02,0.000000000000000000e+00,8.907849121093750000e+01,7.924072065179643687e-07,-4.955688748253805898e-09,-1.996897980305334386e-09,-6.235418259166181087e-04,-1.515926157935609808e-07,2.970106152133666910e-07,-1.217151433229446411e-02,-1.762009674166620243e-06,3.174015091644832864e-06,-2.063349047176643580e-09,0.000000000000000000e+00,8.761088247410953045e-04,1.000000000000000000e+00
2.092907428741455078e-01,-6.511837005615234375e+00,2.266732788085937500e+02,2.266732788085937500e+02,0.000000000000000000e+00,8.907849121093750000e+01,7.924072065179643687e-07,-4.955688748253805898e-09,-1.996897980305334386e-09,-6.235418259166181087e-04,-1.515926157935609808e-07,2.970106152133666910e-07,-1.217151433229446411e-02,-1.762009674166620243e-06,3.174015091644832864e-06,-2.063349047176643580e-09,0.000000000000000000e+00,8.761088247410953045e-04,1.000000000000000000e+00
2.092907428741455078e-01,-6.511837005615234375e+00,2.266732788085937500e+02,2.266732788085937500e+02,0.000000000000000000e+00,8.907849121093750000e+01,7.924072065179643687e-07,-4.955688748253805898e-09,-1.996897980305334386e-09,-6.235418259166181087e-04,-1.515926157935609808e-07,2.970106152133666910e-07,-1.217151433229446411e-02,-1.762009674166620243e-06,3.174015091644832864e-06,-2.063349047176643580e-09,0.000000000000000000e+00,8.761088247410953045e-04,1.000000000000000000e+00
2.092907428741455078e-01,-6.511837005615234375e+00,2.266732788085937500e+02,2.266732788085937500e+02,0.000000000000000000e+00,8.907849121093750000e+01,7.924072065179643687e-07,-4.955688748253805898e-09,-1.996897980305334386e-09,-6.235418259166181087e-04,-1.515926157935609808e-07,2.970106152133666910e-07,-1.217151433229446411e-02,-1.762009674166620243e-06,3.174015091644832864e-06,-2.063349047176643580e-09,0.000000000000000000e+00,8.761088247410953045e-04,1.000000000000000000e+00
2.092907428741455078e-01,-6.511837005615234375e+00,2.266732788085937500e+02,2.266732788085937500e+02,0.000000000000000000e+00,8.907849121093750000e+01,7.924072065179643687e-07,-4.955688748253805898e-09,-1.996897980305334386e-09,-6.235418259166181087e-04,-1.515926157935609808e-07,2.970106152133666910e-07,-1.217151433229446411e-02,-1.762009674166620243e-06,3.174015091644832864e-06,-2.063349047176643580e-09,0.000000000000000000e+00,8.761088247410953045e-04,1.000000000000000000e+00
2.092907428741455078e-01,-6.511837005615234375e+00,2.266732788085937500e+02,2.266732788085937500e+02,0.000000000000000000e+00,8.907849121093750000e+01,7.924072065179643687e-07,-6.501007288051141586e-09,-8.801459117080412398e-09,3.774395154323428869e-04,-2.070956917066268943e-08,-9.119124655398991308e-08,1.341463904827833176e-02,-7.556507171102566645e-06,3.815347554336767644e-06,-5.152057114266028748e-10,0.000000000000000000e+00,8.761088247410953045e-04,1.000000000000000000e+00
2.839093208312988281e-01,-6.511837005615234375e+00,2.266732788085937500e+02,2.266732788085937500e+02,0.000000000000000000e+00,8.907849121093750000e+01,7.924072065179643687e-07,-6.501007288051141586e-09,-8.801459117080412398e-09,3.774395154323428869e-04,-2.070956917066268943e-08,-9.119124655398991308e-08,1.341463904827833176e-02,-7.556507171102566645e-06,3.815347554336767644e-06,-5.152057114266028748e-10,0.000000000000000000e+00,8.761088247410953045e-04,1.000000000000000000e+00
2.839093208312988281e-01,-6.511837005615234375e+00,2.266732788085937500e+02,2.266732788085937500e+02,0.000000000000000000e+00,8.907849121093750000e+01,7.924072065179643687e-07,-6.501007288051141586e-09,-8.801459117080412398e-09,3.774395154323428869e-04,-2.070956917066268943e-08,-9.119124655398991308e-08,1.341463904827833176e-02,-7.556507171102566645e-06,3.815347554336767644e-06,-5.152057114266028748e-10,0.000000000000000000e+00,8.761088247410953045e-04,1.000000000000000000e+00
2.839093208312988281e-01,-6.511837005615234375e+00,2.266732788085937500e+02,2.266732788085937500e+02,0.000000000000000000e+00,8.907849121093750000e+01,7.924072065179643687e-07,-6.501007288051141586e-09,-8.801459117080412398e-09,3.774395154323428869e-04,-2.070956917066268943e-08,-9.119124655398991308e-08,1.341463904827833176e-02,-7.556507171102566645e-06,3.815347554336767644e-06,-5.152057114266028748e-10,0.000000000000000000e+00,8.761088247410953045e-04,1.000000000000000000e+00
2.839093208312988281e-01,-6.511837005615234375e+00,2.266732788085937500e+02,2.266732788085937500e+02,0.000000000000000000e+00,8.907849121093750000e+01,7.924072065179643687e-07,-6.501007288051141586e-09,-8.801459117080412398e-09,3.774395154323428869e-04,-2.070956917066268943e-08,-9.119124655398991308e-08,1.341463904827833176e-02,-7.556507171102566645e-06,3.815347554336767644e-06,-5.152057114266028748e-10,0.000000000000000000e+00,8.761088247410953045e-04,1.000000000000000000e+00
3.569011688232421875e-01,-6.511837005615234375e+00,2.266732788085937500e+02,2.266732788085937500e+02,0.000000000000000000e+00,8.907849121093750000e+01,7.924072065179643687e-07,-8.393280737095665245e-09,-1.477458688725619140e-08,1.753468881361186504e-03,-2.592444836579943512e-08,-8.183280897355871275e-08,1.885182224214076996e-02,-9.976070032280404121e-06,4.982951850251993164e-06,1.411235128756516133e-08,0.000000000000000000e+00,8.761088247410953045e-04,1.000000000000000000e+00
3.569011688232421875e-01,-6.511837005615234375e+00,2.266732788085937500e+02,2.266732788085937500e+02,0.000000000000000000e+00,8.907849121093750000e+01,7.924072065179643687e-07,-8.393280737095665245e-09,-1.477458688725619140e-08,1.753468881361186504e-03,-2.592444836579943512e-08,-8.183280897355871275e-08,1.885182224214076996e-02,-9.976070032280404121e-06,4.982951850251993164e-06,1.411235128756516133e-08,0.000000000000000000e+00,8.761088247410953045e-04,1.000000000000000000e+00
3.569011688232421875e-01,-6.511837005615234375e+00,2.266732788085937500e+02,2.266732788085937500e+02,0.000000000000000000e+00,8.907849121093750000e+01,7.924072065179643687e-07,-8.393280737095665245e-09,-1.477458688725619140e-08,1.753468881361186504e-03,-2.592444836579943512e-08,-8.183280897355871275e-08,1.885182224214076996e-02,-9.976070032280404121e-06,4.982951850251993164e-06,1.411235128756516133e-08,0.000000000000000000e+00,8.761088247410953045e-04,1.000000000000000000e+00
3.569011688232421875e-01,-6.511837005615234375e+00,2.266732788085937500e+02,2.266732788085937500e+02,0.000000000000000000e+00,8.907849121093750000e+01,7.924072065179643687e-07,-8.393280737095665245e-09,-1.477458688725619140e-08,1.753468881361186504e-03,-2.592444836579943512e-08,-8.183280897355871275e-08,1.885182224214076996e-02,-9.976070032280404121e-06,4.982951850251993164e-06,1.411235128756516133e-08,0.000000000000000000e+00,8.761088247410953045e-04,1.000000000000000000e+00
4.765405654907226562e-01,-6.511837005615234375e+00,2.266732788085937500e+02,2.266732788085937500e+02,0.000000000000000000e+00,8.907849121093750000e+01,7.924072065179643687e-07,0.000000000000000000e+00,0.000000000000000000e+00,0.000000000000000000e+00,7.015482594852073817e-08,1.234926543247638620e-07,-1.465628389269113541e-02,0.000000000000000000e+00,0.000000000000000000e+00,0.000000000000000000e+00,0.000000000000000000e+00,8.761088247410953045e-04,1.000000000000000000e+00
4.765405654907226562e-01,-6.511837005615234375e+00,2.266732788085937500e+02,2.266732788085937500e+02,0.000000000000000000e+00,8.907849121093750000e+01,7.924072065179643687e-07,0.000000000000000000e+00,0.000000000000000000e+00,0.000000000000000000e+00,7.015482594852073817e-08,1.234926543247638620e-07,-1.465628389269113541e-02,0.000000000000000000e+00,0.000000000000000000e+00,0.000000000000000000e+00,0.000000000000000000e+00,8.761088247410953045e-04,1.000000000000000000e+00
4.765405654907226562e-01,-6.511837005615234375e+00,2.266732788085937500e+02,2.266732788085937500e+02,0.000000000000000000e+00,8.907849121093750000e+01,7.924072065179643687e-07,0.000000000000000000e+00,0.000000000000000000e+00,0.000000000000000000e+00,7.015482594852073817e-08,1.234926543247638620e-07,-1.465628389269113541e-02,0.000000000000000000e+00,0.000000000000000000e+00,0.000000000000000000e+00,0.000000000000000000e+00,8.761088247410953045e-04,1.000000000000000000e+00
4.765405654907226562e-01,-6.511837005615234375e+00,2.266732788085937500e+02,2.266732788085937500e+02,0.000000000000000000e+00,8.907849121093750000e+01,7.924072065179643687e-07,0.000000000000000000e+00,0.000000000000000000e+00,0.000000000000000000e+00,7.015482594852073817e-08,1.234926543247638620e-07,-1.465628389269113541e-02,0.000000000000000000e+00,0.000000000000000000e+00,0.000000000000000000e+00,0.000000000000000000e+00,8.761088247410953045e-04,1.000000000000000000e+00
4.765405654907226562e-01,-6.511837005615234375e+00,2.266732788085937500e+02,2.266732788085937500e+02,0.000000000000000000e+00,8.907849121093750000e+01,7.924072065179643687e-07,0.000000000000000000e+00,0.000000000000000000e+00,0.000000000000000000e+00,7.015482594852073817e-08,1.234926543247638620e-07,-1.465628389269113541e-02,0.000000000000000000e+00,0.000000000000000000e+00,0.000000000000000000e+00,0.000000000000000000e+00,8.761088247410953045e-04,1.000000000000000000e+00
4.765405654907226562e-01,-6.511837005615234375e+00,2.266732788085937500e+02,2.266732788085937500e+02,0.000000000000000000e+00,8.907849121093750000e+01,7.924072065179643687e-07,0.000000000000000000e+00,0.000000000000000000e+00,0.000000000000000000e+00,7.015482594852073817e-08,1.234926543247638620e-07,-1.465628389269113541e-02,0.000000000000000000e+00,0.000000000000000000e+00,0.000000000000000000e+00,0.000000000000000000e+00,8.761088247410953045e-04,1.000000000000000000e+00
4.765405654907226562e-01,-6.511837005615234375e+00,2.266732788085937500e+02,2.266732788085937500e+02,0.000000000000000000e+00,8.907849121093750000e+01,7.924072065179643687e-07,0.000000000000000000e+00,0.000000000000000000e+00,0.000000000000000000e+00,7.015482594852073817e-08,1.234926543247638620e-07,-1.465628389269113541e-02,0.000000000000000000e+00,0.000000000000000000e+00,0.000000000000000000e+00,0.000000000000000000e+00,8.761088247410953045e-04,1.000000000000000000e+00
6.200885772705078125e-01,-6.511837005615234375e+00,2.266732788085937500e+02,2.266732788085937500e+02,0.000000000000000000e+00,8.907849121093750000e+01,7.924072065179643687e-07,-1.735590560159039342e-09,1.219118050954648425e-08,-8.251531398855149746e-04,-1.209066269325376197e-08,8.492754943745239871e-08,-5.748272873461246490e-03,1.057264944392954931e-05,7.794308203301625326e-07,3.224576605731499512e-09,0.000000000000000000e+00,8.761088247410953045e-04,1.000000000000000000e+00
6.200885772705078125e-01,-6.511837005615234375e+00,2.266732788085937500e+02,2.266732788085937500e+02,0.000000000000000000e+00,8.907849121093750000e+01,7.924072065179643687e-07,-1.735590560159039342e-09,1.219118050954648425e-08,-8.251531398855149746e-04,-1.209066269325376197e-08,8.492754943745239871e-08,-5.748272873461246490e-03,1.057264944392954931e-05,7.794308203301625326e-07,3.224576605731499512e-09,0.000000000000000000e+00,8.761088247410953045e-04,1.000000000000000000e+00
6.200885772705078125e-01,-6.511837005615234375e+00,2.266732788085937500e+02,2.266732788085937500e+02,0.000000000000000000e+00,8.907849121093750000e+01,7.924072065179643687e-07,-1.735590560159039342e-09,1.219118050954648425e-08,-8.251531398855149746e-04,-1.209066269325376197e-08,8.492754943745239871e-08,-5.748272873461246490e-03,1.057264944392954931e-05,7.794308203301625326e-07,3.224576605731499512e-09,0.000000000000000000e+00,8.761088247410953045e-04,1.000000000000000000e+00
6.200885772705078125e-01,-6.511837005615234375e+00,2.266732788085937500e+02,2.266732788085937500e+02,0.000000000000000000e+00,8.907849121093750000e+01,7.924072065179643687e-07,-1.735590560159039342e-09,1.219118050954648425e-08,-8.251531398855149746e-04,-1.209066269325376197e-08,8.492754943745239871e-08,-5.748272873461246490e-03,1.057264944392954931e-05,7.794308203301625326e-07,3.224576605731499512e-09,0.000000000000000000e+00,8.761088247410953045e-04,1.000000000000000000e+00
6.200885772705078125e-01,-6.511837005615234375e+00,2.266732788085937500e+02,2.266732788085937500e+02,0.000000000000000000e+00,8.907849121093750000e+01,7.924072065179643687e-07,-1.735590560159039342e-09,1.219118050954648425e-08,-8.251531398855149746e-04,-1.209066269325376197e-08,8.492754943745239871e-08,-5.748272873461246490e-03,1.057264944392954931e-05,7.794308203301625326e-07,3.224576605731499512e-09,0.000000000000000000e+00,8.761088247410953045e-04,1.000000000000000000e+00
6.200885772705078125e-01,-6.511837005615234375e+00,2.266732788085937500e+02,2.266732788085937500e+02,0.000000000000000000e+00,8.907849121093750000e+01,7.924072065179643687e-07,-1.735590560159039342e-09,1.219118050954648425e-08,-8.251531398855149746e-04,-1.209066269325376197e-08,8.492754943745239871e-08,-5.748272873461246490e-03,1.057264944392954931e-05,7.794308203301625326e-07,3.224576605731499512e-09,0.000000000000000000e+00,8.761088247410953045e-04,1.000000000000000000e+00
7.946169376373291016e-01,-6.511837005615234375e+00,2.266732788085937500e+02,2.266732788085937500e+02,0.000000000000000000e+00,8.907849121093750000e+01,7.924072065179643687e-07,5.388401946859744385e-10,3.040387497321717092e-08,1.024266239255666733e-04,1.303186980550208318e-08,1.043537878331335378e-07,5.314779467880725861e-03,2.861199027393013239e-05,-8.071707497947500087e-07,1.468898069845181453e-08,0.000000000000000000e+00,8.761088247410953045e-04,1.000000000000000000e+00
7.946169376373291016e-01,-6.511837005615234375e+00,2.266732788085937500e+02,2.266732788085937500e+02,0.000000000000000000e+00,8.907849121093750000e+01,7.924072065179643687e-07,5.388401946859744385e-10,3.040387497321717092e-08,1.024266239255666733e-04,1.303186980550208318e-08,1.043537878331335378e-07,5.314779467880725861e-03,2.861199027393013239e-05,-8.071707497947500087e-07,1.468898069845181453e-08,0.000000000000000000e+00,8.761088247410953045e-04,1.000000000000000000e+00
7.946169376373291016e-01,-6.511837005615234375e+00,2.266732788085937500e+02,2.266732788085937500e+02,0.000000000000000000e+00,8.907849121093750000e+01,7.924072065179643687e-07,5.388401946859744385e-10,3.040387497321717092e-08,1.024266239255666733e-04,1.303186980550208318e-08,1.043537878331335378e-07,5.314779467880725861e-03,2.861199027393013239e-05,-8.071707497947500087e-07,1.468898069845181453e-08,0.000000000000000000e+00,8.761088247410953045e-04,1.000000000000000000e+00
8.783230781555175781e-01,-6.511837005615234375e+00,2.266732788085937500e+02,2.266732788085937500e+02,0.000000000000000000e+00,8.907849121093750000e+01,7.924072065179643687e-07,2.207259708342235172e-09,4.395114316935178067e-08,3.150986740365624428e-04,1.993186593551854457e-08,1.618431895167304901e-07,2.540698274970054626e-03,3.738632221939042211e-05,-1.172782617686607409e-06,-6.799867890983080088e-10,0.000000000000000000e+00,8.761088247410953045e-04,1.000000000000000000e+00
8.783230781555175781e-01,-6.511837005615234375e+00,2.266732788085937500e+02,2.266732788085937500e+02,0.000000000000000000e+00,8.907849121093750000e+01,7.924072065179643687e-07,2.207259708342235172e-09,4.395114316935178067e-08,3.150986740365624428e-04,1.993186593551854457e-08,1.618431895167304901e-07,2.540698274970054626e-03,3.738632221939042211e-05,-1.172782617686607409e-06,-6.799867890983080088e-10,0.000000000000000000e+00,8.761088247410953045e-04,1.000000000000000000e+00
8.783230781555175781e-01,-6.511837005615234375e+00,2.266732788085937500e+02,2.266732788085937500e+02,0.000000000000000000e+00,8.907849121093750000e+01,7.924072065179643687e-07,2.207259708342235172e-09,4.395114316935178067e-08,3.150986740365624428e-04,1.993186593551854457e-08,1.618431895167304901e-07,2.540698274970054626e-03,3.738632221939042211e-05,-1.172782617686607409e-06,-6.799867890983080088e-10,0.000000000000000000e+00,8.761088247410953045e-04,1.000000000000000000e+00
9.483780860900878906e-01,-6.511837005615234375e+00,2.266732788085937500e+02,2.266732788085937500e+02,0.000000000000000000e+00,8.907849121093750000e+01,7.924072065179643687e-07,-3.000113046880414913e-09,-1.391682857843079546e-08,1.878295093774795532e-03,-7.433262538825147203e-08,-8.260361710199504159e-07,2.231384254992008209e-02,-1.451692969567375258e-05,1.998589823415386491e-06,-1.166611340863710211e-08,0.000000000000000000e+00,8.761088247410953045e-04,1.000000000000000000e+00
9.483780860900878906e-01,-6.511837005615234375e+00,2.266732788085937500e+02,2.266732788085937500e+02,0.000000000000000000e+00,8.907849121093750000e+01,7.924072065179643687e-07,-3.000113046880414913e-09,-1.391682857843079546e-08,1.878295093774795532e-03,-7.433262538825147203e-08,-8.260361710199504159e-07,2.231384254992008209e-02,-1.451692969567375258e-05,1.998589823415386491e-06,-1.166611340863710211e-08,0.000000000000000000e+00,8.761088247410953045e-04,1.000000000000000000e+00
9.483780860900878906e-01,-6.511837005615234375e+00,2.266732788085937500e+02,2.266732788085937500e+02,0.000000000000000000e+00,8.907849121093750000e+01,7.924072065179643687e-07,-3.000113046880414913e-09,-1.391682857843079546e-08,1.878295093774795532e-03,-7.433262538825147203e-08,-8.260361710199504159e-07,2.231384254992008209e-02,-1.451692969567375258e-05,1.998589823415386491e-06,-1.166611340863710211e-08,0.000000000000000000e+00,8.761088247410953045e-04,1.000000000000000000e+00
9.483780860900878906e-01,-6.511837005615234375e+00,2.266732788085937500e+02,2.266732788085937500e+02,0.000000000000000000e+00,8.907849121093750000e+01,7.924072065179643687e-07,-3.000113046880414913e-09,-1.391682857843079546e-08,1.878295093774795532e-03,-7.433262538825147203e-08,-8.260361710199504159e-07,2.231384254992008209e-02,-1.451692969567375258e-05,1.998589823415386491e-06,-1.166611340863710211e-08,0.000000000000000000e+00,8.761088247410953045e-04,1.000000000000000000e+00
9.483780860900878906e-01,-6.511837005615234375e+00,2.266732788085937500e+02,2.266732788085937500e+02,0.000000000000000000e+00,8.907849121093750000e+01,7.924072065179643687e-07,-9.137700041073060220e-10,-4.242280970956358033e-10,5.278801108943298459e-05,2.647676744516047620e-08,1.712280521815046086e-07,-2.316662296652793884e-02,-4.321150584019051166e-07,6.489230486295127776e-07,-3.590294450628306322e-10,0.000000000000000000e+00,8.761088247410953045e-04,1.000000000000000000e+00
1.027177095413208008e+00,-6.511837005615234375e+00,2.266732788085937500e+02,2.266732788085937500e+02,0.000000000000000000e+00,8.907849121093750000e+01,7.924072065179643687e-07,-9.137700041073060220e-10,-4.242280970956358033e-10,5.278801108943298459e-05,2.647676744516047620e-08,1.712280521815046086e-07,-2.316662296652793884e-02,-4.321150584019051166e-07,6.489230486295127776e-07,-3.590294450628306322e-10,0.000000000000000000e+00,8.761088247410953045e-04,1.000000000000000000e+00
1.027177095413208008e+00,-6.511837005615234375e+00,2.266732788085937500e+02,2.266732788085937500e+02,0.000000000000000000e+00,8.907849121093750000e+01,7.924072065179643687e-07,-9.137700041073060220e-10,-4.242280970956358033e-10,5.278801108943298459e-05,2.647676744516047620e-08,1.712280521815046086e-07,-2.316662296652793884e-02,-4.321150584019051166e-07,6.489230486295127776e-07,-3.590294450628306322e-10,0.000000000000000000e+00,8.761088247410953045e-04,1.000000000000000000e+00
1.095043420791625977e+00,-6.511837005615234375e+00,2.266732788085937500e+02,2.266732788085937500e+02,0.000000000000000000e+00,8.907849121093750000e+01,7.924072065179643687e-07,-2.202376947479933733e-09,5.798313296168089437e-08,-1.154975034296512604e-03,-1.898742851835777401e-08,8.606236292507674079e-07,-1.779620535671710968e-02,5.200954183237627149e-05,9.475442084294627421e-07,1.592886711421215296e-08,0.000000000000000000e+00,8.761088247410953045e-04,1.000000000000000000e+00
1.095043420791625977e+00,-6.511837005615234375e+00,2.266732788085937500e+02,2.266732788085937500e+02,0.000000000000000000e+00,8.907849121093750000e+01,7.924072065179643687e-07,-2.202376947479933733e-09,5.798313296168089437e-08,-1.154975034296512604e-03,-1.898742851835777401e-08,8.606236292507674079e-07,-1.779620535671710968e-02,5.200954183237627149e-05,9.475442084294627421e-07,1.592886711421215296e-08,0.000000000000000000e+00,8.761088247410953045e-04,1.000000000000000000e+00
1.095043420791625977e+00,-6.511837005615234375e+00,2.266732788085937500e+02,2.266732788085937500e+02,0.000000000000000000e+00,8.907849121093750000e+01,7.924072065179643687e-07,-2.202376947479933733e-09,5.798313296168089437e-08,-1.154975034296512604e-03,-1.898742851835777401e-08,8.606236292507674079e-07,-1.779620535671710968e-02,5.200954183237627149e-05,9.475442084294627421e-07,1.592886711421215296e-08,0.000000000000000000e+00,8.761088247410953045e-04,1.000000000000000000e+00
1.095043420791625977e+00,-6.511837005615234375e+00,2.266732788085937500e+02,2.266732788085937500e+02,0.000000000000000000e+00,8.907849121093750000e+01,7.924072065179643687e-07,-2.202376947479933733e-09,5.798313296168089437e-08,-1.154975034296512604e-03,-1.898742851835777401e-08,8.606236292507674079e-07,-1.779620535671710968e-02,5.200954183237627149e-05,9.475442084294627421e-07,1.592886711421215296e-08,0.000000000000000000e+00,8.761088247410953045e-04,1.000000000000000000e+00
1.168572425842285156e+00,-6.511837005615234375e+00,2.266732788085937500e+02,2.266732788085937500e+02,0.000000000000000000e+00,8.907849121093750000e+01,7.924072065179643687e-07,-4.344173909487381025e-09,-3.476699150795070636e-09,1.127747935242950916e-03,-2.912859820014546131e-08,-8.358582590517471544e-07,3.104520216584205627e-02,-3.014691174030303955e-06,2.704279495446826331e-06,-1.778516778294658707e-09,0.000000000000000000e+00,8.761088247410953045e-04,1.000000000000000000e+00
1.168572425842285156e+00,-6.511837005615234375e+00,2.266732788085937500e+02,2.266732788085937500e+02,0.000000000000000000e+00,8.907849121093750000e+01,7.924072065179643687e-07,-4.344173909487381025e-09,-3.476699150795070636e-09,1.127747935242950916e-03,-2.912859820014546131e-08,-8.358582590517471544e-07,3.104520216584205627e-02,-3.014691174030303955e-06,2.704279495446826331e-06,-1.778516778294658707e-09,0.000000000000000000e+00,8.761088247410953045e-04,1.000000000000000000e+00
1.168572425842285156e+00,-6.511837005615234375e+00,2.266732788085937500e+02,2.266732788085937500e+02,0.000000000000000000e+00,8.907849121093750000e+01,7.924072065179643687e-07,-4.344173909487381025e-09,-3.476699150795070636e-09,1.127747935242950916e-03,-2.912859820014546131e-08,-8.358582590517471544e-07,3.104520216584205627e-02,-3.014691174030303955e-06,2.704279495446826331e-06,-1.778516778294658707e-09,0.000000000000000000e+00,8.761088247410953045e-04,1.000000000000000000e+00
1.168572425842285156e+00,-6.511837005615234375e+00,2.266732788085937500e+02,2.266732788085937500e+02,0.000000000000000000e+00,8.907849121093750000e+01,7.924072065179643687e-07,-4.344173909487381025e-09,-3.476699150795070636e-09,1.127747935242950916e-03,-2.912859820014546131e-08,-8.358582590517471544e-07,3.104520216584205627e-02,-3.014691174030303955e-06,2.704279495446826331e-06,-1.778516778294658707e-09,0.000000000000000000e+00,8.761088247410953045e-04,1.000000000000000000e+00
1.168572425842285156e+00,-6.511837005615234375e+00,2.266732788085937500e+02,2.266732788085937500e+02,0.000000000000000000e+00,8.907849121093750000e+01,7.924072065179643687e-07,-5.136229219715460204e-09,7.217567654649315045e-10,-3.319728712085634470e-04,-1.055392040427705069e-08,5.594327490143768955e-08,-1.945037953555583954e-02,-2.067773721137200482e-06,3.058034508285345510e-06,-1.202343113959614129e-08,0.000000000000000000e+00,8.761088247410953045e-04,1.000000000000000000e+00
1.243620872497558594e+00,-6.511837005615234375e+00,2.266732788085937500e+02,2.266732788085937500e+02,0.000000000000000000e+00,8.907849121093750000e+01,7.924072065179643687e-07,-5.136229219715460204e-09,7.217567654649315045e-10,-3.319728712085634470e-04,-1.055392040427705069e-08,5.594327490143768955e-08,-1.945037953555583954e-02,-2.067773721137200482e-06,3.058034508285345510e-06,-1.202343113959614129e-08,0.000000000000000000e+00,8.761088247410953045e-04,1.000000000000000000e+00
1.243620872497558594e+00,-6.511837005615234375e+00,2.266732788085937500e+02,2.266732788085937500e+02,0.000000000000000000e+00,8.907849121093750000e+01,7.924072065179643687e-07,-5.136229219715460204e-09,7.217567654649315045e-10,-3.319728712085634470e-04,-1.055392040427705069e-08,5.594327490143768955e-08,-1.945037953555583954e-02,-2.067773721137200482e-06,3.058034508285345510e-06,-1.202343113959614129e-08,0.000000000000000000e+00,8.761088247410953045e-04,1.000000000000000000e+00
1.243620872497558594e+00,-6.511837005615234375e+00,2.266732788085937500e+02,2.266732788085937500e+02,0.000000000000000000e+00,8.907849121093750000e+01,7.924072065179643687e-07,-5.136229219715460204e-09,7.217567654649315045e-10,-3.319728712085634470e-04,-1.055392040427705069e-08,5.594327490143768955e-08,-1.945037953555583954e-02,-2.067773721137200482e-06,3.058034508285345510e-06,-1.202343113959614129e-08,0.000000000000000000e+00,8.761088247410953045e-04,1.000000000000000000e+00
1.312042951583862305e+00,-6.511837005615234375e+00,2.266732788085937500e+02,2.266732788085937500e+02,0.000000000000000000e+00,8.907849121093750000e+01,7.924072065179643687e-07,-6.692188581070013242e-09,-3.362429223940921474e-09,-3.336119698360562325e-04,-2.274060406648459320e-08,-5.969105387748641078e-08,-2.395569754298776388e-05,-2.448499856200214708e-07,3.965828000218607485e-06,1.210209088498004348e-08,0.000000000000000000e+00,8.761088247410953045e-04,1.000000000000000000e+00
1.312042951583862305e+00,-6.511837005615234375e+00,2.266732788085937500e+02,2.266732788085937500e+02,0.000000000000000000e+00,8.907849121093750000e+01,7.924072065179643687e-07,-6.692188581070013242e-09,-3.362429223940921474e-09,-3.336119698360562325e-04,-2.274060406648459320e-08,-5.969105387748641078e-08,-2.395569754298776388e-05,-2.448499856200214708e-07,3.965828000218607485e-06,1.210209088498004348e-08,0.000000000000000000e+00,8.761088247410953045e-04,1.000000000000000000e+00
1.383129358291625977e+00,-6.511837005615234375e+00,2.266732788085937500e+02,2.266732788085937500e+02,0.000000000000000000e+00,8.907849121093750000e+01,7.924072065179643687e-07,-6.470396218816176770e-09,9.987592974880499241e-09,7.903447840362787247e-04,3.120038893911214473e-09,1.877999267207997036e-07,1.581113412976264954e-02,5.766774847870692611e-06,3.934174401365453377e-06,-1.356239209826526348e-08,0.000000000000000000e+00,8.761088247410953045e-04,1.000000000000000000e+00
1.383129358291625977e+00,-6.511837005615234375e+00,2.266732788085937500e+02,2.266732788085937500e+02,0.000000000000000000e+00,8.907849121093750000e+01,7.924072065179643687e-07,-6.470396218816176770e-09,9.987592974880499241e-09,7.903447840362787247e-04,3.120038893911214473e-09,1.877999267207997036e-07,1.581113412976264954e-02,5.766774847870692611e-06,3.934174401365453377e-06,-1.356239209826526348e-08,0.000000000000000000e+00,8.761088247410953045e-04,1.000000000000000000e+00
1.383129358291625977e+00,-6.511837005615234375e+00,2.266732788085937500e+02,2.266732788085937500e+02,0.000000000000000000e+00,8.907849121093750000e+01,7.924072065179643687e-07,-6.470396218816176770e-09,9.987592974880499241e-09,7.903447840362787247e-04,3.120038893911214473e-09,1.877999267207997036e-07,1.581113412976264954e-02,5.766774847870692611e-06,3.934174401365453377e-06,-1.356239209826526348e-08,0.000000000000000000e+00,8.761088247410953045e-04,1.000000000000000000e+00
1.450951814651489258e+00,-6.511837005615234375e+00,2.266732788085937500e+02,2.266732788085937500e+02,0.000000000000000000e+00,8.907849121093750000e+01,7.924072065179643687e-07,-1.671875526909616383e-09,3.020381722507181621e-09,-5.385586700867861509e-05,7.075120578292626305e-08,-1.027272062970041588e-07,-1.244721468538045883e-02,-1.138418639357041684e-07,1.164508830697741359e-06,-1.223778500758498922e-08,0.000000000000000000e+00,8.761088247410953045e-04,1.000000000000000000e+00
1.450951814651489258e+00,-6.511837005615234375e+00,2.266732788085937500e+02,2.266732788085937500e+02,0.000000000000000000e+00,8.907849121093750000e+01,7.924072065179643687e-07,-1.671875526909616383e-09,3.020381722507181621e-09,-5.385586700867861509e-05,7.075120578292626305e-08,-1.027272062970041588e-07,-1.244721468538045883e-02,-1.138418639357041684e-07,1.164508830697741359e-06,-1.223778500758498922e-08,0.000000000000000000e+00,8.761088247410953045e-04,1.000000000000000000e+00
1.450951814651489258e+00,-6.511837005615234375e+00,2.266732788085937500e+02,2.266732788085937500e+02,0.000000000000000000e+00,8.907849121093750000e+01,7.924072065179643687e-07,-1.671875526909616383e-09,3.020381722507181621e-09,-5.385586700867861509e-05,7.075120578292626305e-08,-1.027272062970041588e-07,-1.244721468538045883e-02,-1.138418639357041684e-07,1.164508830697741359e-06,-1.223778500758498922e-08,0.000000000000000000e+00,8.761088247410953045e-04,1.000000000000000000e+00
1.527701377868652344e+00,-6.511837005615234375e+00,2.266732788085937500e+02,2.266732788085937500e+02,0.000000000000000000e+00,8.907849121093750000e+01,7.924072065179643687e-07,-2.831137546621675938e-09,5.613604869836308353e-08,3.487304493319243193e-04,-1.510447766861489072e-08,6.920647592778550461e-07,5.245454143732786179e-03,5.050621621194295585e-05,1.537561274744803086e-06,1.378811376184785331e-08,0.000000000000000000e+00,8.761088247410953045e-04,1.000000000000000000e+00
1.527701377868652344e+00,-6.511837005615234375e+00,2.266732788085937500e+02,2.266732788085937500e+02,0.000000000000000000e+00,8.907849121093750000e+01,7.924072065179643687e-07,-2.831137546621675938e-09,5.613604869836308353e-08,3.487304493319243193e-04,-1.510447766861489072e-08,6.920647592778550461e-07,5.245454143732786179e-03,5.050621621194295585e-05,1.537561274744803086e-06,1.378811376184785331e-08,0.000000000000000000e+00,8.761088247410953045e-04,1.000000000000000000e+00
1.527701377868652344e+00,-6.511837005615234375e+00,2.266732788085937500e+02,2.266732788085937500e+02,0.000000000000000000e+00,8.907849121093750000e+01,7.924072065179643687e-07,-2.831137546621675938e-09,5.613604869836308353e-08,3.487304493319243193e-04,-1.510447766861489072e-08,6.920647592778550461e-07,5.245454143732786179e-03,5.050621621194295585e-05,1.537561274744803086e-06,1.378811376184785331e-08,0.000000000000000000e+00,8.761088247410953045e-04,1.000000000000000000e+00
1.600134611129760742e+00,-6.511837005615234375e+00,2.266732788085937500e+02,2.266732788085937500e+02,0.000000000000000000e+00,8.907849121093750000e+01,7.924072065179643687e-07,-1.014485828676470192e-08,-1.053872544787282095e-08,-1.059398055076599121e-03,-1.009718957334371225e-07,-9.204997581946372520e-07,-1.944036595523357391e-02,-9.159090950561221689e-06,4.342249667388387024e-06,-3.118712510463694798e-10,0.000000000000000000e+00,8.761088247410953045e-04,1.000000000000000000e+00
1.600134611129760742e+00,-6.511837005615234375e+00,2.266732788085937500e+02,2.266732788085937500e+02,0.000000000000000000e+00,8.907849121093750000e+01,7.924072065179643687e-07,-1.014485828676470192e-08,-1.053872544787282095e-08,-1.059398055076599121e-03,-1.009718957334371225e-07,-9.204997581946372520e-07,-1.944036595523357391e-02,-9.159090950561221689e-06,4.342249667388387024e-06,-3.118712510463694798e-10,0.000000000000000000e+00,8.761088247410953045e-04,1.000000000000000000e+00
1.600134611129760742e+00,-6.511837005615234375e+00,2.266732788085937500e+02,2.266732788085937500e+02,0.000000000000000000e+00,8.907849121093750000e+01,7.924072065179643687e-07,-1.014485828676470192e-08,-1.053872544787282095e-08,-1.059398055076599121e-03,-1.009718957334371225e-07,-9.204997581946372520e-07,-1.944036595523357391e-02,-9.159090950561221689e-06,4.342249667388387024e-06,-3.118712510463694798e-10,0.000000000000000000e+00,8.761088247410953045e-04,1.000000000000000000e+00
1.600134611129760742e+00,-6.511837005615234375e+00,2.266732788085937500e+02,2.266732788085937500e+02,0.000000000000000000e+00,8.907849121093750000e+01,7.924072065179643687e-07,-1.014485828676470192e-08,-1.053872544787282095e-08,-1.059398055076599121e-03,-1.009718957334371225e-07,-9.204997581946372520e-07,-1.944036595523357391e-02,-9.159090950561221689e-06,4.342249667388387024e-06,-3.118712510463694798e-10,0.000000000000000000e+00,8.761088247410953045e-04,1.000000000000000000e+00
1.600134611129760742e+00,-6.511837005615234375e+00,2.266732788085937500e+02,2.266732788085937500e+02,0.000000000000000000e+00,8.907849121093750000e+01,7.924072065179643687e-07,-1.014485828676470192e-08,-1.053872544787282095e-08,-1.059398055076599121e-03,-1.009718957334371225e-07,-9.204997581946372520e-07,-1.944036595523357391e-02,-9.159090950561221689e-06,4.342249667388387024e-06,-3.118712510463694798e-10,0.000000000000000000e+00,8.761088247410953045e-04,1.000000000000000000e+00
1.600134611129760742e+00,-6.511837005615234375e+00,2.266732788085937500e+02,2.266732788085937500e+02,0.000000000000000000e+00,8.907849121093750000e+01,7.924072065179643687e-07,2.143679900257211557e-08,-1.046751663125178311e-08,2.265315852127969265e-04,2.737213549153239001e-07,6.171738675675442209e-10,1.114527974277734756e-02,-9.850867172644939274e-06,4.274575076124165207e-06,-7.190338546791963381e-09,0.000000000000000000e+00,8.761088247410953045e-04,1.000000000000000000e+00
1.715513467788696289e+00,-6.511837005615234375e+00,2.266732788085937500e+02,2.266732788085937500e+02,0.000000000000000000e+00,8.907849121093750000e+01,7.924072065179643687e-07,2.143679900257211557e-08,-1.046751663125178311e-08,2.265315852127969265e-04,2.737213549153239001e-07,6.171738675675442209e-10,1.114527974277734756e-02,-9.850867172644939274e-06,4.274575076124165207e-06,-7.190338546791963381e-09,0.000000000000000000e+00,8.761088247410953045e-04,1.000000000000000000e+00
1.715513467788696289e+00,-6.511837005615234375e+00,2.266732788085937500e+02,2.266732788085937500e+02,0.000000000000000000e+00,8.907849121093750000e+01,7.924072065179643687e-07,2.143679900257211557e-08,-1.046751663125178311e-08,2.265315852127969265e-04,2.737213549153239001e-07,6.171738675675442209e-10,1.114527974277734756e-02,-9.850867172644939274e-06,4.274575076124165207e-06,-7.190338546791963381e-09,0.000000000000000000e+00,8.761088247410953045e-04,1.000000000000000000e+00
1.715513467788696289e+00,-6.511837005615234375e+00,2.266732788085937500e+02,2.266732788085937500e+02,0.000000000000000000e+00,8.907849121093750000e+01,7.924072065179643687e-07,2.007392252423301215e-09,4.937949427130661206e-08,-9.304021950811147690e-04,-1.990684381780738477e-07,6.131762120276107453e-07,-1.185362972319126129e-02,4.341323437984101474e-05,2.207684701716061682e-06,7.415747571570818764e-09,0.000000000000000000e+00,8.761088247410953045e-04,1.000000000000000000e+00
1.813115119934082031e+00,-6.511837005615234375e+00,2.266732788085937500e+02,2.266732788085937500e+02,0.000000000000000000e+00,8.907849121093750000e+01,7.924072065179643687e-07,2.007392252423301215e-09,4.937949427130661206e-08,-9.304021950811147690e-04,-1.990684381780738477e-07,6.131762120276107453e-07,-1.185362972319126129e-02,4.341323437984101474e-05,2.207684701716061682e-06,7.415747571570818764e-09,0.000000000000000000e+00,8.761088247410953045e-04,1.000000000000000000e+00
1.813115119934082031e+00,-6.511837005615234375e+00,2.266732788085937500e+02,2.266732788085937500e+02,0.000000000000000000e+00,8.907849121093750000e+01,7.924072065179643687e-07,2.007392252423301215e-09,4.937949427130661206e-08,-9.304021950811147690e-04,-1.990684381780738477e-07,6.131762120276107453e-07,-1.185362972319126129e-02,4.341323437984101474e-05,2.207684701716061682e-06,7.415747571570818764e-09,0.000000000000000000e+00,8.761088247410953045e-04,1.000000000000000000e+00
1.813115119934082031e+00,-6.511837005615234375e+00,2.266732788085937500e+02,2.266732788085937500e+02,0.000000000000000000e+00,8.907849121093750000e+01,7.924072065179643687e-07,2.007392252423301215e-09,4.937949427130661206e-08,-9.304021950811147690e-04,-1.990684381780738477e-07,6.131762120276107453e-07,-1.185362972319126129e-02,4.341323437984101474e-05,2.207684701716061682e-06,7.415747571570818764e-09,0.000000000000000000e+00,8.761088247410953045e-04,1.000000000000000000e+00
1.813115119934082031e+00,-6.511837005615234375e+00,2.266732788085937500e+02,2.266732788085937500e+02,0.000000000000000000e+00,8.907849121093750000e+01,7.924072065179643687e-07,1.042526065475612995e-09,1.182556061962714011e-07,1.462603104300796986e-04,-1.162213081329355191e-08,8.296354394587979186e-07,1.296875346451997757e-02,1.058692287188023329e-04,-1.104189777834108099e-06,2.745644245294442953e-08,0.000000000000000000e+00,8.761088247410953045e-04,1.000000000000000000e+00
1.896134853363037109e+00,-6.511837005615234375e+00,2.266732788085937500e+02,2.266732788085937500e+02,0.000000000000000000e+00,8.907849121093750000e+01,7.924072065179643687e-07,1.042526065475612995e-09,1.182556061962714011e-07,1.462603104300796986e-04,-1.162213081329355191e-08,8.296354394587979186e-07,1.296875346451997757e-02,1.058692287188023329e-04,-1.104189777834108099e-06,2.745644245294442953e-08,0.000000000000000000e+00,8.761088247410953045e-04,1.000000000000000000e+00
1.896134853363037109e+00,-6.511837005615234375e+00,2.266732788085937500e+02,2.266732788085937500e+02,0.000000000000000000e+00,8.907849121093750000e+01,7.924072065179643687e-07,1.042526065475612995e-09,1.182556061962714011e-07,1.462603104300796986e-04,-1.162213081329355191e-08,8.296354394587979186e-07,1.296875346451997757e-02,1.058692287188023329e-04,-1.104189777834108099e-06,2.745644245294442953e-08,0.000000000000000000e+00,8.761088247410953045e-04,1.000000000000000000e+00
1.896134853363037109e+00,-6.511837005615234375e+00,2.266732788085937500e+02,2.266732788085937500e+02,0.000000000000000000e+00,8.907849121093750000e+01,7.924072065179643687e-07,1.042526065475612995e-09,1.182556061962714011e-07,1.462603104300796986e-04,-1.162213081329355191e-08,8.296354394587979186e-07,1.296875346451997757e-02,1.058692287188023329e-04,-1.104189777834108099e-06,2.745644245294442953e-08,0.000000000000000000e+00,8.761088247410953045e-04,1.000000000000000000e+00
1.896134853363037109e+00,-6.511837005615234375e+00,2.266732788085937500e+02,2.266732788085937500e+02,0.000000000000000000e+00,8.907849121093750000e+01,7.924072065179643687e-07,1.042526065475612995e-09,1.182556061962714011e-07,1.462603104300796986e-04,-1.162213081329355191e-08,8.296354394587979186e-07,1.296875346451997757e-02,1.058692287188023329e-04,-1.104189777834108099e-06,2.745644245294442953e-08,0.000000000000000000e+00,8.761088247410953045e-04,1.000000000000000000e+00
1.896134853363037109e+00,-6.511837005615234375e+00,2.266732788085937500e+02,2.266732788085937500e+02,0.000000000000000000e+00,8.907849121093750000e+01,7.924072065179643687e-07,1.042526065475612995e-09,1.182556061962714011e-07,1.462603104300796986e-04,-1.162213081329355191e-08,8.296354394587979186e-07,1.296875346451997757e-02,1.058692287188023329e-04,-1.104189777834108099e-06,2.745644245294442953e-08,0.000000000000000000e+00,8.761088247410953045e-04,1.000000000000000000e+00
1.896134853363037109e+00,-6.511837005615234375e+00,2.266732788085937500e+02,2.266732788085937500e+02,0.000000000000000000e+00,8.907849121093750000e+01,7.924072065179643687e-07,1.042526065475612995e-09,1.182556061962714011e-07,1.462603104300796986e-04,-1.162213081329355191e-08,8.296354394587979186e-07,1.296875346451997757e-02,1.058692287188023329e-04,-1.104189777834108099e-06,2.745644245294442953e-08,0.000000000000000000e+00,8.761088247410953045e-04,1.000000000000000000e+00
1.896134853363037109e+00,-6.511837005615234375e+00,2.266732788085937500e+02,2.266732788085937500e+02,0.000000000000000000e+00,8.907849121093750000e+01,7.924072065179643687e-07,1.042526065475612995e-09,1.182556061962714011e-07,1.462603104300796986e-04,-1.162213081329355191e-08,8.296354394587979186e-07,1.296875346451997757e-02,1.058692287188023329e-04,-1.104189777834108099e-06,2.745644245294442953e-08,0.000000000000000000e+00,8.761088247410953045e-04,1.000000000000000000e+00
2.195794820785522461e+00,-6.511837005615234375e+00,2.266732788085937500e+02,2.266732788085937500e+02,0.000000000000000000e+00,8.907849121093750000e+01,7.924072065179643687e-07,8.204843027215247275e-09,-1.621473089130631706e-08,1.379736466333270073e-03,1.603882253675692482e-07,3.492276618999312632e-07,2.231719158589839935e-02,-1.261838679056381807e-05,-8.631416676507797092e-06,7.017287639854430381e-09,0.000000000000000000e+00,8.761088247410953045e-04,1.000000000000000000e+00
2.195794820785522461e+00,-6.511837005615234375e+00,2.266732788085937500e+02,2.266732788085937500e+02,0.000000000000000000e+00,8.907849121093750000e+01,7.924072065179643687e-07,8.204843027215247275e-09,-1.621473089130631706e-08,1.379736466333270073e-03,1.603882253675692482e-07,3.492276618999312632e-07,2.231719158589839935e-02,-1.261838679056381807e-05,-8.631416676507797092e-06,7.017287639854430381e-09,0.000000000000000000e+00,8.761088247410953045e-04,1.000000000000000000e+00
2.195794820785522461e+00,-6.511837005615234375e+00,2.266732788085937500e+02,2.266732788085937500e+02,0.000000000000000000e+00,8.907849121093750000e+01,7.924072065179643687e-07,8.204843027215247275e-09,-1.621473089130631706e-08,1.379736466333270073e-03,1.603882253675692482e-07,3.492276618999312632e-07,2.231719158589839935e-02,-1.261838679056381807e-05,-8.631416676507797092e-06,7.017287639854430381e-09,0.000000000000000000e+00,8.761088247410953045e-04,1.000000000000000000e+00
2.195794820785522461e+00,-6.511837005615234375e+00,2.266732788085937500e+02,2.266732788085937500e+02,0.000000000000000000e+00,8.907849121093750000e+01,7.924072065179643687e-07,8.204843027215247275e-09,-1.621473089130631706e-08,1.379736466333270073e-03,1.603882253675692482e-07,3.492276618999312632e-07,2.231719158589839935e-02,-1.261838679056381807e-05,-8.631416676507797092e-06,7.017287639854430381e-09,0.000000000000000000e+00,8.761088247410953045e-04,1.000000000000000000e+00
2.195794820785522461e+00,-6.511837005615234375e+00,2.266732788085937500e+02,2.266732788085937500e+02,0.000000000000000000e+00,8.907849121093750000e+01,7.924072065179643687e-07,8.204843027215247275e-09,-1.621473089130631706e-08,1.379736466333270073e-03,1.603882253675692482e-07,3.492276618999312632e-07,2.231719158589839935e-02,-1.261838679056381807e-05,-8.631416676507797092e-06,7.017287639854430381e-09,0.000000000000000000e+00,8.761088247410953045e-04,1.000000000000000000e+00
2.195794820785522461e+00,-6.511837005615234375e+00,2.266732788085937500e+02,2.266732788085937500e+02,0.000000000000000000e+00,8.907849121093750000e+01,7.924072065179643687e-07,8.204843027215247275e-09,-1.621473089130631706e-08,1.379736466333270073e-03,1.603882253675692482e-07,3.492276618999312632e-07,2.231719158589839935e-02,-1.261838679056381807e-05,-8.631416676507797092e-06,7.017287639854430381e-09,0.000000000000000000e+00,8.761088247410953045e-04,1.000000000000000000e+00
2.195794820785522461e+00,-6.511837005615234375e+00,2.266732788085937500e+02,2.266732788085937500e+02,0.000000000000000000e+00,8.907849121093750000e+01,7.924072065179643687e-07,8.204843027215247275e-09,-1.621473089130631706e-08,1.379736466333270073e-03,1.603882253675692482e-07,3.492276618999312632e-07,2.231719158589839935e-02,-1.261838679056381807e-05,-8.631416676507797092e-06,7.017287639854430381e-09,0.000000000000000000e+00,8.761088247410953045e-04,1.000000000000000000e+00
2.195794820785522461e+00,-6.511837005615234375e+00,2.266732788085937500e+02,2.266732788085937500e+02,0.000000000000000000e+00,8.907849121093750000e+01,7.924072065179643687e-07,8.204843027215247275e-09,-1.621473089130631706e-08,1.379736466333270073e-03,1.603882253675692482e-07,3.492276618999312632e-07,2.231719158589839935e-02,-1.261838679056381807e-05,-8.631416676507797092e-06,7.017287639854430381e-09,0.000000000000000000e+00,8.761088247410953045e-04,1.000000000000000000e+00
2.195794820785522461e+00,-6.511837005615234375e+00,2.266732788085937500e+02,2.266732788085937500e+02,0.000000000000000000e+00,8.907849121093750000e+01,7.924072065179643687e-07,8.204843027215247275e-09,-1.621473089130631706e-08,1.379736466333270073e-03,1.603882253675692482e-07,3.492276618999312632e-07,2.231719158589839935e-02,-1.261838679056381807e-05,-8.631416676507797092e-06,7.017287639854430381e-09,0.000000000000000000e+00,8.761088247410953045e-04,1.000000000000000000e+00
2.195794820785522461e+00,-6.511837005615234375e+00,2.266732788085937500e+02,2.266732788085937500e+02,0.000000000000000000e+00,8.907849121093750000e+01,7.924072065179643687e-07,8.204843027215247275e-09,-1.621473089130631706e-08,1.379736466333270073e-03,1.603882253675692482e-07,3.492276618999312632e-07,2.231719158589839935e-02,-1.261838679056381807e-05,-8.631416676507797092e-06,7.017287639854430381e-09,0.000000000000000000e+00,8.761088247410953045e-04,1.000000000000000000e+00
2.374083757400512695e+00,-6.511837005615234375e+00,2.266732788085937500e+02,2.266732788085937500e+02,0.000000000000000000e+00,8.907849121093750000e+01,7.924072065179643687e-07,-5.557766247221707090e-09,-4.295352340477620601e-08,1.699174405075609684e-03,-7.719272332451510010e-08,-1.499744826105597895e-07,1.791686750948429108e-03,-4.219839684083126485e-05,3.661405571619980037e-06,-2.617747618671728560e-08,0.000000000000000000e+00,8.761088247410953045e-04,1.000000000000000000e+00
2.374083757400512695e+00,-6.511837005615234375e+00,2.266732788085937500e+02,2.266732788085937500e+02,0.000000000000000000e+00,8.907849121093750000e+01,7.924072065179643687e-07,-5.557766247221707090e-09,-4.295352340477620601e-08,1.699174405075609684e-03,-7.719272332451510010e-08,-1.499744826105597895e-07,1.791686750948429108e-03,-4.219839684083126485e-05,3.661405571619980037e-06,-2.617747618671728560e-08,0.000000000000000000e+00,8.761088247410953045e-04,1.000000000000000000e+00
2.374083757400512695e+00,-6.511837005615234375e+00,2.266732788085937500e+02,2.266732788085937500e+02,0.000000000000000000e+00,8.907849121093750000e+01,7.924072065179643687e-07,-5.557766247221707090e-09,-4.295352340477620601e-08,1.699174405075609684e-03,-7.719272332451510010e-08,-1.499744826105597895e-07,1.791686750948429108e-03,-4.219839684083126485e-05,3.661405571619980037e-06,-2.617747618671728560e-08,0.000000000000000000e+00,8.761088247410953045e-04,1.000000000000000000e+00
2.447860002517700195e+00,-6.511837005615234375e+00,2.266732788085937500e+02,2.266732788085937500e+02,0.000000000000000000e+00,8.907849121093750000e+01,7.924072065179643687e-07,-1.620046652384132813e-09,-6.427244869655623916e-08,-3.551653935573995113e-04,5.337381381309569406e-08,-2.889673567096906481e-07,-2.784554474055767059e-02,-5.743309156969189644e-05,1.383028006785025354e-06,-1.443055097638534789e-08,0.000000000000000000e+00,8.761088247410953045e-04,1.000000000000000000e+00
2.447860002517700195e+00,-6.511837005615234375e+00,2.266732788085937500e+02,2.266732788085937500e+02,0.000000000000000000e+00,8.907849121093750000e+01,7.924072065179643687e-07,-1.620046652384132813e-09,-6.427244869655623916e-08,-3.551653935573995113e-04,5.337381381309569406e-08,-2.889673567096906481e-07,-2.784554474055767059e-02,-5.743309156969189644e-05,1.383028006785025354e-06,-1.443055097638534789e-08,0.000000000000000000e+00,8.761088247410953045e-04,1.000000000000000000e+00
2.500878810882568359e+00,-6.511837005615234375e+00,2.266732788085937500e+02,2.266732788085937500e+02,0.000000000000000000e+00,8.907849121093750000e+01,7.924072065179643687e-07,-2.806021859314000721e-09,5.429870242323886487e-08,1.055294647812843323e-03,-2.236895291218843340e-08,2.236397904198383912e-06,2.660301327705383301e-02,4.889127376372925937e-05,1.616235067558591254e-06,1.393593862530906335e-08,0.000000000000000000e+00,8.761088247410953045e-04,1.000000000000000000e+00
2.500878810882568359e+00,-6.511837005615234375e+00,2.266732788085937500e+02,2.266732788085937500e+02,0.000000000000000000e+00,8.907849121093750000e+01,7.924072065179643687e-07,-2.806021859314000721e-09,5.429870242323886487e-08,1.055294647812843323e-03,-2.236895291218843340e-08,2.236397904198383912e-06,2.660301327705383301e-02,4.889127376372925937e-05,1.616235067558591254e-06,1.393593862530906335e-08,0.000000000000000000e+00,8.761088247410953045e-04,1.000000000000000000e+00
2.500878810882568359e+00,-6.511837005615234375e+00,2.266732788085937500e+02,2.266732788085937500e+02,0.000000000000000000e+00,8.907849121093750000e+01,7.924072065179643687e-07,-3.625786559879884408e-09,-9.533564160335572524e-09,1.519011333584785461e-03,-1.382014858108959743e-08,-1.076127546184579842e-06,7.817650213837623596e-03,-5.418332875706255436e-06,2.548360725995735265e-06,1.026184559549392361e-08,0.000000000000000000e+00,8.761088247410953045e-04,1.000000000000000000e+00
2.560195446014404297e+00,-6.511837005615234375e+00,2.266732788085937500e+02,2.266732788085937500e+02,0.000000000000000000e+00,8.907849121093750000e+01,7.924072065179643687e-07,-3.625786559879884408e-09,-9.533564160335572524e-09,1.519011333584785461e-03,-1.382014858108959743e-08,-1.076127546184579842e-06,7.817650213837623596e-03,-5.418332875706255436e-06,2.548360725995735265e-06,1.026184559549392361e-08,0.000000000000000000e+00,8.761088247410953045e-04,1.000000000000000000e+00
2.560195446014404297e+00,-6.511837005615234375e+00,2.266732788085937500e+02,2.266732788085937500e+02,0.000000000000000000e+00,8.907849121093750000e+01,7.924072065179643687e-07,-3.625786559879884408e-09,-9.533564160335572524e-09,1.519011333584785461e-03,-1.382014858108959743e-08,-1.076127546184579842e-06,7.817650213837623596e-03,-5.418332875706255436e-06,2.548360725995735265e-06,1.026184559549392361e-08,0.000000000000000000e+00,8.761088247410953045e-04,1.000000000000000000e+00
2.618730545043945312e+00,-6.511837005615234375e+00,2.266732788085937500e+02,2.266732788085937500e+02,0.000000000000000000e+00,8.907849121093750000e+01,7.924072065179643687e-07,-6.399089258479762066e-09,-7.838788285141617962e-09,-8.314616279676556587e-04,-4.737845671343166032e-08,2.895315631690209557e-08,-4.015493020415306091e-02,-6.610970558540429920e-06,3.884011221089167520e-06,4.750272397657795409e-10,0.000000000000000000e+00,8.761088247410953045e-04,1.000000000000000000e+00
2.618730545043945312e+00,-6.511837005615234375e+00,2.266732788085937500e+02,2.266732788085937500e+02,0.000000000000000000e+00,8.907849121093750000e+01,7.924072065179643687e-07,-6.399089258479762066e-09,-7.838788285141617962e-09,-8.314616279676556587e-04,-4.737845671343166032e-08,2.895315631690209557e-08,-4.015493020415306091e-02,-6.610970558540429920e-06,3.884011221089167520e-06,4.750272397657795409e-10,0.000000000000000000e+00,8.761088247410953045e-04,1.000000000000000000e+00
2.677334070205688477e+00,-6.511837005615234375e+00,2.266732788085937500e+02,2.266732788085937500e+02,0.000000000000000000e+00,8.907849121093750000e+01,7.924072065179643687e-07,-1.005859306957290755e-08,-1.460221454863130930e-08,-4.974590847268700600e-04,-6.244511041586520150e-08,-1.154098896449795575e-07,5.699359346181154251e-03,-9.889378816296812147e-06,6.026444225426530465e-06,1.163684615335114358e-08,0.000000000000000000e+00,8.761088247410953045e-04,1.000000000000000000e+00
2.677334070205688477e+00,-6.511837005615234375e+00,2.266732788085937500e+02,2.266732788085937500e+02,0.000000000000000000e+00,8.907849121093750000e+01,7.924072065179643687e-07,-1.005859306957290755e-08,-1.460221454863130930e-08,-4.974590847268700600e-04,-6.244511041586520150e-08,-1.154098896449795575e-07,5.699359346181154251e-03,-9.889378816296812147e-06,6.026444225426530465e-06,1.163684615335114358e-08,0.000000000000000000e+00,8.761088247410953045e-04,1.000000000000000000e+00
2.677334070205688477e+00,-6.511837005615234375e+00,2.266732788085937500e+02,2.266732788085937500e+02,0.000000000000000000e+00,8.907849121093750000e+01,7.924072065179643687e-07,-1.005859306957290755e-08,-1.460221454863130930e-08,-4.974590847268700600e-04,-6.244511041586520150e-08,-1.154098896449795575e-07,5.699359346181154251e-03,-9.889378816296812147e-06,6.026444225426530465e-06,1.163684615335114358e-08,0.000000000000000000e+00,8.761088247410953045e-04,1.000000000000000000e+00
2.677334070205688477e+00,-6.511837005615234375e+00,2.266732788085937500e+02,2.266732788085937500e+02,0.000000000000000000e+00,8.907849121093750000e+01,7.924072065179643687e-07,-1.005859306957290755e-08,-1.460221454863130930e-08,-4.974590847268700600e-04,-6.244511041586520150e-08,-1.154098896449795575e-07,5.699359346181154251e-03,-9.889378816296812147e-06,6.026444225426530465e-06,1.163684615335114358e-08,0.000000000000000000e+00,8.761088247410953045e-04,1.000000000000000000e+00
2.755024909973144531e+00,-6.511837005615234375e+00,2.266732788085937500e+02,2.266732788085937500e+02,0.000000000000000000e+00,8.907849121093750000e+01,7.924072065179643687e-07,-1.051065634527503789e-08,5.107882117272311007e-08,-4.580875393003225327e-04,-5.818746373620342638e-09,8.454154567516525276e-07,5.067720776423811913e-04,4.619625542545691133e-05,5.946401870460249484e-06,1.436632501849999244e-08,0.000000000000000000e+00,8.761088247410953045e-04,1.000000000000000000e+00
2.755024909973144531e+00,-6.511837005615234375e+00,2.266732788085937500e+02,2.266732788085937500e+02,0.000000000000000000e+00,8.907849121093750000e+01,7.924072065179643687e-07,-1.051065634527503789e-08,5.107882117272311007e-08,-4.580875393003225327e-04,-5.818746373620342638e-09,8.454154567516525276e-07,5.067720776423811913e-04,4.619625542545691133e-05,5.946401870460249484e-06,1.436632501849999244e-08,0.000000000000000000e+00,8.761088247410953045e-04,1.000000000000000000e+00
2.755024909973144531e+00,-6.511837005615234375e+00,2.266732788085937500e+02,2.266732788085937500e+02,0.000000000000000000e+00,8.907849121093750000e+01,7.924072065179643687e-07,-1.051065634527503789e-08,5.107882117272311007e-08,-4.580875393003225327e-04,-5.818746373620342638e-09,8.454154567516525276e-07,5.067720776423811913e-04,4.619625542545691133e-05,5.946401870460249484e-06,1.436632501849999244e-08,0.000000000000000000e+00,8.761088247410953045e-04,1.000000000000000000e+00
2.830169916152954102e+00,-6.511837005615234375e+00,2.266732788085937500e+02,2.266732788085937500e+02,0.000000000000000000e+00,8.907849121093750000e+01,7.924072065179643687e-07,-1.207484956466942094e-08,-7.379945543561916566e-08,-9.129631216637790203e-04,-2.081566385925270879e-08,-1.661830765442573465e-06,-6.053303834050893784e-03,-6.558797031175345182e-05,7.519107839470962062e-06,-1.442483732461141699e-08,0.000000000000000000e+00,8.761088247410953045e-04,1.000000000000000000e+00
2.830169916152954102e+00,-6.511837005615234375e+00,2.266732788085937500e+02,2.266732788085937500e+02,0.000000000000000000e+00,8.907849121093750000e+01,7.924072065179643687e-07,-1.207484956466942094e-08,-7.379945543561916566e-08,-9.129631216637790203e-04,-2.081566385925270879e-08,-1.661830765442573465e-06,-6.053303834050893784e-03,-6.558797031175345182e-05,7.519107839470962062e-06,-1.442483732461141699e-08,0.000000000000000000e+00,8.761088247410953045e-04,1.000000000000000000e+00
2.830169916152954102e+00,-6.511837005615234375e+00,2.266732788085937500e+02,2.266732788085937500e+02,0.000000000000000000e+00,8.907849121093750000e+01,7.924072065179643687e-07,-1.207484956466942094e-08,-7.379945543561916566e-08,-9.129631216637790203e-04,-2.081566385925270879e-08,-1.661830765442573465e-06,-6.053303834050893784e-03,-6.558797031175345182e-05,7.519107839470962062e-06,-1.442483732461141699e-08,0.000000000000000000e+00,8.761088247410953045e-04,1.000000000000000000e+00
2.830169916152954102e+00,-6.511837005615234375e+00,2.266732788085937500e+02,2.266732788085937500e+02,0.000000000000000000e+00,8.907849121093750000e+01,7.924072065179643687e-07,-1.207484956466942094e-08,-7.379945543561916566e-08,-9.129631216637790203e-04,-2.081566385925270879e-08,-1.661830765442573465e-06,-6.053303834050893784e-03,-6.558797031175345182e-05,7.519107839470962062e-06,-1.442483732461141699e-08,0.000000000000000000e+00,8.761088247410953045e-04,1.000000000000000000e+00
2.830169916152954102e+00,-6.511837005615234375e+00,2.266732788085937500e+02,2.266732788085937500e+02,0.000000000000000000e+00,8.907849121093750000e+01,7.924072065179643687e-07,-1.207484956466942094e-08,-7.379945543561916566e-08,-9.129631216637790203e-04,-2.081566385925270879e-08,-1.661830765442573465e-06,-6.053303834050893784e-03,-6.558797031175345182e-05,7.519107839470962062e-06,-1.442483732461141699e-08,0.000000000000000000e+00,8.761088247410953045e-04,1.000000000000000000e+00
2.917726278305053711e+00,-6.511837005615234375e+00,2.266732788085937500e+02,2.266732788085937500e+02,0.000000000000000000e+00,8.907849121093750000e+01,7.924072065179643687e-07,9.787058941057580341e-10,3.598606967969431025e-09,-4.020086998934857547e-05,1.490874552700915956e-07,8.839798510962282307e-07,9.968004189431667328e-03,3.039474222532589920e-06,-4.549122252228698926e-07,-2.251751451964878470e-09,0.000000000000000000e+00,8.761088247410953045e-04,1.000000000000000000e+00
