# Time,X,Y,Z,Roll,Pitch,Yaw,Vx,Vy,Vz,Ax,Ay,Az,Wx,Wy,Wz,Throttle,Steer,Brake
0.000000000000000000e+00,6.359367065429687500e+02,1.490351715087890625e+02,1.490351715087890625e+02,1.388167589902877808e-01,2.299841493368148804e-01,1.344804149994160980e-05,-3.891702515801398476e-09,5.280979209487668413e-08,3.229352005291730165e-04,-2.998650927565904567e-07,6.483838319581991527e-07,2.616318408399820328e-03,3.209442002116702497e-05,2.342233301533269696e-06,-2.904673168657723181e-09,0.000000000000000000e+00,8.308850374305620790e-05,1.000000000000000000e+00
1.045818328857421875e-01,6.359367065429687500e+02,1.490351715087890625e+02,1.490351715087890625e+02,1.388167589902877808e-01,2.299841493368148804e-01,1.344804149994160980e-05,-3.891702515801398476e-09,5.280979209487668413e-08,3.229352005291730165e-04,-2.998650927565904567e-07,6.483838319581991527e-07,2.616318408399820328e-03,3.209442002116702497e-05,2.342233301533269696e-06,-2.904673168657723181e-09,0.000000000000000000e+00,8.308850374305620790e-05,1.000000000000000000e+00
1.045818328857421875e-01,6.359367065429687500e+02,1.490351715087890625e+02,1.490351715087890625e+02,1.388167589902877808e-01,2.299841493368148804e-01,1.344804149994160980e-05,-3.891702515801398476e-09,5.280979209487668413e-08,3.229352005291730165e-04,-2.998650927565904567e-07,6.483838319581991527e-07,2.616318408399820328e-03,3.209442002116702497e-05,2.342233301533269696e-06,-2.904673168657723181e-09,0.000000000000000000e+00,8.308850374305620790e-05,1.000000000000000000e+00
1.045818328857421875e-01,6.359367065429687500e+02,1.490351715087890625e+02,1.490351715087890625e+02,1.388167589902877808e-01,2.299841493368148804e-01,1.344804149994160980e-05,-3.891702515801398476e-09,5.280979209487668413e-08,3.229352005291730165e-04,-2.998650927565904567e-07,6.483838319581991527e-07,2.616318408399820328e-03,3.209442002116702497e-05,2.342233301533269696e-06,-2.904673168657723181e-09,0.000000000000000000e+00,8.308850374305620790e-05,1.000000000000000000e+00
1.045818328857421875e-01,6.359367065429687500e+02,1.490351715087890625e+02,1.490351715087890625e+02,1.388167589902877808e-01,2.299841493368148804e-01,1.344804149994160980e-05,-3.891702515801398476e-09,5.280979209487668413e-08,3.229352005291730165e-04,-2.998650927565904567e-07,6.483838319581991527e-07,2.616318408399820328e-03,3.209442002116702497e-05,2.342233301533269696e-06,-2.904673168657723181e-09,0.000000000000000000e+00,8.308850374305620790e-05,1.000000000000000000e+00
1.045818328857421875e-01,6.359367065429687500e+02,1.490351715087890625e+02,1.490351715087890625e+02,1.388167589902877808e-01,2.299841493368148804e-01,1.344804149994160980e-05,-3.891702515801398476e-09,5.280979209487668413e-08,3.229352005291730165e-04,-2.998650927565904567e-07,6.483838319581991527e-07,2.616318408399820328e-03,3.209442002116702497e-05,2.342233301533269696e-06,-2.904673168657723181e-09,0.000000000000000000e+00,8.308850374305620790e-05,1.000000000000000000e+00
1.045818328857421875e-01,6.359367065429687500e+02,1.490351715087890625e+02,1.490351715087890625e+02,1.388167589902877808e-01,2.299841493368148804e-01,1.344804149994160980e-05,-1.078954259270403782e-08,-3.895021194466607994e-08,-8.930243202485144138e-04,-6.587634260313279810e-08,-8.763341838857741095e-07,-1.161276083439588547e-02,-1.641735434532165527e-05,7.054246452753432095e-06,3.071143117594488103e-09,0.000000000000000000e+00,8.308850374305620790e-05,1.000000000000000000e+00
2.092907428741455078e-01,6.359367065429687500e+02,1.490351715087890625e+02,1.490351715087890625e+02,1.388167589902877808e-01,2.299841493368148804e-01,1.344804149994160980e-05,-1.078954259270403782e-08,-3.895021194466607994e-08,-8.930243202485144138e-04,-6.587634260313279810e-08,-8.763341838857741095e-07,-1.161276083439588547e-02,-1.641735434532165527e-05,7.054246452753432095e-06,3.071143117594488103e-09,0.000000000000000000e+00,8.308850374305620790e-05,1.000000000000000000e+00
2.092907428741455078e-01,6.359367065429687500e+02,1.490351715087890625e+02,1.490351715087890625e+02,1.388167589902877808e-01,2.299841493368148804e-01,1.344804149994160980e-05,-1.078954259270403782e-08,-3.895021194466607994e-08,-8.930243202485144138e-04,-6.587634260313279810e-08,-8.763341838857741095e-07,-1.161276083439588547e-02,-1.641735434532165527e-05,7.054246452753432095e-06,3.071143117594488103e-09,0.000000000000000000e+00,8.308850374305620790e-05,1.000000000000000000e+00
2.092907428741455078e-01,6.359367065429687500e+02,1.490351715087890625e+02,1.490351715087890625e+02,1.388167589902877808e-01,2.299841493368148804e-01,1.344804149994160980e-05,-1.078954259270403782e-08,-3.895021194466607994e-08,-8.930243202485144138e-04,-6.587634260313279810e-08,-8.763341838857741095e-07,-1.161276083439588547e-02,-1.641735434532165527e-05,7.054246452753432095e-06,3.071143117594488103e-09,0.000000000000000000e+00,8.308850374305620790e-05,1.000000000000000000e+00
2.092907428741455078e-01,6.359367065429687500e+02,1.490351715087890625e+02,1.490351715087890625e+02,1.388167589902877808e-01,2.299841493368148804e-01,1.344804149994160980e-05,-1.078954259270403782e-08,-3.895021194466607994e-08,-8.930243202485144138e-04,-6.587634260313279810e-08,-8.763341838857741095e-07,-1.161276083439588547e-02,-1.641735434532165527e-05,7.054246452753432095e-06,3.071143117594488103e-09,0.000000000000000000e+00,8.308850374305620790e-05,1.000000000000000000e+00
2.092907428741455078e-01,6.359367065429687500e+02,1.490351715087890625e+02,1.490351715087890625e+02,1.388167589902877808e-01,2.299841493368148804e-01,1.344804149994160980e-05,-1.734507648620819964e-08,-3.518607627484016120e-09,1.900737552205100656e-04,-8.785391258925301372e-08,4.748362414375151275e-07,1.451512705534696579e-02,4.956133125233463943e-06,9.637232324166689068e-06,-1.778553304632168874e-09,0.000000000000000000e+00,8.308850374305620790e-05,1.000000000000000000e+00
2.839093208312988281e-01,6.359367065429687500e+02,1.490351715087890625e+02,1.490351715087890625e+02,1.388167589902877808e-01,2.299841493368148804e-01,1.344804149994160980e-05,-1.734507648620819964e-08,-3.518607627484016120e-09,1.900737552205100656e-04,-8.785391258925301372e-08,4.748362414375151275e-07,1.451512705534696579e-02,4.956133125233463943e-06,9.637232324166689068e-06,-1.778553304632168874e-09,0.000000000000000000e+00,8.308850374305620790e-05,1.000000000000000000e+00
2.839093208312988281e-01,6.359367065429687500e+02,1.490351715087890625e+02,1.490351715087890625e+02,1.388167589902877808e-01,2.299841493368148804e-01,1.344804149994160980e-05,-1.734507648620819964e-08,-3.518607627484016120e-09,1.900737552205100656e-04,-8.785391258925301372e-08,4.748362414375151275e-07,1.451512705534696579e-02,4.956133125233463943e-06,9.637232324166689068e-06,-1.778553304632168874e-09,0.000000000000000000e+00,8.308850374305620790e-05,1.000000000000000000e+00
2.839093208312988281e-01,6.359367065429687500e+02,1.490351715087890625e+02,1.490351715087890625e+02,1.388167589902877808e-01,2.299841493368148804e-01,1.344804149994160980e-05,-1.734507648620819964e-08,-3.518607627484016120e-09,1.900737552205100656e-04,-8.785391258925301372e-08,4.748362414375151275e-07,1.451512705534696579e-02,4.956133125233463943e-06,9.637232324166689068e-06,-1.778553304632168874e-09,0.000000000000000000e+00,8.308850374305620790e-05,1.000000000000000000e+00
2.839093208312988281e-01,6.359367065429687500e+02,1.490351715087890625e+02,1.490351715087890625e+02,1.388167589902877808e-01,2.299841493368148804e-01,1.344804149994160980e-05,-1.734507648620819964e-08,-3.518607627484016120e-09,1.900737552205100656e-04,-8.785391258925301372e-08,4.748362414375151275e-07,1.451512705534696579e-02,4.956133125233463943e-06,9.637232324166689068e-06,-1.778553304632168874e-09,0.000000000000000000e+00,8.308850374305620790e-05,1.000000000000000000e+00
3.569011688232421875e-01,6.359367065429687500e+02,1.490351715087890625e+02,1.490351715087890625e+02,1.388167589902877808e-01,2.299841493368148804e-01,1.344804149994160980e-05,1.073424726882876712e-08,-6.195064017333606898e-09,1.618591952137649059e-03,3.846912193239404587e-07,-3.666788117584474094e-08,1.957092806696891785e-02,-1.757674363034311682e-05,-7.419812391162849963e-06,-1.372587377090894734e-09,0.000000000000000000e+00,8.308850374305620790e-05,1.000000000000000000e+00
3.569011688232421875e-01,6.359367065429687500e+02,1.490351715087890625e+02,1.490351715087890625e+02,1.388167589902877808e-01,2.299841493368148804e-01,1.344804149994160980e-05,1.073424726882876712e-08,-6.195064017333606898e-09,1.618591952137649059e-03,3.846912193239404587e-07,-3.666788117584474094e-08,1.957092806696891785e-02,-1.757674363034311682e-05,-7.419812391162849963e-06,-1.372587377090894734e-09,0.000000000000000000e+00,8.308850374305620790e-05,1.000000000000000000e+00
3.569011688232421875e-01,6.359367065429687500e+02,1.490351715087890625e+02,1.490351715087890625e+02,1.388167589902877808e-01,2.299841493368148804e-01,1.344804149994160980e-05,1.073424726882876712e-08,-6.195064017333606898e-09,1.618591952137649059e-03,3.846912193239404587e-07,-3.666788117584474094e-08,1.957092806696891785e-02,-1.757674363034311682e-05,-7.419812391162849963e-06,-1.372587377090894734e-09,0.000000000000000000e+00,8.308850374305620790e-05,1.000000000000000000e+00
3.569011688232421875e-01,6.359367065429687500e+02,1.490351715087890625e+02,1.490351715087890625e+02,1.388167589902877808e-01,2.299841493368148804e-01,1.344804149994160980e-05,1.073424726882876712e-08,-6.195064017333606898e-09,1.618591952137649059e-03,3.846912193239404587e-07,-3.666788117584474094e-08,1.957092806696891785e-02,-1.757674363034311682e-05,-7.419812391162849963e-06,-1.372587377090894734e-09,0.000000000000000000e+00,8.308850374305620790e-05,1.000000000000000000e+00
4.765405654907226562e-01,6.359367065429687500e+02,1.490351715087890625e+02,1.490351715087890625e+02,1.388167589902877808e-01,2.299841493368148804e-01,1.344804149994160980e-05,6.345145742159274960e-09,4.877337289599381620e-08,9.316704818047583103e-04,-3.668608883344859350e-08,4.594510016886488302e-07,-5.741599481552839279e-03,3.726350769284181297e-05,-4.008379619335755706e-06,-5.744615894087701236e-09,0.000000000000000000e+00,8.308850374305620790e-05,1.000000000000000000e+00
4.765405654907226562e-01,6.359367065429687500e+02,1.490351715087890625e+02,1.490351715087890625e+02,1.388167589902877808e-01,2.299841493368148804e-01,1.344804149994160980e-05,6.345145742159274960e-09,4.877337289599381620e-08,9.316704818047583103e-04,-3.668608883344859350e-08,4.594510016886488302e-07,-5.741599481552839279e-03,3.726350769284181297e-05,-4.008379619335755706e-06,-5.744615894087701236e-09,0.000000000000000000e+00,8.308850374305620790e-05,1.000000000000000000e+00
4.765405654907226562e-01,6.359367065429687500e+02,1.490351715087890625e+02,1.490351715087890625e+02,1.388167589902877808e-01,2.299841493368148804e-01,1.344804149994160980e-05,6.345145742159274960e-09,4.877337289599381620e-08,9.316704818047583103e-04,-3.668608883344859350e-08,4.594510016886488302e-07,-5.741599481552839279e-03,3.726350769284181297e-05,-4.008379619335755706e-06,-5.744615894087701236e-09,0.000000000000000000e+00,8.308850374305620790e-05,1.000000000000000000e+00
4.765405654907226562e-01,6.359367065429687500e+02,1.490351715087890625e+02,1.490351715087890625e+02,1.388167589902877808e-01,2.299841493368148804e-01,1.344804149994160980e-05,6.345145742159274960e-09,4.877337289599381620e-08,9.316704818047583103e-04,-3.668608883344859350e-08,4.594510016886488302e-07,-5.741599481552839279e-03,3.726350769284181297e-05,-4.008379619335755706e-06,-5.744615894087701236e-09,0.000000000000000000e+00,8.308850374305620790e-05,1.000000000000000000e+00
4.765405654907226562e-01,6.359367065429687500e+02,1.490351715087890625e+02,1.490351715087890625e+02,1.388167589902877808e-01,2.299841493368148804e-01,1.344804149994160980e-05,6.345145742159274960e-09,4.877337289599381620e-08,9.316704818047583103e-04,-3.668608883344859350e-08,4.594510016886488302e-07,-5.741599481552839279e-03,3.726350769284181297e-05,-4.008379619335755706e-06,-5.744615894087701236e-09,0.000000000000000000e+00,8.308850374305620790e-05,1.000000000000000000e+00
4.765405654907226562e-01,6.359367065429687500e+02,1.490351715087890625e+02,1.490351715087890625e+02,1.388167589902877808e-01,2.299841493368148804e-01,1.344804149994160980e-05,6.345145742159274960e-09,4.877337289599381620e-08,9.316704818047583103e-04,-3.668608883344859350e-08,4.594510016886488302e-07,-5.741599481552839279e-03,3.726350769284181297e-05,-4.008379619335755706e-06,-5.744615894087701236e-09,0.000000000000000000e+00,8.308850374305620790e-05,1.000000000000000000e+00
4.765405654907226562e-01,6.359367065429687500e+02,1.490351715087890625e+02,1.490351715087890625e+02,1.388167589902877808e-01,2.299841493368148804e-01,1.344804149994160980e-05,6.345145742159274960e-09,4.877337289599381620e-08,9.316704818047583103e-04,-3.668608883344859350e-08,4.594510016886488302e-07,-5.741599481552839279e-03,3.726350769284181297e-05,-4.008379619335755706e-06,-5.744615894087701236e-09,0.000000000000000000e+00,8.308850374305620790e-05,1.000000000000000000e+00
6.200885772705078125e-01,6.359367065429687500e+02,1.490351715087890625e+02,1.490351715087890625e+02,1.388167589902877808e-01,2.299841493368148804e-01,1.344804149994160980e-05,1.428998031016703862e-09,1.581670439065874234e-08,-1.533252652734518051e-04,-3.424741024105060205e-08,-2.295864049983720179e-07,-7.558417040854692459e-03,8.214946092266472988e-07,2.784986747883522185e-07,2.924131825565723375e-09,0.000000000000000000e+00,8.308850374305620790e-05,1.000000000000000000e+00
6.200885772705078125e-01,6.359367065429687500e+02,1.490351715087890625e+02,1.490351715087890625e+02,1.388167589902877808e-01,2.299841493368148804e-01,1.344804149994160980e-05,1.428998031016703862e-09,1.581670439065874234e-08,-1.533252652734518051e-04,-3.424741024105060205e-08,-2.295864049983720179e-07,-7.558417040854692459e-03,8.214946092266472988e-07,2.784986747883522185e-07,2.924131825565723375e-09,0.000000000000000000e+00,8.308850374305620790e-05,1.000000000000000000e+00
6.200885772705078125e-01,6.359367065429687500e+02,1.490351715087890625e+02,1.490351715087890625e+02,1.388167589902877808e-01,2.299841493368148804e-01,1.344804149994160980e-05,1.428998031016703862e-09,1.581670439065874234e-08,-1.533252652734518051e-04,-3.424741024105060205e-08,-2.295864049983720179e-07,-7.558417040854692459e-03,8.214946092266472988e-07,2.784986747883522185e-07,2.924131825565723375e-09,0.000000000000000000e+00,8.308850374305620790e-05,1.000000000000000000e+00
6.200885772705078125e-01,6.359367065429687500e+02,1.490351715087890625e+02,1.490351715087890625e+02,1.388167589902877808e-01,2.299841493368148804e-01,1.344804149994160980e-05,1.428998031016703862e-09,1.581670439065874234e-08,-1.533252652734518051e-04,-3.424741024105060205e-08,-2.295864049983720179e-07,-7.558417040854692459e-03,8.214946092266472988e-07,2.784986747883522185e-07,2.924131825565723375e-09,0.000000000000000000e+00,8.308850374305620790e-05,1.000000000000000000e+00
6.200885772705078125e-01,6.359367065429687500e+02,1.490351715087890625e+02,1.490351715087890625e+02,1.388167589902877808e-01,2.299841493368148804e-01,1.344804149994160980e-05,1.428998031016703862e-09,1.581670439065874234e-08,-1.533252652734518051e-04,-3.424741024105060205e-08,-2.295864049983720179e-07,-7.558417040854692459e-03,8.214946092266472988e-07,2.784986747883522185e-07,2.924131825565723375e-09,0.000000000000000000e+00,8.308850374305620790e-05,1.000000000000000000e+00
6.200885772705078125e-01,6.359367065429687500e+02,1.490351715087890625e+02,1.490351715087890625e+02,1.388167589902877808e-01,2.299841493368148804e-01,1.344804149994160980e-05,1.428998031016703862e-09,1.581670439065874234e-08,-1.533252652734518051e-04,-3.424741024105060205e-08,-2.295864049983720179e-07,-7.558417040854692459e-03,8.214946092266472988e-07,2.784986747883522185e-07,2.924131825565723375e-09,0.000000000000000000e+00,8.308850374305620790e-05,1.000000000000000000e+00
7.946169376373291016e-01,6.359367065429687500e+02,1.490351715087890625e+02,1.490351715087890625e+02,1.388167589902877808e-01,2.299841493368148804e-01,1.344804149994160980e-05,-1.045587616488319327e-08,-7.052006201213600889e-10,-2.564956412243191153e-05,-6.809709418575948803e-08,-9.466602080010488862e-08,7.315469556488096714e-04,-3.895659403951867716e-07,6.034639682184206322e-06,4.387042118469963725e-10,0.000000000000000000e+00,8.308850374305620790e-05,1.000000000000000000e+00
7.946169376373291016e-01,6.359367065429687500e+02,1.490351715087890625e+02,1.490351715087890625e+02,1.388167589902877808e-01,2.299841493368148804e-01,1.344804149994160980e-05,-1.045587616488319327e-08,-7.052006201213600889e-10,-2.564956412243191153e-05,-6.809709418575948803e-08,-9.466602080010488862e-08,7.315469556488096714e-04,-3.895659403951867716e-07,6.034639682184206322e-06,4.387042118469963725e-10,0.000000000000000000e+00,8.308850374305620790e-05,1.000000000000000000e+00
7.946169376373291016e-01,6.359367065429687500e+02,1.490351715087890625e+02,1.490351715087890625e+02,1.388167589902877808e-01,2.299841493368148804e-01,1.344804149994160980e-05,-1.045587616488319327e-08,-7.052006201213600889e-10,-2.564956412243191153e-05,-6.809709418575948803e-08,-9.466602080010488862e-08,7.315469556488096714e-04,-3.895659403951867716e-07,6.034639682184206322e-06,4.387042118469963725e-10,0.000000000000000000e+00,8.308850374305620790e-05,1.000000000000000000e+00
7.946169376373291016e-01,6.359367065429687500e+02,1.490351715087890625e+02,1.490351715087890625e+02,1.388167589902877808e-01,2.299841493368148804e-01,1.344804149994160980e-05,-1.045587616488319327e-08,-7.052006201213600889e-10,-2.564956412243191153e-05,-6.809709418575948803e-08,-9.466602080010488862e-08,7.315469556488096714e-04,-3.895659403951867716e-07,6.034639682184206322e-06,4.387042118469963725e-10,0.000000000000000000e+00,8.308850374305620790e-05,1.000000000000000000e+00
8.783230781555175781e-01,6.359367065429687500e+02,1.490351715087890625e+02,1.490351715087890625e+02,1.388167589902877808e-01,2.299841493368148804e-01,1.344804149994160980e-05,-2.008785138229995937e-08,-2.930391040933955082e-09,1.329200404143193737e-05,-1.150689215023703582e-07,-2.658336129002236703e-08,4.652175994124263525e-04,-1.244872692041099072e-06,1.152567529061343521e-05,1.460576659617629502e-10,0.000000000000000000e+00,8.308850374305620790e-05,1.000000000000000000e+00
8.783230781555175781e-01,6.359367065429687500e+02,1.490351715087890625e+02,1.490351715087890625e+02,1.388167589902877808e-01,2.299841493368148804e-01,1.344804149994160980e-05,-2.008785138229995937e-08,-2.930391040933955082e-09,1.329200404143193737e-05,-1.150689215023703582e-07,-2.658336129002236703e-08,4.652175994124263525e-04,-1.244872692041099072e-06,1.152567529061343521e-05,1.460576659617629502e-10,0.000000000000000000e+00,8.308850374305620790e-05,1.000000000000000000e+00
9.483780860900878906e-01,6.359367065429687500e+02,1.490351715087890625e+02,1.490351715087890625e+02,1.388167589902877808e-01,2.299841493368148804e-01,1.344804149994160980e-05,-3.656909797200569301e-08,-9.635911624172877055e-09,1.595865585841238499e-03,-2.352615098288879381e-07,-9.571793668783357134e-08,2.259044349193572998e-02,-4.190570962236961350e-06,2.237092485302127898e-05,4.535186004517299807e-09,0.000000000000000000e+00,8.308850374305620790e-05,1.000000000000000000e+00
9.483780860900878906e-01,6.359367065429687500e+02,1.490351715087890625e+02,1.490351715087890625e+02,1.388167589902877808e-01,2.299841493368148804e-01,1.344804149994160980e-05,-3.656909797200569301e-08,-9.635911624172877055e-09,1.595865585841238499e-03,-2.352615098288879381e-07,-9.571793668783357134e-08,2.259044349193572998e-02,-4.190570962236961350e-06,2.237092485302127898e-05,4.535186004517299807e-09,0.000000000000000000e+00,8.308850374305620790e-05,1.000000000000000000e+00
9.483780860900878906e-01,6.359367065429687500e+02,1.490351715087890625e+02,1.490351715087890625e+02,1.388167589902877808e-01,2.299841493368148804e-01,1.344804149994160980e-05,-3.656909797200569301e-08,-9.635911624172877055e-09,1.595865585841238499e-03,-2.352615098288879381e-07,-9.571793668783357134e-08,2.259044349193572998e-02,-4.190570962236961350e-06,2.237092485302127898e-05,4.535186004517299807e-09,0.000000000000000000e+00,8.308850374305620790e-05,1.000000000000000000e+00
9.483780860900878906e-01,6.359367065429687500e+02,1.490351715087890625e+02,1.490351715087890625e+02,1.388167589902877808e-01,2.299841493368148804e-01,1.344804149994160980e-05,-3.656909797200569301e-08,-9.635911624172877055e-09,1.595865585841238499e-03,-2.352615098288879381e-07,-9.571793668783357134e-08,2.259044349193572998e-02,-4.190570962236961350e-06,2.237092485302127898e-05,4.535186004517299807e-09,0.000000000000000000e+00,8.308850374305620790e-05,1.000000000000000000e+00
9.483780860900878906e-01,6.359367065429687500e+02,1.490351715087890625e+02,1.490351715087890625e+02,1.388167589902877808e-01,2.299841493368148804e-01,1.344804149994160980e-05,-8.063532064284117951e-09,7.545779823203702108e-08,3.536682052072137594e-04,3.617502954966766993e-07,1.079882963495037984e-06,-1.576412282884120941e-02,4.830388934351503849e-05,5.734216301789274439e-06,-2.552166034064384803e-09,0.000000000000000000e+00,8.308850374305620790e-05,1.000000000000000000e+00
1.027177095413208008e+00,6.359367065429687500e+02,1.490351715087890625e+02,1.490351715087890625e+02,1.388167589902877808e-01,2.299841493368148804e-01,1.344804149994160980e-05,-8.063532064284117951e-09,7.545779823203702108e-08,3.536682052072137594e-04,3.617502954966766993e-07,1.079882963495037984e-06,-1.576412282884120941e-02,4.830388934351503849e-05,5.734216301789274439e-06,-2.552166034064384803e-09,0.000000000000000000e+00,8.308850374305620790e-05,1.000000000000000000e+00
1.027177095413208008e+00,6.359367065429687500e+02,1.490351715087890625e+02,1.490351715087890625e+02,1.388167589902877808e-01,2.299841493368148804e-01,1.344804149994160980e-05,-8.063532064284117951e-09,7.545779823203702108e-08,3.536682052072137594e-04,3.617502954966766993e-07,1.079882963495037984e-06,-1.576412282884120941e-02,4.830388934351503849e-05,5.734216301789274439e-06,-2.552166034064384803e-09,0.000000000000000000e+00,8.308850374305620790e-05,1.000000000000000000e+00
1.095043420791625977e+00,6.359367065429687500e+02,1.490351715087890625e+02,1.490351715087890625e+02,1.388167589902877808e-01,2.299841493368148804e-01,1.344804149994160980e-05,-6.935140017816365798e-09,-9.190475935838549049e-08,-4.681516729760915041e-04,1.662668580593162915e-08,-2.466061914674355648e-06,-1.210939139127731323e-02,-5.538059485843405128e-05,4.274680577509570867e-06,5.676462855319641676e-09,0.000000000000000000e+00,8.308850374305620790e-05,1.000000000000000000e+00
1.095043420791625977e+00,6.359367065429687500e+02,1.490351715087890625e+02,1.490351715087890625e+02,1.388167589902877808e-01,2.299841493368148804e-01,1.344804149994160980e-05,-6.935140017816365798e-09,-9.190475935838549049e-08,-4.681516729760915041e-04,1.662668580593162915e-08,-2.466061914674355648e-06,-1.210939139127731323e-02,-5.538059485843405128e-05,4.274680577509570867e-06,5.676462855319641676e-09,0.000000000000000000e+00,8.308850374305620790e-05,1.000000000000000000e+00
1.095043420791625977e+00,6.359367065429687500e+02,1.490351715087890625e+02,1.490351715087890625e+02,1.388167589902877808e-01,2.299841493368148804e-01,1.344804149994160980e-05,-6.935140017816365798e-09,-9.190475935838549049e-08,-4.681516729760915041e-04,1.662668580593162915e-08,-2.466061914674355648e-06,-1.210939139127731323e-02,-5.538059485843405128e-05,4.274680577509570867e-06,5.676462855319641676e-09,0.000000000000000000e+00,8.308850374305620790e-05,1.000000000000000000e+00
1.095043420791625977e+00,6.359367065429687500e+02,1.490351715087890625e+02,1.490351715087890625e+02,1.388167589902877808e-01,2.299841493368148804e-01,1.344804149994160980e-05,-6.935140017816365798e-09,-9.190475935838549049e-08,-4.681516729760915041e-04,1.662668580593162915e-08,-2.466061914674355648e-06,-1.210939139127731323e-02,-5.538059485843405128e-05,4.274680577509570867e-06,5.676462855319641676e-09,0.000000000000000000e+00,8.308850374305620790e-05,1.000000000000000000e+00
1.168572425842285156e+00,6.359367065429687500e+02,1.490351715087890625e+02,1.490351715087890625e+02,1.388167589902877808e-01,2.299841493368148804e-01,1.344804149994160980e-05,-3.296788264606220764e-08,7.609446406320330425e-10,1.039869268424808979e-03,-3.540472448548825923e-07,1.260260432900395244e-06,2.050919644534587860e-02,6.893542945363151375e-07,1.952969796548131853e-05,1.929520099253068111e-09,0.000000000000000000e+00,8.308850374305620790e-05,1.000000000000000000e+00
1.168572425842285156e+00,6.359367065429687500e+02,1.490351715087890625e+02,1.490351715087890625e+02,1.388167589902877808e-01,2.299841493368148804e-01,1.344804149994160980e-05,-3.296788264606220764e-08,7.609446406320330425e-10,1.039869268424808979e-03,-3.540472448548825923e-07,1.260260432900395244e-06,2.050919644534587860e-02,6.893542945363151375e-07,1.952969796548131853e-05,1.929520099253068111e-09,0.000000000000000000e+00,8.308850374305620790e-05,1.000000000000000000e+00
1.168572425842285156e+00,6.359367065429687500e+02,1.490351715087890625e+02,1.490351715087890625e+02,1.388167589902877808e-01,2.299841493368148804e-01,1.344804149994160980e-05,-3.296788264606220764e-08,7.609446406320330425e-10,1.039869268424808979e-03,-3.540472448548825923e-07,1.260260432900395244e-06,2.050919644534587860e-02,6.893542945363151375e-07,1.952969796548131853e-05,1.929520099253068111e-09,0.000000000000000000e+00,8.308850374305620790e-05,1.000000000000000000e+00
1.168572425842285156e+00,6.359367065429687500e+02,1.490351715087890625e+02,1.490351715087890625e+02,1.388167589902877808e-01,2.299841493368148804e-01,1.344804149994160980e-05,-3.296788264606220764e-08,7.609446406320330425e-10,1.039869268424808979e-03,-3.540472448548825923e-07,1.260260432900395244e-06,2.050919644534587860e-02,6.893542945363151375e-07,1.952969796548131853e-05,1.929520099253068111e-09,0.000000000000000000e+00,8.308850374305620790e-05,1.000000000000000000e+00
1.168572425842285156e+00,6.359367065429687500e+02,1.490351715087890625e+02,1.490351715087890625e+02,1.388167589902877808e-01,2.299841493368148804e-01,1.344804149994160980e-05,2.027178069852197950e-08,4.201730519071134040e-09,-7.243616855703294277e-04,7.094039347066427581e-07,4.584752844039030606e-08,-2.350789308547973633e-02,1.988490566873224452e-06,-1.160234296548878774e-05,-1.652448178290910619e-10,0.000000000000000000e+00,8.308850374305620790e-05,1.000000000000000000e+00
1.243620872497558594e+00,6.359367065429687500e+02,1.490351715087890625e+02,1.490351715087890625e+02,1.388167589902877808e-01,2.299841493368148804e-01,1.344804149994160980e-05,2.027178069852197950e-08,4.201730519071134040e-09,-7.243616855703294277e-04,7.094039347066427581e-07,4.584752844039030606e-08,-2.350789308547973633e-02,1.988490566873224452e-06,-1.160234296548878774e-05,-1.652448178290910619e-10,0.000000000000000000e+00,8.308850374305620790e-05,1.000000000000000000e+00
1.243620872497558594e+00,6.359367065429687500e+02,1.490351715087890625e+02,1.490351715087890625e+02,1.388167589902877808e-01,2.299841493368148804e-01,1.344804149994160980e-05,2.027178069852197950e-08,4.201730519071134040e-09,-7.243616855703294277e-04,7.094039347066427581e-07,4.584752844039030606e-08,-2.350789308547973633e-02,1.988490566873224452e-06,-1.160234296548878774e-05,-1.652448178290910619e-10,0.000000000000000000e+00,8.308850374305620790e-05,1.000000000000000000e+00
1.243620872497558594e+00,6.359367065429687500e+02,1.490351715087890625e+02,1.490351715087890625e+02,1.388167589902877808e-01,2.299841493368148804e-01,1.344804149994160980e-05,2.027178069852197950e-08,4.201730519071134040e-09,-7.243616855703294277e-04,7.094039347066427581e-07,4.584752844039030606e-08,-2.350789308547973633e-02,1.988490566873224452e-06,-1.160234296548878774e-05,-1.652448178290910619e-10,0.000000000000000000e+00,8.308850374305620790e-05,1.000000000000000000e+00
1.312042951583862305e+00,6.359367065429687500e+02,1.490351715087890625e+02,1.490351715087890625e+02,1.388167589902877808e-01,2.299841493368148804e-01,1.344804149994160980e-05,-5.040787787180533996e-09,5.226046262407635368e-09,-7.758024730719625950e-04,-3.699473722917900886e-07,1.497054391563779063e-08,-7.518156198784708977e-04,9.815429393711383455e-07,3.623927568696672097e-06,2.789777964196105131e-09,0.000000000000000000e+00,8.308850374305620790e-05,1.000000000000000000e+00
1.312042951583862305e+00,6.359367065429687500e+02,1.490351715087890625e+02,1.490351715087890625e+02,1.388167589902877808e-01,2.299841493368148804e-01,1.344804149994160980e-05,-5.040787787180533996e-09,5.226046262407635368e-09,-7.758024730719625950e-04,-3.699473722917900886e-07,1.497054391563779063e-08,-7.518156198784708977e-04,9.815429393711383455e-07,3.623927568696672097e-06,2.789777964196105131e-09,0.000000000000000000e+00,8.308850374305620790e-05,1.000000000000000000e+00
1.312042951583862305e+00,6.359367065429687500e+02,1.490351715087890625e+02,1.490351715087890625e+02,1.388167589902877808e-01,2.299841493368148804e-01,1.344804149994160980e-05,-3.155547645405931689e-08,2.788585007351684908e-08,3.961878828704357147e-04,-3.729923889750352828e-07,3.187642221291753231e-07,1.648684032261371613e-02,1.996748869714792818e-05,1.842714482336305082e-05,-3.043781227063391270e-09,0.000000000000000000e+00,8.308850374305620790e-05,1.000000000000000000e+00
1.383129358291625977e+00,6.359367065429687500e+02,1.490351715087890625e+02,1.490351715087890625e+02,1.388167589902877808e-01,2.299841493368148804e-01,1.344804149994160980e-05,-3.155547645405931689e-08,2.788585007351684908e-08,3.961878828704357147e-04,-3.729923889750352828e-07,3.187642221291753231e-07,1.648684032261371613e-02,1.996748869714792818e-05,1.842714482336305082e-05,-3.043781227063391270e-09,0.000000000000000000e+00,8.308850374305620790e-05,1.000000000000000000e+00
1.383129358291625977e+00,6.359367065429687500e+02,1.490351715087890625e+02,1.490351715087890625e+02,1.388167589902877808e-01,2.299841493368148804e-01,1.344804149994160980e-05,-3.155547645405931689e-08,2.788585007351684908e-08,3.961878828704357147e-04,-3.729923889750352828e-07,3.187642221291753231e-07,1.648684032261371613e-02,1.996748869714792818e-05,1.842714482336305082e-05,-3.043781227063391270e-09,0.000000000000000000e+00,8.308850374305620790e-05,1.000000000000000000e+00
1.450951814651489258e+00,6.359367065429687500e+02,1.490351715087890625e+02,1.490351715087890625e+02,1.388167589902877808e-01,2.299841493368148804e-01,1.344804149994160980e-05,-2.625636152941979162e-09,-6.678434694151746953e-09,-4.052348667755723000e-04,4.265525319624430267e-07,-5.096288759887102060e-07,-1.181648112833499908e-02,-2.914620154115254991e-06,2.244502184112207033e-06,2.079469485494200853e-09,0.000000000000000000e+00,8.308850374305620790e-05,1.000000000000000000e+00
1.450951814651489258e+00,6.359367065429687500e+02,1.490351715087890625e+02,1.490351715087890625e+02,1.388167589902877808e-01,2.299841493368148804e-01,1.344804149994160980e-05,-2.625636152941979162e-09,-6.678434694151746953e-09,-4.052348667755723000e-04,4.265525319624430267e-07,-5.096288759887102060e-07,-1.181648112833499908e-02,-2.914620154115254991e-06,2.244502184112207033e-06,2.079469485494200853e-09,0.000000000000000000e+00,8.308850374305620790e-05,1.000000000000000000e+00
1.450951814651489258e+00,6.359367065429687500e+02,1.490351715087890625e+02,1.490351715087890625e+02,1.388167589902877808e-01,2.299841493368148804e-01,1.344804149994160980e-05,-2.625636152941979162e-09,-6.678434694151746953e-09,-4.052348667755723000e-04,4.265525319624430267e-07,-5.096288759887102060e-07,-1.181648112833499908e-02,-2.914620154115254991e-06,2.244502184112207033e-06,2.079469485494200853e-09,0.000000000000000000e+00,8.308850374305620790e-05,1.000000000000000000e+00
1.527701377868652344e+00,6.359367065429687500e+02,1.490351715087890625e+02,1.490351715087890625e+02,1.388167589902877808e-01,2.299841493368148804e-01,1.344804149994160980e-05,3.006916715619922797e-09,-4.275551024335300099e-09,-7.574007031507790089e-05,7.338873331264039734e-08,3.130810810603179561e-08,4.293116275221109390e-03,-1.918476073115016334e-06,-1.706879970697627869e-06,4.005334952594807874e-10,0.000000000000000000e+00,8.308850374305620790e-05,1.000000000000000000e+00
1.527701377868652344e+00,6.359367065429687500e+02,1.490351715087890625e+02,1.490351715087890625e+02,1.388167589902877808e-01,2.299841493368148804e-01,1.344804149994160980e-05,3.006916715619922797e-09,-4.275551024335300099e-09,-7.574007031507790089e-05,7.338873331264039734e-08,3.130810810603179561e-08,4.293116275221109390e-03,-1.918476073115016334e-06,-1.706879970697627869e-06,4.005334952594807874e-10,0.000000000000000000e+00,8.308850374305620790e-05,1.000000000000000000e+00
1.527701377868652344e+00,6.359367065429687500e+02,1.490351715087890625e+02,1.490351715087890625e+02,1.388167589902877808e-01,2.299841493368148804e-01,1.344804149994160980e-05,3.006916715619922797e-09,-4.275551024335300099e-09,-7.574007031507790089e-05,7.338873331264039734e-08,3.130810810603179561e-08,4.293116275221109390e-03,-1.918476073115016334e-06,-1.706879970697627869e-06,4.005334952594807874e-10,0.000000000000000000e+00,8.308850374305620790e-05,1.000000000000000000e+00
1.600134611129760742e+00,6.359367065429687500e+02,1.490351715087890625e+02,1.490351715087890625e+02,1.388167589902877808e-01,2.299841493368148804e-01,1.344804149994160980e-05,-1.516015224467537337e-08,-4.636806139046711905e-08,-1.237021293491125107e-03,-2.508112402210826986e-07,-5.811215260109747760e-07,-1.603243686258792877e-02,-4.626138888852437958e-06,9.261303603125270456e-06,6.533494856242327842e-10,0.000000000000000000e+00,8.308850374305620790e-05,1.000000000000000000e+00
1.600134611129760742e+00,6.359367065429687500e+02,1.490351715087890625e+02,1.490351715087890625e+02,1.388167589902877808e-01,2.299841493368148804e-01,1.344804149994160980e-05,-1.516015224467537337e-08,-4.636806139046711905e-08,-1.237021293491125107e-03,-2.508112402210826986e-07,-5.811215260109747760e-07,-1.603243686258792877e-02,-4.626138888852437958e-06,9.261303603125270456e-06,6.533494856242327842e-10,0.000000000000000000e+00,8.308850374305620790e-05,1.000000000000000000e+00
1.600134611129760742e+00,6.359367065429687500e+02,1.490351715087890625e+02,1.490351715087890625e+02,1.388167589902877808e-01,2.299841493368148804e-01,1.344804149994160980e-05,-1.516015224467537337e-08,-4.636806139046711905e-08,-1.237021293491125107e-03,-2.508112402210826986e-07,-5.811215260109747760e-07,-1.603243686258792877e-02,-4.626138888852437958e-06,9.261303603125270456e-06,6.533494856242327842e-10,0.000000000000000000e+00,8.308850374305620790e-05,1.000000000000000000e+00
1.600134611129760742e+00,6.359367065429687500e+02,1.490351715087890625e+02,1.490351715087890625e+02,1.388167589902877808e-01,2.299841493368148804e-01,1.344804149994160980e-05,-1.516015224467537337e-08,-4.636806139046711905e-08,-1.237021293491125107e-03,-2.508112402210826986e-07,-5.811215260109747760e-07,-1.603243686258792877e-02,-4.626138888852437958e-06,9.261303603125270456e-06,6.533494856242327842e-10,0.000000000000000000e+00,8.308850374305620790e-05,1.000000000000000000e+00
1.600134611129760742e+00,6.359367065429687500e+02,1.490351715087890625e+02,1.490351715087890625e+02,1.388167589902877808e-01,2.299841493368148804e-01,1.344804149994160980e-05,-1.516015224467537337e-08,-4.636806139046711905e-08,-1.237021293491125107e-03,-2.508112402210826986e-07,-5.811215260109747760e-07,-1.603243686258792877e-02,-4.626138888852437958e-06,9.261303603125270456e-06,6.533494856242327842e-10,0.000000000000000000e+00,8.308850374305620790e-05,1.000000000000000000e+00
1.600134611129760742e+00,6.359367065429687500e+02,1.490351715087890625e+02,1.490351715087890625e+02,1.388167589902877808e-01,2.299841493368148804e-01,1.344804149994160980e-05,2.535029963723900437e-08,-1.612787770000068122e-08,1.629211910767480731e-04,3.511080706175562227e-07,2.620946588649530895e-07,1.213344000279903412e-02,-7.014379661995917559e-06,-1.526833511888980865e-05,-1.997982002066578389e-09,0.000000000000000000e+00,8.308850374305620790e-05,1.000000000000000000e+00
1.715513467788696289e+00,6.359367065429687500e+02,1.490351715087890625e+02,1.490351715087890625e+02,1.388167589902877808e-01,2.299841493368148804e-01,1.344804149994160980e-05,2.535029963723900437e-08,-1.612787770000068122e-08,1.629211910767480731e-04,3.511080706175562227e-07,2.620946588649530895e-07,1.213344000279903412e-02,-7.014379661995917559e-06,-1.526833511888980865e-05,-1.997982002066578389e-09,0.000000000000000000e+00,8.308850374305620790e-05,1.000000000000000000e+00
1.715513467788696289e+00,6.359367065429687500e+02,1.490351715087890625e+02,1.490351715087890625e+02,1.388167589902877808e-01,2.299841493368148804e-01,1.344804149994160980e-05,2.535029963723900437e-08,-1.612787770000068122e-08,1.629211910767480731e-04,3.511080706175562227e-07,2.620946588649530895e-07,1.213344000279903412e-02,-7.014379661995917559e-06,-1.526833511888980865e-05,-1.997982002066578389e-09,0.000000000000000000e+00,8.308850374305620790e-05,1.000000000000000000e+00
1.715513467788696289e+00,6.359367065429687500e+02,1.490351715087890625e+02,1.490351715087890625e+02,1.388167589902877808e-01,2.299841493368148804e-01,1.344804149994160980e-05,2.535029963723900437e-08,-1.612787770000068122e-08,1.629211910767480731e-04,3.511080706175562227e-07,2.620946588649530895e-07,1.213344000279903412e-02,-7.014379661995917559e-06,-1.526833511888980865e-05,-1.997982002066578389e-09,0.000000000000000000e+00,8.308850374305620790e-05,1.000000000000000000e+00
1.813115119934082031e+00,6.359367065429687500e+02,1.490351715087890625e+02,1.490351715087890625e+02,1.388167589902877808e-01,2.299841493368148804e-01,1.344804149994160980e-05,-2.151859135324230010e-08,-1.488743883726328932e-08,-9.324998827651143074e-04,-4.802059265784919262e-07,1.270919991469554589e-08,-1.122338604182004929e-02,-6.464923444582382217e-06,1.387764950777636841e-05,4.129089958837539598e-09,0.000000000000000000e+00,8.308850374305620790e-05,1.000000000000000000e+00
1.813115119934082031e+00,6.359367065429687500e+02,1.490351715087890625e+02,1.490351715087890625e+02,1.388167589902877808e-01,2.299841493368148804e-01,1.344804149994160980e-05,-2.151859135324230010e-08,-1.488743883726328932e-08,-9.324998827651143074e-04,-4.802059265784919262e-07,1.270919991469554589e-08,-1.122338604182004929e-02,-6.464923444582382217e-06,1.387764950777636841e-05,4.129089958837539598e-09,0.000000000000000000e+00,8.308850374305620790e-05,1.000000000000000000e+00
1.813115119934082031e+00,6.359367065429687500e+02,1.490351715087890625e+02,1.490351715087890625e+02,1.388167589902877808e-01,2.299841493368148804e-01,1.344804149994160980e-05,-2.151859135324230010e-08,-1.488743883726328932e-08,-9.324998827651143074e-04,-4.802059265784919262e-07,1.270919991469554589e-08,-1.122338604182004929e-02,-6.464923444582382217e-06,1.387764950777636841e-05,4.129089958837539598e-09,0.000000000000000000e+00,8.308850374305620790e-05,1.000000000000000000e+00
1.813115119934082031e+00,6.359367065429687500e+02,1.490351715087890625e+02,1.490351715087890625e+02,1.388167589902877808e-01,2.299841493368148804e-01,1.344804149994160980e-05,-2.151859135324230010e-08,-1.488743883726328932e-08,-9.324998827651143074e-04,-4.802059265784919262e-07,1.270919991469554589e-08,-1.122338604182004929e-02,-6.464923444582382217e-06,1.387764950777636841e-05,4.129089958837539598e-09,0.000000000000000000e+00,8.308850374305620790e-05,1.000000000000000000e+00
1.896134853363037109e+00,6.359367065429687500e+02,1.490351715087890625e+02,1.490351715087890625e+02,1.388167589902877808e-01,2.299841493368148804e-01,1.344804149994160980e-05,2.732948534145407393e-09,1.760317047683201963e-08,2.396384370513260365e-04,2.921177610915037803e-07,3.913600892246904550e-07,1.411879248917102814e-02,1.305175192101160064e-05,-1.885904111986747012e-06,-1.747234468219005521e-09,0.000000000000000000e+00,8.308850374305620790e-05,1.000000000000000000e+00
1.896134853363037109e+00,6.359367065429687500e+02,1.490351715087890625e+02,1.490351715087890625e+02,1.388167589902877808e-01,2.299841493368148804e-01,1.344804149994160980e-05,2.732948534145407393e-09,1.760317047683201963e-08,2.396384370513260365e-04,2.921177610915037803e-07,3.913600892246904550e-07,1.411879248917102814e-02,1.305175192101160064e-05,-1.885904111986747012e-06,-1.747234468219005521e-09,0.000000000000000000e+00,8.308850374305620790e-05,1.000000000000000000e+00
1.896134853363037109e+00,6.359367065429687500e+02,1.490351715087890625e+02,1.490351715087890625e+02,1.388167589902877808e-01,2.299841493368148804e-01,1.344804149994160980e-05,2.732948534145407393e-09,1.760317047683201963e-08,2.396384370513260365e-04,2.921177610915037803e-07,3.913600892246904550e-07,1.411879248917102814e-02,1.305175192101160064e-05,-1.885904111986747012e-06,-1.747234468219005521e-09,0.000000000000000000e+00,8.308850374305620790e-05,1.000000000000000000e+00
1.896134853363037109e+00,6.359367065429687500e+02,1.490351715087890625e+02,1.490351715087890625e+02,1.388167589902877808e-01,2.299841493368148804e-01,1.344804149994160980e-05,2.732948534145407393e-09,1.760317047683201963e-08,2.396384370513260365e-04,2.921177610915037803e-07,3.913600892246904550e-07,1.411879248917102814e-02,1.305175192101160064e-05,-1.885904111986747012e-06,-1.747234468219005521e-09,0.000000000000000000e+00,8.308850374305620790e-05,1.000000000000000000e+00
1.896134853363037109e+00,6.359367065429687500e+02,1.490351715087890625e+02,1.490351715087890625e+02,1.388167589902877808e-01,2.299841493368148804e-01,1.344804149994160980e-05,2.732948534145407393e-09,1.760317047683201963e-08,2.396384370513260365e-04,2.921177610915037803e-07,3.913600892246904550e-07,1.411879248917102814e-02,1.305175192101160064e-05,-1.885904111986747012e-06,-1.747234468219005521e-09,0.000000000000000000e+00,8.308850374305620790e-05,1.000000000000000000e+00
1.896134853363037109e+00,6.359367065429687500e+02,1.490351715087890625e+02,1.490351715087890625e+02,1.388167589902877808e-01,2.299841493368148804e-01,1.344804149994160980e-05,2.732948534145407393e-09,1.760317047683201963e-08,2.396384370513260365e-04,2.921177610915037803e-07,3.913600892246904550e-07,1.411879248917102814e-02,1.305175192101160064e-05,-1.885904111986747012e-06,-1.747234468219005521e-09,0.000000000000000000e+00,8.308850374305620790e-05,1.000000000000000000e+00
1.896134853363037109e+00,6.359367065429687500e+02,1.490351715087890625e+02,1.490351715087890625e+02,1.388167589902877808e-01,2.299841493368148804e-01,1.344804149994160980e-05,2.732948534145407393e-09,1.760317047683201963e-08,2.396384370513260365e-04,2.921177610915037803e-07,3.913600892246904550e-07,1.411879248917102814e-02,1.305175192101160064e-05,-1.885904111986747012e-06,-1.747234468219005521e-09,0.000000000000000000e+00,8.308850374305620790e-05,1.000000000000000000e+00
2.195794820785522461e+00,6.359367065429687500e+02,1.490351715087890625e+02,1.490351715087890625e+02,1.388167589902877808e-01,2.299841493368148804e-01,1.344804149994160980e-05,-2.219980110851338395e-08,-2.665349274622030862e-09,1.332555548287928104e-03,-5.139197583048371598e-07,-4.623049107976839878e-07,2.185398340225219727e-02,-7.066787929943529889e-06,1.296906521019991487e-05,1.890699818929419962e-09,0.000000000000000000e+00,8.308850374305620790e-05,1.000000000000000000e+00
2.195794820785522461e+00,6.359367065429687500e+02,1.490351715087890625e+02,1.490351715087890625e+02,1.388167589902877808e-01,2.299841493368148804e-01,1.344804149994160980e-05,-2.219980110851338395e-08,-2.665349274622030862e-09,1.332555548287928104e-03,-5.139197583048371598e-07,-4.623049107976839878e-07,2.185398340225219727e-02,-7.066787929943529889e-06,1.296906521019991487e-05,1.890699818929419962e-09,0.000000000000000000e+00,8.308850374305620790e-05,1.000000000000000000e+00
2.195794820785522461e+00,6.359367065429687500e+02,1.490351715087890625e+02,1.490351715087890625e+02,1.388167589902877808e-01,2.299841493368148804e-01,1.344804149994160980e-05,-2.219980110851338395e-08,-2.665349274622030862e-09,1.332555548287928104e-03,-5.139197583048371598e-07,-4.623049107976839878e-07,2.185398340225219727e-02,-7.066787929943529889e-06,1.296906521019991487e-05,1.890699818929419962e-09,0.000000000000000000e+00,8.308850374305620790e-05,1.000000000000000000e+00
2.195794820785522461e+00,6.359367065429687500e+02,1.490351715087890625e+02,1.490351715087890625e+02,1.388167589902877808e-01,2.299841493368148804e-01,1.344804149994160980e-05,-2.219980110851338395e-08,-2.665349274622030862e-09,1.332555548287928104e-03,-5.139197583048371598e-07,-4.623049107976839878e-07,2.185398340225219727e-02,-7.066787929943529889e-06,1.296906521019991487e-05,1.890699818929419962e-09,0.000000000000000000e+00,8.308850374305620790e-05,1.000000000000000000e+00
2.195794820785522461e+00,6.359367065429687500e+02,1.490351715087890625e+02,1.490351715087890625e+02,1.388167589902877808e-01,2.299841493368148804e-01,1.344804149994160980e-05,-2.219980110851338395e-08,-2.665349274622030862e-09,1.332555548287928104e-03,-5.139197583048371598e-07,-4.623049107976839878e-07,2.185398340225219727e-02,-7.066787929943529889e-06,1.296906521019991487e-05,1.890699818929419962e-09,0.000000000000000000e+00,8.308850374305620790e-05,1.000000000000000000e+00
2.195794820785522461e+00,6.359367065429687500e+02,1.490351715087890625e+02,1.490351715087890625e+02,1.388167589902877808e-01,2.299841493368148804e-01,1.344804149994160980e-05,-2.219980110851338395e-08,-2.665349274622030862e-09,1.332555548287928104e-03,-5.139197583048371598e-07,-4.623049107976839878e-07,2.185398340225219727e-02,-7.066787929943529889e-06,1.296906521019991487e-05,1.890699818929419962e-09,0.000000000000000000e+00,8.308850374305620790e-05,1.000000000000000000e+00
2.195794820785522461e+00,6.359367065429687500e+02,1.490351715087890625e+02,1.490351715087890625e+02,1.388167589902877808e-01,2.299841493368148804e-01,1.344804149994160980e-05,-2.219980110851338395e-08,-2.665349274622030862e-09,1.332555548287928104e-03,-5.139197583048371598e-07,-4.623049107976839878e-07,2.185398340225219727e-02,-7.066787929943529889e-06,1.296906521019991487e-05,1.890699818929419962e-09,0.000000000000000000e+00,8.308850374305620790e-05,1.000000000000000000e+00
2.195794820785522461e+00,6.359367065429687500e+02,1.490351715087890625e+02,1.490351715087890625e+02,1.388167589902877808e-01,2.299841493368148804e-01,1.344804149994160980e-05,-2.219980110851338395e-08,-2.665349274622030862e-09,1.332555548287928104e-03,-5.139197583048371598e-07,-4.623049107976839878e-07,2.185398340225219727e-02,-7.066787929943529889e-06,1.296906521019991487e-05,1.890699818929419962e-09,0.000000000000000000e+00,8.308850374305620790e-05,1.000000000000000000e+00
2.195794820785522461e+00,6.359367065429687500e+02,1.490351715087890625e+02,1.490351715087890625e+02,1.388167589902877808e-01,2.299841493368148804e-01,1.344804149994160980e-05,-2.219980110851338395e-08,-2.665349274622030862e-09,1.332555548287928104e-03,-5.139197583048371598e-07,-4.623049107976839878e-07,2.185398340225219727e-02,-7.066787929943529889e-06,1.296906521019991487e-05,1.890699818929419962e-09,0.000000000000000000e+00,8.308850374305620790e-05,1.000000000000000000e+00
2.195794820785522461e+00,6.359367065429687500e+02,1.490351715087890625e+02,1.490351715087890625e+02,1.388167589902877808e-01,2.299841493368148804e-01,1.344804149994160980e-05,-2.219980110851338395e-08,-2.665349274622030862e-09,1.332555548287928104e-03,-5.139197583048371598e-07,-4.623049107976839878e-07,2.185398340225219727e-02,-7.066787929943529889e-06,1.296906521019991487e-05,1.890699818929419962e-09,0.000000000000000000e+00,8.308850374305620790e-05,1.000000000000000000e+00
2.374083757400512695e+00,6.359367065429687500e+02,1.490351715087890625e+02,1.490351715087890625e+02,1.388167589902877808e-01,2.299841493368148804e-01,1.344804149994160980e-05,-9.714107740421695780e-09,1.572547070338714548e-08,1.651382539421319962e-03,7.003066571087401826e-08,1.031517697924755339e-07,1.788260065950453281e-03,1.312012318521738052e-05,5.831329417560482398e-06,-1.807553662303007513e-09,0.000000000000000000e+00,8.308850374305620790e-05,1.000000000000000000e+00
2.374083757400512695e+00,6.359367065429687500e+02,1.490351715087890625e+02,1.490351715087890625e+02,1.388167589902877808e-01,2.299841493368148804e-01,1.344804149994160980e-05,-9.714107740421695780e-09,1.572547070338714548e-08,1.651382539421319962e-03,7.003066571087401826e-08,1.031517697924755339e-07,1.788260065950453281e-03,1.312012318521738052e-05,5.831329417560482398e-06,-1.807553662303007513e-09,0.000000000000000000e+00,8.308850374305620790e-05,1.000000000000000000e+00
2.374083757400512695e+00,6.359367065429687500e+02,1.490351715087890625e+02,1.490351715087890625e+02,1.388167589902877808e-01,2.299841493368148804e-01,1.344804149994160980e-05,-9.714107740421695780e-09,1.572547070338714548e-08,1.651382539421319962e-03,7.003066571087401826e-08,1.031517697924755339e-07,1.788260065950453281e-03,1.312012318521738052e-05,5.831329417560482398e-06,-1.807553662303007513e-09,0.000000000000000000e+00,8.308850374305620790e-05,1.000000000000000000e+00
2.447860002517700195e+00,6.359367065429687500e+02,1.490351715087890625e+02,1.490351715087890625e+02,1.388167589902877808e-01,2.299841493368148804e-01,1.344804149994160980e-05,3.770232481770108279e-08,-2.331256609977572225e-08,-1.380346948280930519e-03,6.427059702218684833e-07,-5.291410047902900260e-07,-4.109357297420501709e-02,-9.906158993544522673e-06,-2.222482544311787933e-05,-1.615079181505052475e-09,0.000000000000000000e+00,8.308850374305620790e-05,1.000000000000000000e+00
2.447860002517700195e+00,6.359367065429687500e+02,1.490351715087890625e+02,1.490351715087890625e+02,1.388167589902877808e-01,2.299841493368148804e-01,1.344804149994160980e-05,3.770232481770108279e-08,-2.331256609977572225e-08,-1.380346948280930519e-03,6.427059702218684833e-07,-5.291410047902900260e-07,-4.109357297420501709e-02,-9.906158993544522673e-06,-2.222482544311787933e-05,-1.615079181505052475e-09,0.000000000000000000e+00,8.308850374305620790e-05,1.000000000000000000e+00
2.500878810882568359e+00,6.359367065429687500e+02,1.490351715087890625e+02,1.490351715087890625e+02,1.388167589902877808e-01,2.299841493368148804e-01,1.344804149994160980e-05,8.027057241122292908e-09,3.580051100016135024e-08,2.895881480071693659e-04,-5.597120775746589061e-07,1.114945348490437027e-06,3.149703145027160645e-02,2.152095294150058180e-05,-4.928499947709497064e-06,-3.010658833346724350e-09,0.000000000000000000e+00,8.308850374305620790e-05,1.000000000000000000e+00
2.500878810882568359e+00,6.359367065429687500e+02,1.490351715087890625e+02,1.490351715087890625e+02,1.388167589902877808e-01,2.299841493368148804e-01,1.344804149994160980e-05,8.027057241122292908e-09,3.580051100016135024e-08,2.895881480071693659e-04,-5.597120775746589061e-07,1.114945348490437027e-06,3.149703145027160645e-02,2.152095294150058180e-05,-4.928499947709497064e-06,-3.010658833346724350e-09,0.000000000000000000e+00,8.308850374305620790e-05,1.000000000000000000e+00
2.500878810882568359e+00,6.359367065429687500e+02,1.490351715087890625e+02,1.490351715087890625e+02,1.388167589902877808e-01,2.299841493368148804e-01,1.344804149994160980e-05,8.027057241122292908e-09,3.580051100016135024e-08,2.895881480071693659e-04,-5.597120775746589061e-07,1.114945348490437027e-06,3.149703145027160645e-02,2.152095294150058180e-05,-4.928499947709497064e-06,-3.010658833346724350e-09,0.000000000000000000e+00,8.308850374305620790e-05,1.000000000000000000e+00
2.560195446014404297e+00,6.359367065429687500e+02,1.490351715087890625e+02,1.490351715087890625e+02,1.388167589902877808e-01,2.299841493368148804e-01,1.344804149994160980e-05,9.297306924338499812e-09,3.162631267983329053e-09,1.479677506722509861e-03,2.141472954519940686e-08,-5.502314479599590413e-07,2.006333321332931519e-02,5.515585712601023261e-07,-5.368394340621307492e-06,8.581537702667674239e-10,0.000000000000000000e+00,8.308850374305620790e-05,1.000000000000000000e+00
2.560195446014404297e+00,6.359367065429687500e+02,1.490351715087890625e+02,1.490351715087890625e+02,1.388167589902877808e-01,2.299841493368148804e-01,1.344804149994160980e-05,9.297306924338499812e-09,3.162631267983329053e-09,1.479677506722509861e-03,2.141472954519940686e-08,-5.502314479599590413e-07,2.006333321332931519e-02,5.515585712601023261e-07,-5.368394340621307492e-06,8.581537702667674239e-10,0.000000000000000000e+00,8.308850374305620790e-05,1.000000000000000000e+00
2.560195446014404297e+00,6.359367065429687500e+02,1.490351715087890625e+02,1.490351715087890625e+02,1.388167589902877808e-01,2.299841493368148804e-01,1.344804149994160980e-05,-1.502883151260903105e-09,-3.698170214505580589e-09,-4.915080498903989792e-04,-1.845079253826042986e-07,-1.172083372580345895e-07,-3.367527574300765991e-02,-1.655909045439329930e-06,1.684848143668205012e-06,2.422523515122065874e-09,0.000000000000000000e+00,8.308850374305620790e-05,1.000000000000000000e+00
2.618730545043945312e+00,6.359367065429687500e+02,1.490351715087890625e+02,1.490351715087890625e+02,1.388167589902877808e-01,2.299841493368148804e-01,1.344804149994160980e-05,-1.502883151260903105e-09,-3.698170214505580589e-09,-4.915080498903989792e-04,-1.845079253826042986e-07,-1.172083372580345895e-07,-3.367527574300765991e-02,-1.655909045439329930e-06,1.684848143668205012e-06,2.422523515122065874e-09,0.000000000000000000e+00,8.308850374305620790e-05,1.000000000000000000e+00
2.618730545043945312e+00,6.359367065429687500e+02,1.490351715087890625e+02,1.490351715087890625e+02,1.388167589902877808e-01,2.299841493368148804e-01,1.344804149994160980e-05,-1.033216445733842193e-08,-5.678611803006106129e-09,-2.831044548656791449e-05,-1.506612647972360719e-07,-3.379389923452436051e-08,7.903920486569404602e-03,-2.401436859145178460e-06,6.709784884151304141e-06,2.376225216593752521e-09,0.000000000000000000e+00,8.308850374305620790e-05,1.000000000000000000e+00
2.677334070205688477e+00,6.359367065429687500e+02,1.490351715087890625e+02,1.490351715087890625e+02,1.388167589902877808e-01,2.299841493368148804e-01,1.344804149994160980e-05,-1.033216445733842193e-08,-5.678611803006106129e-09,-2.831044548656791449e-05,-1.506612647972360719e-07,-3.379389923452436051e-08,7.903920486569404602e-03,-2.401436859145178460e-06,6.709784884151304141e-06,2.376225216593752521e-09,0.000000000000000000e+00,8.308850374305620790e-05,1.000000000000000000e+00
2.677334070205688477e+00,6.359367065429687500e+02,1.490351715087890625e+02,1.490351715087890625e+02,1.388167589902877808e-01,2.299841493368148804e-01,1.344804149994160980e-05,-1.033216445733842193e-08,-5.678611803006106129e-09,-2.831044548656791449e-05,-1.506612647972360719e-07,-3.379389923452436051e-08,7.903920486569404602e-03,-2.401436859145178460e-06,6.709784884151304141e-06,2.376225216593752521e-09,0.000000000000000000e+00,8.308850374305620790e-05,1.000000000000000000e+00
2.677334070205688477e+00,6.359367065429687500e+02,1.490351715087890625e+02,1.490351715087890625e+02,1.388167589902877808e-01,2.299841493368148804e-01,1.344804149994160980e-05,-1.033216445733842193e-08,-5.678611803006106129e-09,-2.831044548656791449e-05,-1.506612647972360719e-07,-3.379389923452436051e-08,7.903920486569404602e-03,-2.401436859145178460e-06,6.709784884151304141e-06,2.376225216593752521e-09,0.000000000000000000e+00,8.308850374305620790e-05,1.000000000000000000e+00
2.755024909973144531e+00,6.359367065429687500e+02,1.490351715087890625e+02,1.490351715087890625e+02,1.388167589902877808e-01,2.299841493368148804e-01,1.344804149994160980e-05,-1.745356037474721234e-08,-5.566352268004948201e-09,1.757364225341007113e-05,-9.166326719878270524e-08,1.444952046902869824e-09,5.905984435230493546e-04,-2.201867573603522032e-06,1.004019304673420265e-05,4.632159655848511193e-10,0.000000000000000000e+00,8.308850374305620790e-05,1.000000000000000000e+00
2.755024909973144531e+00,6.359367065429687500e+02,1.490351715087890625e+02,1.490351715087890625e+02,1.388167589902877808e-01,2.299841493368148804e-01,1.344804149994160980e-05,-1.745356037474721234e-08,-5.566352268004948201e-09,1.757364225341007113e-05,-9.166326719878270524e-08,1.444952046902869824e-09,5.905984435230493546e-04,-2.201867573603522032e-06,1.004019304673420265e-05,4.632159655848511193e-10,0.000000000000000000e+00,8.308850374305620790e-05,1.000000000000000000e+00
2.755024909973144531e+00,6.359367065429687500e+02,1.490351715087890625e+02,1.490351715087890625e+02,1.388167589902877808e-01,2.299841493368148804e-01,1.344804149994160980e-05,-1.745356037474721234e-08,-5.566352268004948201e-09,1.757364225341007113e-05,-9.166326719878270524e-08,1.444952046902869824e-09,5.905984435230493546e-04,-2.201867573603522032e-06,1.004019304673420265e-05,4.632159655848511193e-10,0.000000000000000000e+00,8.308850374305620790e-05,1.000000000000000000e+00
2.830169916152954102e+00,6.359367065429687500e+02,1.490351715087890625e+02,1.490351715087890625e+02,1.388167589902877808e-01,2.299841493368148804e-01,1.344804149994160980e-05,-1.783350178641285311e-08,-7.332259688297426692e-09,-5.075333756394684315e-04,-5.056109753098780857e-09,-2.349999661532820028e-08,-6.987916305661201477e-03,-2.931309381892788224e-06,1.029032500809989870e-05,5.910660849650639648e-10,0.000000000000000000e+00,8.308850374305620790e-05,1.000000000000000000e+00
2.830169916152954102e+00,6.359367065429687500e+02,1.490351715087890625e+02,1.490351715087890625e+02,1.388167589902877808e-01,2.299841493368148804e-01,1.344804149994160980e-05,-1.783350178641285311e-08,-7.332259688297426692e-09,-5.075333756394684315e-04,-5.056109753098780857e-09,-2.349999661532820028e-08,-6.987916305661201477e-03,-2.931309381892788224e-06,1.029032500809989870e-05,5.910660849650639648e-10,0.000000000000000000e+00,8.308850374305620790e-05,1.000000000000000000e+00
2.830169916152954102e+00,6.359367065429687500e+02,1.490351715087890625e+02,1.490351715087890625e+02,1.388167589902877808e-01,2.299841493368148804e-01,1.344804149994160980e-05,-1.783350178641285311e-08,-7.332259688297426692e-09,-5.075333756394684315e-04,-5.056109753098780857e-09,-2.349999661532820028e-08,-6.987916305661201477e-03,-2.931309381892788224e-06,1.029032500809989870e-05,5.910660849650639648e-10,0.000000000000000000e+00,8.308850374305620790e-05,1.000000000000000000e+00
2.830169916152954102e+00,6.359367065429687500e+02,1.490351715087890625e+02,1.490351715087890625e+02,1.388167589902877808e-01,2.299841493368148804e-01,1.344804149994160980e-05,-1.783350178641285311e-08,-7.332259688297426692e-09,-5.075333756394684315e-04,-5.056109753098780857e-09,-2.349999661532820028e-08,-6.987916305661201477e-03,-2.931309381892788224e-06,1.029032500809989870e-05,5.910660849650639648e-10,0.000000000000000000e+00,8.308850374305620790e-05,1.000000000000000000e+00
2.830169916152954102e+00,6.359367065429687500e+02,1.490351715087890625e+02,1.490351715087890625e+02,1.388167589902877808e-01,2.299841493368148804e-01,1.344804149994160980e-05,-1.783350178641285311e-08,-7.332259688297426692e-09,-5.075333756394684315e-04,-5.056109753098780857e-09,-2.349999661532820028e-08,-6.987916305661201477e-03,-2.931309381892788224e-06,1.029032500809989870e-05,5.910660849650639648e-10,0.000000000000000000e+00,8.308850374305620790e-05,1.000000000000000000e+00
2.917726278305053711e+00,6.359367065429687500e+02,1.490351715087890625e+02,1.490351715087890625e+02,1.388167589902877808e-01,2.299841493368148804e-01,1.344804149994160980e-05,-2.998919512720021885e-08,7.896606701862651789e-10,7.399400783469900489e-05,-1.388327746099093929e-07,9.276218548848191858e-08,6.641748361289501190e-03,4.839656639887834899e-07,1.793748560885433108e-05,2.214702865543927146e-09,0.000000000000000000e+00,8.308850374305620790e-05,1.000000000000000000e+00
