# Time,X,Y,Z,Roll,Pitch,Yaw,Vx,Vy,Vz,Ax,Ay,Az,Wx,Wy,Wz,Throttle,Steer,Brake
0.000000000000000000e+00,2.895634460449218750e+01,-1.254119968414306641e+01,-1.254119968414306641e+01,4.098113276995718479e-05,1.795760650634765625e+02,-3.051757266803178936e-05,-5.844626560502774737e-09,1.535971350108411571e-08,1.341744442470371723e-03,1.190642393567031831e-07,1.599271541863345192e-07,1.677143387496471405e-02,5.115365183883113787e-06,3.320098130643600598e-06,-3.398140657751014260e-09,0.000000000000000000e+00,9.484862908720970154e-03,1.000000000000000000e+00
1.045818328857421875e-01,2.895634460449218750e+01,-1.254119968414306641e+01,-1.254119968414306641e+01,4.098113276995718479e-05,1.795760650634765625e+02,-3.051757266803178936e-05,-5.844626560502774737e-09,1.535971350108411571e-08,1.341744442470371723e-03,1.190642393567031831e-07,1.599271541863345192e-07,1.677143387496471405e-02,5.115365183883113787e-06,3.320098130643600598e-06,-3.398140657751014260e-09,0.000000000000000000e+00,9.484862908720970154e-03,1.000000000000000000e+00
1.045818328857421875e-01,2.895634460449218750e+01,-1.254119968414306641e+01,-1.254119968414306641e+01,4.098113276995718479e-05,1.795760650634765625e+02,-3.051757266803178936e-05,-5.844626560502774737e-09,1.535971350108411571e-08,1.341744442470371723e-03,1.190642393567031831e-07,1.599271541863345192e-07,1.677143387496471405e-02,5.115365183883113787e-06,3.320098130643600598e-06,-3.398140657751014260e-09,0.000000000000000000e+00,9.484862908720970154e-03,1.000000000000000000e+00
1.045818328857421875e-01,2.895634460449218750e+01,-1.254119968414306641e+01,-1.254119968414306641e+01,4.098113276995718479e-05,1.795760650634765625e+02,-3.051757266803178936e-05,-5.844626560502774737e-09,1.535971350108411571e-08,1.341744442470371723e-03,1.190642393567031831e-07,1.599271541863345192e-07,1.677143387496471405e-02,5.115365183883113787e-06,3.320098130643600598e-06,-3.398140657751014260e-09,0.000000000000000000e+00,9.484862908720970154e-03,1.000000000000000000e+00
1.045818328857421875e-01,2.895634460449218750e+01,-1.254119968414306641e+01,-1.254119968414306641e+01,4.098113276995718479e-05,1.795760650634765625e+02,-3.051757266803178936e-05,-5.844626560502774737e-09,1.535971350108411571e-08,1.341744442470371723e-03,1.190642393567031831e-07,1.599271541863345192e-07,1.677143387496471405e-02,5.115365183883113787e-06,3.320098130643600598e-06,-3.398140657751014260e-09,0.000000000000000000e+00,9.484862908720970154e-03,1.000000000000000000e+00
1.045818328857421875e-01,2.895634460449218750e+01,-1.254119968414306641e+01,-1.254119968414306641e+01,4.098113276995718479e-05,1.795760650634765625e+02,-3.051757266803178936e-05,-5.844626560502774737e-09,1.535971350108411571e-08,1.341744442470371723e-03,1.190642393567031831e-07,1.599271541863345192e-07,1.677143387496471405e-02,5.115365183883113787e-06,3.320098130643600598e-06,-3.398140657751014260e-09,0.000000000000000000e+00,9.484862908720970154e-03,1.000000000000000000e+00
1.045818328857421875e-01,2.895634460449218750e+01,-1.254119968414306641e+01,-1.254119968414306641e+01,4.098113276995718479e-05,1.795760650634765625e+02,-3.051757266803178936e-05,5.001081149202946108e-08,2.698868684092303738e-08,-1.060595153830945492e-03,5.334353545549674891e-07,1.110600109655024426e-07,-2.294302918016910553e-02,1.497398807259742171e-05,-3.409665805520489812e-05,-8.711532828442614118e-09,0.000000000000000000e+00,9.484862908720970154e-03,1.000000000000000000e+00
2.092907428741455078e-01,2.895634460449218750e+01,-1.254119968414306641e+01,-1.254119968414306641e+01,4.098113276995718479e-05,1.795760650634765625e+02,-3.051757266803178936e-05,5.001081149202946108e-08,2.698868684092303738e-08,-1.060595153830945492e-03,5.334353545549674891e-07,1.110600109655024426e-07,-2.294302918016910553e-02,1.497398807259742171e-05,-3.409665805520489812e-05,-8.711532828442614118e-09,0.000000000000000000e+00,9.484862908720970154e-03,1.000000000000000000e+00
2.092907428741455078e-01,2.895634460449218750e+01,-1.254119968414306641e+01,-1.254119968414306641e+01,4.098113276995718479e-05,1.795760650634765625e+02,-3.051757266803178936e-05,5.001081149202946108e-08,2.698868684092303738e-08,-1.060595153830945492e-03,5.334353545549674891e-07,1.110600109655024426e-07,-2.294302918016910553e-02,1.497398807259742171e-05,-3.409665805520489812e-05,-8.711532828442614118e-09,0.000000000000000000e+00,9.484862908720970154e-03,1.000000000000000000e+00
2.092907428741455078e-01,2.895634460449218750e+01,-1.254119968414306641e+01,-1.254119968414306641e+01,4.098113276995718479e-05,1.795760650634765625e+02,-3.051757266803178936e-05,5.001081149202946108e-08,2.698868684092303738e-08,-1.060595153830945492e-03,5.334353545549674891e-07,1.110600109655024426e-07,-2.294302918016910553e-02,1.497398807259742171e-05,-3.409665805520489812e-05,-8.711532828442614118e-09,0.000000000000000000e+00,9.484862908720970154e-03,1.000000000000000000e+00
2.092907428741455078e-01,2.895634460449218750e+01,-1.254119968414306641e+01,-1.254119968414306641e+01,4.098113276995718479e-05,1.795760650634765625e+02,-3.051757266803178936e-05,5.001081149202946108e-08,2.698868684092303738e-08,-1.060595153830945492e-03,5.334353545549674891e-07,1.110600109655024426e-07,-2.294302918016910553e-02,1.497398807259742171e-05,-3.409665805520489812e-05,-8.711532828442614118e-09,0.000000000000000000e+00,9.484862908720970154e-03,1.000000000000000000e+00
2.092907428741455078e-01,2.895634460449218750e+01,-1.254119968414306641e+01,-1.254119968414306641e+01,4.098113276995718479e-05,1.795760650634765625e+02,-3.051757266803178936e-05,-4.500193639955796243e-08,-4.159723232532996917e-08,-9.018348646350204945e-05,-1.273312250305025373e-06,-9.191534218189190142e-07,1.300496142357587814e-02,-3.209817077731713653e-05,2.895478064601775259e-05,-5.057121388318819299e-10,0.000000000000000000e+00,9.484862908720970154e-03,1.000000000000000000e+00
2.839093208312988281e-01,2.895634460449218750e+01,-1.254119968414306641e+01,-1.254119968414306641e+01,4.098113276995718479e-05,1.795760650634765625e+02,-3.051757266803178936e-05,-4.500193639955796243e-08,-4.159723232532996917e-08,-9.018348646350204945e-05,-1.273312250305025373e-06,-9.191534218189190142e-07,1.300496142357587814e-02,-3.209817077731713653e-05,2.895478064601775259e-05,-5.057121388318819299e-10,0.000000000000000000e+00,9.484862908720970154e-03,1.000000000000000000e+00
2.839093208312988281e-01,2.895634460449218750e+01,-1.254119968414306641e+01,-1.254119968414306641e+01,4.098113276995718479e-05,1.795760650634765625e+02,-3.051757266803178936e-05,-4.500193639955796243e-08,-4.159723232532996917e-08,-9.018348646350204945e-05,-1.273312250305025373e-06,-9.191534218189190142e-07,1.300496142357587814e-02,-3.209817077731713653e-05,2.895478064601775259e-05,-5.057121388318819299e-10,0.000000000000000000e+00,9.484862908720970154e-03,1.000000000000000000e+00
2.839093208312988281e-01,2.895634460449218750e+01,-1.254119968414306641e+01,-1.254119968414306641e+01,4.098113276995718479e-05,1.795760650634765625e+02,-3.051757266803178936e-05,-4.500193639955796243e-08,-4.159723232532996917e-08,-9.018348646350204945e-05,-1.273312250305025373e-06,-9.191534218189190142e-07,1.300496142357587814e-02,-3.209817077731713653e-05,2.895478064601775259e-05,-5.057121388318819299e-10,0.000000000000000000e+00,9.484862908720970154e-03,1.000000000000000000e+00
2.839093208312988281e-01,2.895634460449218750e+01,-1.254119968414306641e+01,-1.254119968414306641e+01,4.098113276995718479e-05,1.795760650634765625e+02,-3.051757266803178936e-05,-4.500193639955796243e-08,-4.159723232532996917e-08,-9.018348646350204945e-05,-1.273312250305025373e-06,-9.191534218189190142e-07,1.300496142357587814e-02,-3.209817077731713653e-05,2.895478064601775259e-05,-5.057121388318819299e-10,0.000000000000000000e+00,9.484862908720970154e-03,1.000000000000000000e+00
3.569011688232421875e-01,2.895634460449218750e+01,-1.254119968414306641e+01,-1.254119968414306641e+01,4.098113276995718479e-05,1.795760650634765625e+02,-3.051757266803178936e-05,1.898900769958800083e-08,1.907596391959032189e-08,1.163890585303306580e-03,8.766862151787790935e-07,8.312324553116923198e-07,1.718101464211940765e-02,9.354067515232600272e-06,-1.442388656869297847e-05,-1.433726204425056494e-08,0.000000000000000000e+00,9.484862908720970154e-03,1.000000000000000000e+00
3.569011688232421875e-01,2.895634460449218750e+01,-1.254119968414306641e+01,-1.254119968414306641e+01,4.098113276995718479e-05,1.795760650634765625e+02,-3.051757266803178936e-05,1.898900769958800083e-08,1.907596391959032189e-08,1.163890585303306580e-03,8.766862151787790935e-07,8.312324553116923198e-07,1.718101464211940765e-02,9.354067515232600272e-06,-1.442388656869297847e-05,-1.433726204425056494e-08,0.000000000000000000e+00,9.484862908720970154e-03,1.000000000000000000e+00
3.569011688232421875e-01,2.895634460449218750e+01,-1.254119968414306641e+01,-1.254119968414306641e+01,4.098113276995718479e-05,1.795760650634765625e+02,-3.051757266803178936e-05,1.898900769958800083e-08,1.907596391959032189e-08,1.163890585303306580e-03,8.766862151787790935e-07,8.312324553116923198e-07,1.718101464211940765e-02,9.354067515232600272e-06,-1.442388656869297847e-05,-1.433726204425056494e-08,0.000000000000000000e+00,9.484862908720970154e-03,1.000000000000000000e+00
3.569011688232421875e-01,2.895634460449218750e+01,-1.254119968414306641e+01,-1.254119968414306641e+01,4.098113276995718479e-05,1.795760650634765625e+02,-3.051757266803178936e-05,1.898900769958800083e-08,1.907596391959032189e-08,1.163890585303306580e-03,8.766862151787790935e-07,8.312324553116923198e-07,1.718101464211940765e-02,9.354067515232600272e-06,-1.442388656869297847e-05,-1.433726204425056494e-08,0.000000000000000000e+00,9.484862908720970154e-03,1.000000000000000000e+00
4.765405654907226562e-01,2.895634460449218750e+01,-1.254119968414306641e+01,-1.254119968414306641e+01,4.098113276995718479e-05,1.795760650634765625e+02,-3.051757266803178936e-05,-4.880712367594242096e-08,2.275531585382850608e-08,4.831371770706027746e-04,-5.666706215379235800e-07,3.075368226745922584e-08,-5.690043792128562927e-03,1.222381160914665088e-05,3.392479266040027142e-05,9.649315124704571645e-09,0.000000000000000000e+00,9.484862908720970154e-03,1.000000000000000000e+00
4.765405654907226562e-01,2.895634460449218750e+01,-1.254119968414306641e+01,-1.254119968414306641e+01,4.098113276995718479e-05,1.795760650634765625e+02,-3.051757266803178936e-05,-4.880712367594242096e-08,2.275531585382850608e-08,4.831371770706027746e-04,-5.666706215379235800e-07,3.075368226745922584e-08,-5.690043792128562927e-03,1.222381160914665088e-05,3.392479266040027142e-05,9.649315124704571645e-09,0.000000000000000000e+00,9.484862908720970154e-03,1.000000000000000000e+00
4.765405654907226562e-01,2.895634460449218750e+01,-1.254119968414306641e+01,-1.254119968414306641e+01,4.098113276995718479e-05,1.795760650634765625e+02,-3.051757266803178936e-05,-4.880712367594242096e-08,2.275531585382850608e-08,4.831371770706027746e-04,-5.666706215379235800e-07,3.075368226745922584e-08,-5.690043792128562927e-03,1.222381160914665088e-05,3.392479266040027142e-05,9.649315124704571645e-09,0.000000000000000000e+00,9.484862908720970154e-03,1.000000000000000000e+00
4.765405654907226562e-01,2.895634460449218750e+01,-1.254119968414306641e+01,-1.254119968414306641e+01,4.098113276995718479e-05,1.795760650634765625e+02,-3.051757266803178936e-05,-4.880712367594242096e-08,2.275531585382850608e-08,4.831371770706027746e-04,-5.666706215379235800e-07,3.075368226745922584e-08,-5.690043792128562927e-03,1.222381160914665088e-05,3.392479266040027142e-05,9.649315124704571645e-09,0.000000000000000000e+00,9.484862908720970154e-03,1.000000000000000000e+00
4.765405654907226562e-01,2.895634460449218750e+01,-1.254119968414306641e+01,-1.254119968414306641e+01,4.098113276995718479e-05,1.795760650634765625e+02,-3.051757266803178936e-05,-4.880712367594242096e-08,2.275531585382850608e-08,4.831371770706027746e-04,-5.666706215379235800e-07,3.075368226745922584e-08,-5.690043792128562927e-03,1.222381160914665088e-05,3.392479266040027142e-05,9.649315124704571645e-09,0.000000000000000000e+00,9.484862908720970154e-03,1.000000000000000000e+00
4.765405654907226562e-01,2.895634460449218750e+01,-1.254119968414306641e+01,-1.254119968414306641e+01,4.098113276995718479e-05,1.795760650634765625e+02,-3.051757266803178936e-05,-4.880712367594242096e-08,2.275531585382850608e-08,4.831371770706027746e-04,-5.666706215379235800e-07,3.075368226745922584e-08,-5.690043792128562927e-03,1.222381160914665088e-05,3.392479266040027142e-05,9.649315124704571645e-09,0.000000000000000000e+00,9.484862908720970154e-03,1.000000000000000000e+00
4.765405654907226562e-01,2.895634460449218750e+01,-1.254119968414306641e+01,-1.254119968414306641e+01,4.098113276995718479e-05,1.795760650634765625e+02,-3.051757266803178936e-05,-4.880712367594242096e-08,2.275531585382850608e-08,4.831371770706027746e-04,-5.666706215379235800e-07,3.075368226745922584e-08,-5.690043792128562927e-03,1.222381160914665088e-05,3.392479266040027142e-05,9.649315124704571645e-09,0.000000000000000000e+00,9.484862908720970154e-03,1.000000000000000000e+00
6.200885772705078125e-01,2.895634460449218750e+01,-1.254119968414306641e+01,-1.254119968414306641e+01,4.098113276995718479e-05,1.795760650634765625e+02,-3.051757266803178936e-05,-2.047466018950672151e-08,2.043499947035343212e-08,-1.108690514229238033e-03,1.973727421500370838e-07,-1.616404432525087032e-08,-1.108916662633419037e-02,7.913798071967903525e-06,1.482988045609090477e-05,1.015717288055384415e-08,0.000000000000000000e+00,9.484862908720970154e-03,1.000000000000000000e+00
6.200885772705078125e-01,2.895634460449218750e+01,-1.254119968414306641e+01,-1.254119968414306641e+01,4.098113276995718479e-05,1.795760650634765625e+02,-3.051757266803178936e-05,-2.047466018950672151e-08,2.043499947035343212e-08,-1.108690514229238033e-03,1.973727421500370838e-07,-1.616404432525087032e-08,-1.108916662633419037e-02,7.913798071967903525e-06,1.482988045609090477e-05,1.015717288055384415e-08,0.000000000000000000e+00,9.484862908720970154e-03,1.000000000000000000e+00
6.200885772705078125e-01,2.895634460449218750e+01,-1.254119968414306641e+01,-1.254119968414306641e+01,4.098113276995718479e-05,1.795760650634765625e+02,-3.051757266803178936e-05,-2.047466018950672151e-08,2.043499947035343212e-08,-1.108690514229238033e-03,1.973727421500370838e-07,-1.616404432525087032e-08,-1.108916662633419037e-02,7.913798071967903525e-06,1.482988045609090477e-05,1.015717288055384415e-08,0.000000000000000000e+00,9.484862908720970154e-03,1.000000000000000000e+00
6.200885772705078125e-01,2.895634460449218750e+01,-1.254119968414306641e+01,-1.254119968414306641e+01,4.098113276995718479e-05,1.795760650634765625e+02,-3.051757266803178936e-05,-2.047466018950672151e-08,2.043499947035343212e-08,-1.108690514229238033e-03,1.973727421500370838e-07,-1.616404432525087032e-08,-1.108916662633419037e-02,7.913798071967903525e-06,1.482988045609090477e-05,1.015717288055384415e-08,0.000000000000000000e+00,9.484862908720970154e-03,1.000000000000000000e+00
6.200885772705078125e-01,2.895634460449218750e+01,-1.254119968414306641e+01,-1.254119968414306641e+01,4.098113276995718479e-05,1.795760650634765625e+02,-3.051757266803178936e-05,-2.047466018950672151e-08,2.043499947035343212e-08,-1.108690514229238033e-03,1.973727421500370838e-07,-1.616404432525087032e-08,-1.108916662633419037e-02,7.913798071967903525e-06,1.482988045609090477e-05,1.015717288055384415e-08,0.000000000000000000e+00,9.484862908720970154e-03,1.000000000000000000e+00
6.200885772705078125e-01,2.895634460449218750e+01,-1.254119968414306641e+01,-1.254119968414306641e+01,4.098113276995718479e-05,1.795760650634765625e+02,-3.051757266803178936e-05,-2.047466018950672151e-08,2.043499947035343212e-08,-1.108690514229238033e-03,1.973727421500370838e-07,-1.616404432525087032e-08,-1.108916662633419037e-02,7.913798071967903525e-06,1.482988045609090477e-05,1.015717288055384415e-08,0.000000000000000000e+00,9.484862908720970154e-03,1.000000000000000000e+00
7.946169376373291016e-01,2.895634460449218750e+01,-1.254119968414306641e+01,-1.254119968414306641e+01,4.098113276995718479e-05,1.795760650634765625e+02,-3.051757266803178936e-05,0.000000000000000000e+00,0.000000000000000000e+00,0.000000000000000000e+00,1.173142294419449172e-07,-1.170869836641941220e-07,6.352494936436414719e-03,0.000000000000000000e+00,0.000000000000000000e+00,0.000000000000000000e+00,0.000000000000000000e+00,9.484862908720970154e-03,1.000000000000000000e+00
7.946169376373291016e-01,2.895634460449218750e+01,-1.254119968414306641e+01,-1.254119968414306641e+01,4.098113276995718479e-05,1.795760650634765625e+02,-3.051757266803178936e-05,0.000000000000000000e+00,0.000000000000000000e+00,0.000000000000000000e+00,1.173142294419449172e-07,-1.170869836641941220e-07,6.352494936436414719e-03,0.000000000000000000e+00,0.000000000000000000e+00,0.000000000000000000e+00,0.000000000000000000e+00,9.484862908720970154e-03,1.000000000000000000e+00
7.946169376373291016e-01,2.895634460449218750e+01,-1.254119968414306641e+01,-1.254119968414306641e+01,4.098113276995718479e-05,1.795760650634765625e+02,-3.051757266803178936e-05,0.000000000000000000e+00,0.000000000000000000e+00,0.000000000000000000e+00,1.173142294419449172e-07,-1.170869836641941220e-07,6.352494936436414719e-03,0.000000000000000000e+00,0.000000000000000000e+00,0.000000000000000000e+00,0.000000000000000000e+00,9.484862908720970154e-03,1.000000000000000000e+00
7.946169376373291016e-01,2.895634460449218750e+01,-1.254119968414306641e+01,-1.254119968414306641e+01,4.098113276995718479e-05,1.795760650634765625e+02,-3.051757266803178936e-05,0.000000000000000000e+00,0.000000000000000000e+00,0.000000000000000000e+00,1.173142294419449172e-07,-1.170869836641941220e-07,6.352494936436414719e-03,0.000000000000000000e+00,0.000000000000000000e+00,0.000000000000000000e+00,0.000000000000000000e+00,9.484862908720970154e-03,1.000000000000000000e+00
8.783230781555175781e-01,2.895634460449218750e+01,-1.254119968414306641e+01,-1.254119968414306641e+01,4.098113276995718479e-05,1.795760650634765625e+02,-3.051757266803178936e-05,-3.405114057386526838e-08,8.922111938147736510e-09,4.382356564747169614e-05,-4.067938164098450216e-07,1.065885015805179137e-07,5.235406570136547089e-04,2.552253818066674285e-06,2.366755506955087185e-05,7.484502795307435008e-09,0.000000000000000000e+00,9.484862908720970154e-03,1.000000000000000000e+00
8.783230781555175781e-01,2.895634460449218750e+01,-1.254119968414306641e+01,-1.254119968414306641e+01,4.098113276995718479e-05,1.795760650634765625e+02,-3.051757266803178936e-05,-3.405114057386526838e-08,8.922111938147736510e-09,4.382356564747169614e-05,-4.067938164098450216e-07,1.065885015805179137e-07,5.235406570136547089e-04,2.552253818066674285e-06,2.366755506955087185e-05,7.484502795307435008e-09,0.000000000000000000e+00,9.484862908720970154e-03,1.000000000000000000e+00
9.483780860900878906e-01,2.895634460449218750e+01,-1.254119968414306641e+01,-1.254119968414306641e+01,4.098113276995718479e-05,1.795760650634765625e+02,-3.051757266803178936e-05,-3.426242756177089177e-08,-4.224608218805769866e-08,1.633845269680023193e-03,-3.016015437395935805e-09,-7.304002451746782754e-07,2.269675955176353455e-02,-2.958018194476608187e-05,2.240001776954159141e-05,9.336498241196977688e-10,0.000000000000000000e+00,9.484862908720970154e-03,1.000000000000000000e+00
9.483780860900878906e-01,2.895634460449218750e+01,-1.254119968414306641e+01,-1.254119968414306641e+01,4.098113276995718479e-05,1.795760650634765625e+02,-3.051757266803178936e-05,-3.426242756177089177e-08,-4.224608218805769866e-08,1.633845269680023193e-03,-3.016015437395935805e-09,-7.304002451746782754e-07,2.269675955176353455e-02,-2.958018194476608187e-05,2.240001776954159141e-05,9.336498241196977688e-10,0.000000000000000000e+00,9.484862908720970154e-03,1.000000000000000000e+00
9.483780860900878906e-01,2.895634460449218750e+01,-1.254119968414306641e+01,-1.254119968414306641e+01,4.098113276995718479e-05,1.795760650634765625e+02,-3.051757266803178936e-05,-3.426242756177089177e-08,-4.224608218805769866e-08,1.633845269680023193e-03,-3.016015437395935805e-09,-7.304002451746782754e-07,2.269675955176353455e-02,-2.958018194476608187e-05,2.240001776954159141e-05,9.336498241196977688e-10,0.000000000000000000e+00,9.484862908720970154e-03,1.000000000000000000e+00
9.483780860900878906e-01,2.895634460449218750e+01,-1.254119968414306641e+01,-1.254119968414306641e+01,4.098113276995718479e-05,1.795760650634765625e+02,-3.051757266803178936e-05,-3.426242756177089177e-08,-4.224608218805769866e-08,1.633845269680023193e-03,-3.016015437395935805e-09,-7.304002451746782754e-07,2.269675955176353455e-02,-2.958018194476608187e-05,2.240001776954159141e-05,9.336498241196977688e-10,0.000000000000000000e+00,9.484862908720970154e-03,1.000000000000000000e+00
9.483780860900878906e-01,2.895634460449218750e+01,-1.254119968414306641e+01,-1.254119968414306641e+01,4.098113276995718479e-05,1.795760650634765625e+02,-3.051757266803178936e-05,3.190558217625039106e-08,9.750010521170082711e-11,3.882054879795759916e-04,8.397061606046918314e-07,5.373618705561966635e-07,-1.580780930817127228e-02,1.167976370197720826e-05,-2.142017729056533426e-05,-4.640570594460768916e-09,0.000000000000000000e+00,9.484862908720970154e-03,1.000000000000000000e+00
1.027177095413208008e+00,2.895634460449218750e+01,-1.254119968414306641e+01,-1.254119968414306641e+01,4.098113276995718479e-05,1.795760650634765625e+02,-3.051757266803178936e-05,3.190558217625039106e-08,9.750010521170082711e-11,3.882054879795759916e-04,8.397061606046918314e-07,5.373618705561966635e-07,-1.580780930817127228e-02,1.167976370197720826e-05,-2.142017729056533426e-05,-4.640570594460768916e-09,0.000000000000000000e+00,9.484862908720970154e-03,1.000000000000000000e+00
1.027177095413208008e+00,2.895634460449218750e+01,-1.254119968414306641e+01,-1.254119968414306641e+01,4.098113276995718479e-05,1.795760650634765625e+02,-3.051757266803178936e-05,3.190558217625039106e-08,9.750010521170082711e-11,3.882054879795759916e-04,8.397061606046918314e-07,5.373618705561966635e-07,-1.580780930817127228e-02,1.167976370197720826e-05,-2.142017729056533426e-05,-4.640570594460768916e-09,0.000000000000000000e+00,9.484862908720970154e-03,1.000000000000000000e+00
1.095043420791625977e+00,2.895634460449218750e+01,-1.254119968414306641e+01,-1.254119968414306641e+01,4.098113276995718479e-05,1.795760650634765625e+02,-3.051757266803178936e-05,-4.509042739186952531e-08,2.199446491601975140e-08,-1.214436837472021580e-03,-1.134524495682853740e-06,3.226484466267720563e-07,-2.361469157040119171e-02,1.079154753824695945e-05,3.145320079056546092e-05,1.021000262113602730e-08,0.000000000000000000e+00,9.484862908720970154e-03,1.000000000000000000e+00
1.095043420791625977e+00,2.895634460449218750e+01,-1.254119968414306641e+01,-1.254119968414306641e+01,4.098113276995718479e-05,1.795760650634765625e+02,-3.051757266803178936e-05,-4.509042739186952531e-08,2.199446491601975140e-08,-1.214436837472021580e-03,-1.134524495682853740e-06,3.226484466267720563e-07,-2.361469157040119171e-02,1.079154753824695945e-05,3.145320079056546092e-05,1.021000262113602730e-08,0.000000000000000000e+00,9.484862908720970154e-03,1.000000000000000000e+00
1.095043420791625977e+00,2.895634460449218750e+01,-1.254119968414306641e+01,-1.254119968414306641e+01,4.098113276995718479e-05,1.795760650634765625e+02,-3.051757266803178936e-05,-4.509042739186952531e-08,2.199446491601975140e-08,-1.214436837472021580e-03,-1.134524495682853740e-06,3.226484466267720563e-07,-2.361469157040119171e-02,1.079154753824695945e-05,3.145320079056546092e-05,1.021000262113602730e-08,0.000000000000000000e+00,9.484862908720970154e-03,1.000000000000000000e+00
1.095043420791625977e+00,2.895634460449218750e+01,-1.254119968414306641e+01,-1.254119968414306641e+01,4.098113276995718479e-05,1.795760650634765625e+02,-3.051757266803178936e-05,-4.509042739186952531e-08,2.199446491601975140e-08,-1.214436837472021580e-03,-1.134524495682853740e-06,3.226484466267720563e-07,-2.361469157040119171e-02,1.079154753824695945e-05,3.145320079056546092e-05,1.021000262113602730e-08,0.000000000000000000e+00,9.484862908720970154e-03,1.000000000000000000e+00
1.168572425842285156e+00,2.895634460449218750e+01,-1.254119968414306641e+01,-1.254119968414306641e+01,4.098113276995718479e-05,1.795760650634765625e+02,-3.051757266803178936e-05,3.484962007860303856e-08,-3.841205409305104013e-10,9.515614365227520466e-04,1.087190639736945741e-06,-3.043504364086402347e-07,2.945773862302303314e-02,1.123225683841155842e-05,-2.436885733914095908e-05,-1.227942281190053109e-08,0.000000000000000000e+00,9.484862908720970154e-03,1.000000000000000000e+00
1.168572425842285156e+00,2.895634460449218750e+01,-1.254119968414306641e+01,-1.254119968414306641e+01,4.098113276995718479e-05,1.795760650634765625e+02,-3.051757266803178936e-05,3.484962007860303856e-08,-3.841205409305104013e-10,9.515614365227520466e-04,1.087190639736945741e-06,-3.043504364086402347e-07,2.945773862302303314e-02,1.123225683841155842e-05,-2.436885733914095908e-05,-1.227942281190053109e-08,0.000000000000000000e+00,9.484862908720970154e-03,1.000000000000000000e+00
1.168572425842285156e+00,2.895634460449218750e+01,-1.254119968414306641e+01,-1.254119968414306641e+01,4.098113276995718479e-05,1.795760650634765625e+02,-3.051757266803178936e-05,3.484962007860303856e-08,-3.841205409305104013e-10,9.515614365227520466e-04,1.087190639736945741e-06,-3.043504364086402347e-07,2.945773862302303314e-02,1.123225683841155842e-05,-2.436885733914095908e-05,-1.227942281190053109e-08,0.000000000000000000e+00,9.484862908720970154e-03,1.000000000000000000e+00
1.168572425842285156e+00,2.895634460449218750e+01,-1.254119968414306641e+01,-1.254119968414306641e+01,4.098113276995718479e-05,1.795760650634765625e+02,-3.051757266803178936e-05,3.484962007860303856e-08,-3.841205409305104013e-10,9.515614365227520466e-04,1.087190639736945741e-06,-3.043504364086402347e-07,2.945773862302303314e-02,1.123225683841155842e-05,-2.436885733914095908e-05,-1.227942281190053109e-08,0.000000000000000000e+00,9.484862908720970154e-03,1.000000000000000000e+00
1.168572425842285156e+00,2.895634460449218750e+01,-1.254119968414306641e+01,-1.254119968414306641e+01,4.098113276995718479e-05,1.795760650634765625e+02,-3.051757266803178936e-05,1.538692173674860442e-09,-2.032168566756809014e-08,-2.744938537944108248e-04,-4.438589940036763437e-07,-2.656625781582988566e-07,-1.633685082197189331e-02,1.905463818729913328e-06,-5.231918862591555808e-07,2.656066033779325153e-09,0.000000000000000000e+00,9.484862908720970154e-03,1.000000000000000000e+00
1.243620872497558594e+00,2.895634460449218750e+01,-1.254119968414306641e+01,-1.254119968414306641e+01,4.098113276995718479e-05,1.795760650634765625e+02,-3.051757266803178936e-05,1.538692173674860442e-09,-2.032168566756809014e-08,-2.744938537944108248e-04,-4.438589940036763437e-07,-2.656625781582988566e-07,-1.633685082197189331e-02,1.905463818729913328e-06,-5.231918862591555808e-07,2.656066033779325153e-09,0.000000000000000000e+00,9.484862908720970154e-03,1.000000000000000000e+00
1.243620872497558594e+00,2.895634460449218750e+01,-1.254119968414306641e+01,-1.254119968414306641e+01,4.098113276995718479e-05,1.795760650634765625e+02,-3.051757266803178936e-05,1.538692173674860442e-09,-2.032168566756809014e-08,-2.744938537944108248e-04,-4.438589940036763437e-07,-2.656625781582988566e-07,-1.633685082197189331e-02,1.905463818729913328e-06,-5.231918862591555808e-07,2.656066033779325153e-09,0.000000000000000000e+00,9.484862908720970154e-03,1.000000000000000000e+00
1.243620872497558594e+00,2.895634460449218750e+01,-1.254119968414306641e+01,-1.254119968414306641e+01,4.098113276995718479e-05,1.795760650634765625e+02,-3.051757266803178936e-05,1.538692173674860442e-09,-2.032168566756809014e-08,-2.744938537944108248e-04,-4.438589940036763437e-07,-2.656625781582988566e-07,-1.633685082197189331e-02,1.905463818729913328e-06,-5.231918862591555808e-07,2.656066033779325153e-09,0.000000000000000000e+00,9.484862908720970154e-03,1.000000000000000000e+00
1.312042951583862305e+00,2.895634460449218750e+01,-1.254119968414306641e+01,-1.254119968414306641e+01,4.098113276995718479e-05,1.795760650634765625e+02,-3.051757266803178936e-05,-2.928480791197785038e-09,8.788787475566550711e-09,-5.027683801017701626e-04,-6.528846796527432161e-08,4.254544023751805071e-07,-3.336270106956362724e-03,4.442963472683914006e-06,1.955535935849184170e-06,-2.796727779919017109e-11,0.000000000000000000e+00,9.484862908720970154e-03,1.000000000000000000e+00
1.312042951583862305e+00,2.895634460449218750e+01,-1.254119968414306641e+01,-1.254119968414306641e+01,4.098113276995718479e-05,1.795760650634765625e+02,-3.051757266803178936e-05,-2.928480791197785038e-09,8.788787475566550711e-09,-5.027683801017701626e-04,-6.528846796527432161e-08,4.254544023751805071e-07,-3.336270106956362724e-03,4.442963472683914006e-06,1.955535935849184170e-06,-2.796727779919017109e-11,0.000000000000000000e+00,9.484862908720970154e-03,1.000000000000000000e+00
1.312042951583862305e+00,2.895634460449218750e+01,-1.254119968414306641e+01,-1.254119968414306641e+01,4.098113276995718479e-05,1.795760650634765625e+02,-3.051757266803178936e-05,-7.432390702888369560e-09,1.384701597828552622e-08,5.686840158887207508e-04,-6.335824309644522145e-08,7.115605882290765294e-08,1.507253479212522507e-02,6.660642611677758396e-06,4.894950507150497288e-06,-1.749950601093175351e-10,0.000000000000000000e+00,9.484862908720970154e-03,1.000000000000000000e+00
1.383129358291625977e+00,2.895634460449218750e+01,-1.254119968414306641e+01,-1.254119968414306641e+01,4.098113276995718479e-05,1.795760650634765625e+02,-3.051757266803178936e-05,-7.432390702888369560e-09,1.384701597828552622e-08,5.686840158887207508e-04,-6.335824309644522145e-08,7.115605882290765294e-08,1.507253479212522507e-02,6.660642611677758396e-06,4.894950507150497288e-06,-1.749950601093175351e-10,0.000000000000000000e+00,9.484862908720970154e-03,1.000000000000000000e+00
1.383129358291625977e+00,2.895634460449218750e+01,-1.254119968414306641e+01,-1.254119968414306641e+01,4.098113276995718479e-05,1.795760650634765625e+02,-3.051757266803178936e-05,-7.432390702888369560e-09,1.384701597828552622e-08,5.686840158887207508e-04,-6.335824309644522145e-08,7.115605882290765294e-08,1.507253479212522507e-02,6.660642611677758396e-06,4.894950507150497288e-06,-1.749950601093175351e-10,0.000000000000000000e+00,9.484862908720970154e-03,1.000000000000000000e+00
1.450951814651489258e+00,2.895634460449218750e+01,-1.254119968414306641e+01,-1.254119968414306641e+01,4.098113276995718479e-05,1.795760650634765625e+02,-3.051757266803178936e-05,4.841663425736442150e-08,-6.178944289558785385e-08,-2.977901312988251448e-04,8.234591746258956846e-07,-1.115212626245920546e-06,-1.277562323957681656e-02,-3.048244798264931887e-05,-3.170487616444006562e-05,3.966674544386705747e-09,0.000000000000000000e+00,9.484862908720970154e-03,1.000000000000000000e+00
1.450951814651489258e+00,2.895634460449218750e+01,-1.254119968414306641e+01,-1.254119968414306641e+01,4.098113276995718479e-05,1.795760650634765625e+02,-3.051757266803178936e-05,4.841663425736442150e-08,-6.178944289558785385e-08,-2.977901312988251448e-04,8.234591746258956846e-07,-1.115212626245920546e-06,-1.277562323957681656e-02,-3.048244798264931887e-05,-3.170487616444006562e-05,3.966674544386705747e-09,0.000000000000000000e+00,9.484862908720970154e-03,1.000000000000000000e+00
1.450951814651489258e+00,2.895634460449218750e+01,-1.254119968414306641e+01,-1.254119968414306641e+01,4.098113276995718479e-05,1.795760650634765625e+02,-3.051757266803178936e-05,4.841663425736442150e-08,-6.178944289558785385e-08,-2.977901312988251448e-04,8.234591746258956846e-07,-1.115212626245920546e-06,-1.277562323957681656e-02,-3.048244798264931887e-05,-3.170487616444006562e-05,3.966674544386705747e-09,0.000000000000000000e+00,9.484862908720970154e-03,1.000000000000000000e+00
1.527701377868652344e+00,2.895634460449218750e+01,-1.254119968414306641e+01,-1.254119968414306641e+01,4.098113276995718479e-05,1.795760650634765625e+02,-3.051757266803178936e-05,1.122134538067420806e-10,-3.259499692376266466e-08,1.658405381022021174e-04,-6.293771548371296376e-07,3.803858419360039989e-07,6.040824577212333679e-03,-2.804508949338924140e-05,-5.490205126079672482e-07,3.081148225447805089e-09,0.000000000000000000e+00,9.484862908720970154e-03,1.000000000000000000e+00
1.527701377868652344e+00,2.895634460449218750e+01,-1.254119968414306641e+01,-1.254119968414306641e+01,4.098113276995718479e-05,1.795760650634765625e+02,-3.051757266803178936e-05,1.122134538067420806e-10,-3.259499692376266466e-08,1.658405381022021174e-04,-6.293771548371296376e-07,3.803858419360039989e-07,6.040824577212333679e-03,-2.804508949338924140e-05,-5.490205126079672482e-07,3.081148225447805089e-09,0.000000000000000000e+00,9.484862908720970154e-03,1.000000000000000000e+00
1.527701377868652344e+00,2.895634460449218750e+01,-1.254119968414306641e+01,-1.254119968414306641e+01,4.098113276995718479e-05,1.795760650634765625e+02,-3.051757266803178936e-05,1.122134538067420806e-10,-3.259499692376266466e-08,1.658405381022021174e-04,-6.293771548371296376e-07,3.803858419360039989e-07,6.040824577212333679e-03,-2.804508949338924140e-05,-5.490205126079672482e-07,3.081148225447805089e-09,0.000000000000000000e+00,9.484862908720970154e-03,1.000000000000000000e+00
1.600134611129760742e+00,2.895634460449218750e+01,-1.254119968414306641e+01,-1.254119968414306641e+01,4.098113276995718479e-05,1.795760650634765625e+02,-3.051757266803178936e-05,0.000000000000000000e+00,0.000000000000000000e+00,0.000000000000000000e+00,-1.549198436201493223e-09,4.500005843510734849e-07,-2.289564115926623344e-03,0.000000000000000000e+00,0.000000000000000000e+00,0.000000000000000000e+00,0.000000000000000000e+00,9.484862908720970154e-03,1.000000000000000000e+00
1.600134611129760742e+00,2.895634460449218750e+01,-1.254119968414306641e+01,-1.254119968414306641e+01,4.098113276995718479e-05,1.795760650634765625e+02,-3.051757266803178936e-05,0.000000000000000000e+00,0.000000000000000000e+00,0.000000000000000000e+00,-1.549198436201493223e-09,4.500005843510734849e-07,-2.289564115926623344e-03,0.000000000000000000e+00,0.000000000000000000e+00,0.000000000000000000e+00,0.000000000000000000e+00,9.484862908720970154e-03,1.000000000000000000e+00
1.600134611129760742e+00,2.895634460449218750e+01,-1.254119968414306641e+01,-1.254119968414306641e+01,4.098113276995718479e-05,1.795760650634765625e+02,-3.051757266803178936e-05,0.000000000000000000e+00,0.000000000000000000e+00,0.000000000000000000e+00,-1.549198436201493223e-09,4.500005843510734849e-07,-2.289564115926623344e-03,0.000000000000000000e+00,0.000000000000000000e+00,0.000000000000000000e+00,0.000000000000000000e+00,9.484862908720970154e-03,1.000000000000000000e+00
1.600134611129760742e+00,2.895634460449218750e+01,-1.254119968414306641e+01,-1.254119968414306641e+01,4.098113276995718479e-05,1.795760650634765625e+02,-3.051757266803178936e-05,0.000000000000000000e+00,0.000000000000000000e+00,0.000000000000000000e+00,-1.549198436201493223e-09,4.500005843510734849e-07,-2.289564115926623344e-03,0.000000000000000000e+00,0.000000000000000000e+00,0.000000000000000000e+00,0.000000000000000000e+00,9.484862908720970154e-03,1.000000000000000000e+00
1.600134611129760742e+00,2.895634460449218750e+01,-1.254119968414306641e+01,-1.254119968414306641e+01,4.098113276995718479e-05,1.795760650634765625e+02,-3.051757266803178936e-05,0.000000000000000000e+00,0.000000000000000000e+00,0.000000000000000000e+00,-1.549198436201493223e-09,4.500005843510734849e-07,-2.289564115926623344e-03,0.000000000000000000e+00,0.000000000000000000e+00,0.000000000000000000e+00,0.000000000000000000e+00,9.484862908720970154e-03,1.000000000000000000e+00
1.600134611129760742e+00,2.895634460449218750e+01,-1.254119968414306641e+01,-1.254119968414306641e+01,4.098113276995718479e-05,1.795760650634765625e+02,-3.051757266803178936e-05,-6.785547679299952506e-09,6.000048013987679951e-09,4.163043340668082237e-04,-5.881101472482441750e-08,5.200300989827155718e-08,3.608150873333215714e-03,3.122493353657773696e-06,4.492904281505616382e-06,9.297349001791133105e-10,0.000000000000000000e+00,9.484862908720970154e-03,1.000000000000000000e+00
1.715513467788696289e+00,2.895634460449218750e+01,-1.254119968414306641e+01,-1.254119968414306641e+01,4.098113276995718479e-05,1.795760650634765625e+02,-3.051757266803178936e-05,-6.785547679299952506e-09,6.000048013987679951e-09,4.163043340668082237e-04,-5.881101472482441750e-08,5.200300989827155718e-08,3.608150873333215714e-03,3.122493353657773696e-06,4.492904281505616382e-06,9.297349001791133105e-10,0.000000000000000000e+00,9.484862908720970154e-03,1.000000000000000000e+00
1.715513467788696289e+00,2.895634460449218750e+01,-1.254119968414306641e+01,-1.254119968414306641e+01,4.098113276995718479e-05,1.795760650634765625e+02,-3.051757266803178936e-05,-6.785547679299952506e-09,6.000048013987679951e-09,4.163043340668082237e-04,-5.881101472482441750e-08,5.200300989827155718e-08,3.608150873333215714e-03,3.122493353657773696e-06,4.492904281505616382e-06,9.297349001791133105e-10,0.000000000000000000e+00,9.484862908720970154e-03,1.000000000000000000e+00
1.715513467788696289e+00,2.895634460449218750e+01,-1.254119968414306641e+01,-1.254119968414306641e+01,4.098113276995718479e-05,1.795760650634765625e+02,-3.051757266803178936e-05,-6.785547679299952506e-09,6.000048013987679951e-09,4.163043340668082237e-04,-5.881101472482441750e-08,5.200300989827155718e-08,3.608150873333215714e-03,3.122493353657773696e-06,4.492904281505616382e-06,9.297349001791133105e-10,0.000000000000000000e+00,9.484862908720970154e-03,1.000000000000000000e+00
1.813115119934082031e+00,2.895634460449218750e+01,-1.254119968414306641e+01,-1.254119968414306641e+01,4.098113276995718479e-05,1.795760650634765625e+02,-3.051757266803178936e-05,-1.566304064226642367e-08,1.442789354655360512e-08,-1.064332900568842888e-03,-9.095637665268441197e-08,8.634940940055457759e-08,-1.517020724713802338e-02,7.118663688743254170e-06,1.029546456265961751e-05,-6.653022022184984507e-10,0.000000000000000000e+00,9.484862908720970154e-03,1.000000000000000000e+00
1.813115119934082031e+00,2.895634460449218750e+01,-1.254119968414306641e+01,-1.254119968414306641e+01,4.098113276995718479e-05,1.795760650634765625e+02,-3.051757266803178936e-05,-1.566304064226642367e-08,1.442789354655360512e-08,-1.064332900568842888e-03,-9.095637665268441197e-08,8.634940940055457759e-08,-1.517020724713802338e-02,7.118663688743254170e-06,1.029546456265961751e-05,-6.653022022184984507e-10,0.000000000000000000e+00,9.484862908720970154e-03,1.000000000000000000e+00
1.813115119934082031e+00,2.895634460449218750e+01,-1.254119968414306641e+01,-1.254119968414306641e+01,4.098113276995718479e-05,1.795760650634765625e+02,-3.051757266803178936e-05,-1.566304064226642367e-08,1.442789354655360512e-08,-1.064332900568842888e-03,-9.095637665268441197e-08,8.634940940055457759e-08,-1.517020724713802338e-02,7.118663688743254170e-06,1.029546456265961751e-05,-6.653022022184984507e-10,0.000000000000000000e+00,9.484862908720970154e-03,1.000000000000000000e+00
1.813115119934082031e+00,2.895634460449218750e+01,-1.254119968414306641e+01,-1.254119968414306641e+01,4.098113276995718479e-05,1.795760650634765625e+02,-3.051757266803178936e-05,-1.566304064226642367e-08,1.442789354655360512e-08,-1.064332900568842888e-03,-9.095637665268441197e-08,8.634940940055457759e-08,-1.517020724713802338e-02,7.118663688743254170e-06,1.029546456265961751e-05,-6.653022022184984507e-10,0.000000000000000000e+00,9.484862908720970154e-03,1.000000000000000000e+00
1.896134853363037109e+00,2.895634460449218750e+01,-1.254119968414306641e+01,-1.254119968414306641e+01,4.098113276995718479e-05,1.795760650634765625e+02,-3.051757266803178936e-05,-2.139716670512825658e-08,2.038531654591224651e-08,4.063898450112901628e-05,-6.906943639251039713e-08,7.175911775902932277e-08,1.330974977463483810e-02,9.890546607493888587e-06,1.495886590419104323e-05,5.109910272693696243e-09,0.000000000000000000e+00,9.484862908720970154e-03,1.000000000000000000e+00
1.896134853363037109e+00,2.895634460449218750e+01,-1.254119968414306641e+01,-1.254119968414306641e+01,4.098113276995718479e-05,1.795760650634765625e+02,-3.051757266803178936e-05,-2.139716670512825658e-08,2.038531654591224651e-08,4.063898450112901628e-05,-6.906943639251039713e-08,7.175911775902932277e-08,1.330974977463483810e-02,9.890546607493888587e-06,1.495886590419104323e-05,5.109910272693696243e-09,0.000000000000000000e+00,9.484862908720970154e-03,1.000000000000000000e+00
1.896134853363037109e+00,2.895634460449218750e+01,-1.254119968414306641e+01,-1.254119968414306641e+01,4.098113276995718479e-05,1.795760650634765625e+02,-3.051757266803178936e-05,-2.139716670512825658e-08,2.038531654591224651e-08,4.063898450112901628e-05,-6.906943639251039713e-08,7.175911775902932277e-08,1.330974977463483810e-02,9.890546607493888587e-06,1.495886590419104323e-05,5.109910272693696243e-09,0.000000000000000000e+00,9.484862908720970154e-03,1.000000000000000000e+00
1.896134853363037109e+00,2.895634460449218750e+01,-1.254119968414306641e+01,-1.254119968414306641e+01,4.098113276995718479e-05,1.795760650634765625e+02,-3.051757266803178936e-05,-2.139716670512825658e-08,2.038531654591224651e-08,4.063898450112901628e-05,-6.906943639251039713e-08,7.175911775902932277e-08,1.330974977463483810e-02,9.890546607493888587e-06,1.495886590419104323e-05,5.109910272693696243e-09,0.000000000000000000e+00,9.484862908720970154e-03,1.000000000000000000e+00
1.896134853363037109e+00,2.895634460449218750e+01,-1.254119968414306641e+01,-1.254119968414306641e+01,4.098113276995718479e-05,1.795760650634765625e+02,-3.051757266803178936e-05,-2.139716670512825658e-08,2.038531654591224651e-08,4.063898450112901628e-05,-6.906943639251039713e-08,7.175911775902932277e-08,1.330974977463483810e-02,9.890546607493888587e-06,1.495886590419104323e-05,5.109910272693696243e-09,0.000000000000000000e+00,9.484862908720970154e-03,1.000000000000000000e+00
1.896134853363037109e+00,2.895634460449218750e+01,-1.254119968414306641e+01,-1.254119968414306641e+01,4.098113276995718479e-05,1.795760650634765625e+02,-3.051757266803178936e-05,-2.139716670512825658e-08,2.038531654591224651e-08,4.063898450112901628e-05,-6.906943639251039713e-08,7.175911775902932277e-08,1.330974977463483810e-02,9.890546607493888587e-06,1.495886590419104323e-05,5.109910272693696243e-09,0.000000000000000000e+00,9.484862908720970154e-03,1.000000000000000000e+00
1.896134853363037109e+00,2.895634460449218750e+01,-1.254119968414306641e+01,-1.254119968414306641e+01,4.098113276995718479e-05,1.795760650634765625e+02,-3.051757266803178936e-05,-2.139716670512825658e-08,2.038531654591224651e-08,4.063898450112901628e-05,-6.906943639251039713e-08,7.175911775902932277e-08,1.330974977463483810e-02,9.890546607493888587e-06,1.495886590419104323e-05,5.109910272693696243e-09,0.000000000000000000e+00,9.484862908720970154e-03,1.000000000000000000e+00
2.195794820785522461e+00,2.895634460449218750e+01,-1.254119968414306641e+01,-1.254119968414306641e+01,4.098113276995718479e-05,1.795760650634765625e+02,-3.051757266803178936e-05,1.814358618901223963e-08,1.582957764867387596e-08,1.279729767702519894e-03,1.556664187774003949e-06,3.217265742705421872e-08,2.297366783022880554e-02,7.579358680231962353e-06,-1.391633668390568346e-05,-1.529922322163201898e-08,0.000000000000000000e+00,9.484862908720970154e-03,1.000000000000000000e+00
2.195794820785522461e+00,2.895634460449218750e+01,-1.254119968414306641e+01,-1.254119968414306641e+01,4.098113276995718479e-05,1.795760650634765625e+02,-3.051757266803178936e-05,1.814358618901223963e-08,1.582957764867387596e-08,1.279729767702519894e-03,1.556664187774003949e-06,3.217265742705421872e-08,2.297366783022880554e-02,7.579358680231962353e-06,-1.391633668390568346e-05,-1.529922322163201898e-08,0.000000000000000000e+00,9.484862908720970154e-03,1.000000000000000000e+00
2.195794820785522461e+00,2.895634460449218750e+01,-1.254119968414306641e+01,-1.254119968414306641e+01,4.098113276995718479e-05,1.795760650634765625e+02,-3.051757266803178936e-05,1.814358618901223963e-08,1.582957764867387596e-08,1.279729767702519894e-03,1.556664187774003949e-06,3.217265742705421872e-08,2.297366783022880554e-02,7.579358680231962353e-06,-1.391633668390568346e-05,-1.529922322163201898e-08,0.000000000000000000e+00,9.484862908720970154e-03,1.000000000000000000e+00
2.195794820785522461e+00,2.895634460449218750e+01,-1.254119968414306641e+01,-1.254119968414306641e+01,4.098113276995718479e-05,1.795760650634765625e+02,-3.051757266803178936e-05,1.814358618901223963e-08,1.582957764867387596e-08,1.279729767702519894e-03,1.556664187774003949e-06,3.217265742705421872e-08,2.297366783022880554e-02,7.579358680231962353e-06,-1.391633668390568346e-05,-1.529922322163201898e-08,0.000000000000000000e+00,9.484862908720970154e-03,1.000000000000000000e+00
2.195794820785522461e+00,2.895634460449218750e+01,-1.254119968414306641e+01,-1.254119968414306641e+01,4.098113276995718479e-05,1.795760650634765625e+02,-3.051757266803178936e-05,1.814358618901223963e-08,1.582957764867387596e-08,1.279729767702519894e-03,1.556664187774003949e-06,3.217265742705421872e-08,2.297366783022880554e-02,7.579358680231962353e-06,-1.391633668390568346e-05,-1.529922322163201898e-08,0.000000000000000000e+00,9.484862908720970154e-03,1.000000000000000000e+00
2.195794820785522461e+00,2.895634460449218750e+01,-1.254119968414306641e+01,-1.254119968414306641e+01,4.098113276995718479e-05,1.795760650634765625e+02,-3.051757266803178936e-05,1.814358618901223963e-08,1.582957764867387596e-08,1.279729767702519894e-03,1.556664187774003949e-06,3.217265742705421872e-08,2.297366783022880554e-02,7.579358680231962353e-06,-1.391633668390568346e-05,-1.529922322163201898e-08,0.000000000000000000e+00,9.484862908720970154e-03,1.000000000000000000e+00
2.195794820785522461e+00,2.895634460449218750e+01,-1.254119968414306641e+01,-1.254119968414306641e+01,4.098113276995718479e-05,1.795760650634765625e+02,-3.051757266803178936e-05,1.814358618901223963e-08,1.582957764867387596e-08,1.279729767702519894e-03,1.556664187774003949e-06,3.217265742705421872e-08,2.297366783022880554e-02,7.579358680231962353e-06,-1.391633668390568346e-05,-1.529922322163201898e-08,0.000000000000000000e+00,9.484862908720970154e-03,1.000000000000000000e+00
2.195794820785522461e+00,2.895634460449218750e+01,-1.254119968414306641e+01,-1.254119968414306641e+01,4.098113276995718479e-05,1.795760650634765625e+02,-3.051757266803178936e-05,1.814358618901223963e-08,1.582957764867387596e-08,1.279729767702519894e-03,1.556664187774003949e-06,3.217265742705421872e-08,2.297366783022880554e-02,7.579358680231962353e-06,-1.391633668390568346e-05,-1.529922322163201898e-08,0.000000000000000000e+00,9.484862908720970154e-03,1.000000000000000000e+00
2.195794820785522461e+00,2.895634460449218750e+01,-1.254119968414306641e+01,-1.254119968414306641e+01,4.098113276995718479e-05,1.795760650634765625e+02,-3.051757266803178936e-05,1.814358618901223963e-08,1.582957764867387596e-08,1.279729767702519894e-03,1.556664187774003949e-06,3.217265742705421872e-08,2.297366783022880554e-02,7.579358680231962353e-06,-1.391633668390568346e-05,-1.529922322163201898e-08,0.000000000000000000e+00,9.484862908720970154e-03,1.000000000000000000e+00
2.195794820785522461e+00,2.895634460449218750e+01,-1.254119968414306641e+01,-1.254119968414306641e+01,4.098113276995718479e-05,1.795760650634765625e+02,-3.051757266803178936e-05,1.814358618901223963e-08,1.582957764867387596e-08,1.279729767702519894e-03,1.556664187774003949e-06,3.217265742705421872e-08,2.297366783022880554e-02,7.579358680231962353e-06,-1.391633668390568346e-05,-1.529922322163201898e-08,0.000000000000000000e+00,9.484862908720970154e-03,1.000000000000000000e+00
2.374083757400512695e+00,2.895634460449218750e+01,-1.254119968414306641e+01,-1.254119968414306641e+01,4.098113276995718479e-05,1.795760650634765625e+02,-3.051757266803178936e-05,-3.417930471982799645e-08,7.083098996218950560e-09,1.619143178686499596e-03,-2.934724250280851265e-07,-4.905788841824687552e-08,1.903726719319820404e-03,1.327356471847451758e-06,2.395017872913740575e-05,1.108453773213113891e-08,0.000000000000000000e+00,9.484862908720970154e-03,1.000000000000000000e+00
2.374083757400512695e+00,2.895634460449218750e+01,-1.254119968414306641e+01,-1.254119968414306641e+01,4.098113276995718479e-05,1.795760650634765625e+02,-3.051757266803178936e-05,-3.417930471982799645e-08,7.083098996218950560e-09,1.619143178686499596e-03,-2.934724250280851265e-07,-4.905788841824687552e-08,1.903726719319820404e-03,1.327356471847451758e-06,2.395017872913740575e-05,1.108453773213113891e-08,0.000000000000000000e+00,9.484862908720970154e-03,1.000000000000000000e+00
2.374083757400512695e+00,2.895634460449218750e+01,-1.254119968414306641e+01,-1.254119968414306641e+01,4.098113276995718479e-05,1.795760650634765625e+02,-3.051757266803178936e-05,-3.417930471982799645e-08,7.083098996218950560e-09,1.619143178686499596e-03,-2.934724250280851265e-07,-4.905788841824687552e-08,1.903726719319820404e-03,1.327356471847451758e-06,2.395017872913740575e-05,1.108453773213113891e-08,0.000000000000000000e+00,9.484862908720970154e-03,1.000000000000000000e+00
2.447860002517700195e+00,2.895634460449218750e+01,-1.254119968414306641e+01,-1.254119968414306641e+01,4.098113276995718479e-05,1.795760650634765625e+02,-3.051757266803178936e-05,7.884470853980474203e-09,-1.586314013479750429e-08,-1.394668826833367348e-03,5.701533609681064263e-07,-3.110247632776008686e-07,-4.085071012377738953e-02,1.641448648115328979e-06,-6.213776487129507586e-06,-9.192551608805388241e-09,0.000000000000000000e+00,9.484862908720970154e-03,1.000000000000000000e+00
2.447860002517700195e+00,2.895634460449218750e+01,-1.254119968414306641e+01,-1.254119968414306641e+01,4.098113276995718479e-05,1.795760650634765625e+02,-3.051757266803178936e-05,7.884470853980474203e-09,-1.586314013479750429e-08,-1.394668826833367348e-03,5.701533609681064263e-07,-3.110247632776008686e-07,-4.085071012377738953e-02,1.641448648115328979e-06,-6.213776487129507586e-06,-9.192551608805388241e-09,0.000000000000000000e+00,9.484862908720970154e-03,1.000000000000000000e+00
2.500878810882568359e+00,2.895634460449218750e+01,-1.254119968414306641e+01,-1.254119968414306641e+01,4.098113276995718479e-05,1.795760650634765625e+02,-3.051757266803178936e-05,-2.332929049941867561e-08,-1.477932531912529157e-08,8.614889229647815228e-04,-5.887299607820750680e-07,2.044208180507212091e-08,4.255391284823417664e-02,2.459062216075835750e-06,1.616864574316423386e-05,3.881926335935759198e-09,0.000000000000000000e+00,9.484862908720970154e-03,1.000000000000000000e+00
2.500878810882568359e+00,2.895634460449218750e+01,-1.254119968414306641e+01,-1.254119968414306641e+01,4.098113276995718479e-05,1.795760650634765625e+02,-3.051757266803178936e-05,-2.332929049941867561e-08,-1.477932531912529157e-08,8.614889229647815228e-04,-5.887299607820750680e-07,2.044208180507212091e-08,4.255391284823417664e-02,2.459062216075835750e-06,1.616864574316423386e-05,3.881926335935759198e-09,0.000000000000000000e+00,9.484862908720970154e-03,1.000000000000000000e+00
2.500878810882568359e+00,2.895634460449218750e+01,-1.254119968414306641e+01,-1.254119968414306641e+01,4.098113276995718479e-05,1.795760650634765625e+02,-3.051757266803178936e-05,-2.332929049941867561e-08,-1.477932531912529157e-08,8.614889229647815228e-04,-5.887299607820750680e-07,2.044208180507212091e-08,4.255391284823417664e-02,2.459062216075835750e-06,1.616864574316423386e-05,3.881926335935759198e-09,0.000000000000000000e+00,9.484862908720970154e-03,1.000000000000000000e+00
2.560195446014404297e+00,2.895634460449218750e+01,-1.254119968414306641e+01,-1.254119968414306641e+01,4.098113276995718479e-05,1.795760650634765625e+02,-3.051757266803178936e-05,1.667971005758772662e-08,4.346155435541732004e-09,1.600253512151539326e-03,6.744987786078127101e-07,3.224302815851842752e-07,1.245459355413913727e-02,2.101880454574711621e-06,-1.197498659166740254e-05,-5.484868559335609461e-09,0.000000000000000000e+00,9.484862908720970154e-03,1.000000000000000000e+00
2.560195446014404297e+00,2.895634460449218750e+01,-1.254119968414306641e+01,-1.254119968414306641e+01,4.098113276995718479e-05,1.795760650634765625e+02,-3.051757266803178936e-05,1.667971005758772662e-08,4.346155435541732004e-09,1.600253512151539326e-03,6.744987786078127101e-07,3.224302815851842752e-07,1.245459355413913727e-02,2.101880454574711621e-06,-1.197498659166740254e-05,-5.484868559335609461e-09,0.000000000000000000e+00,9.484862908720970154e-03,1.000000000000000000e+00
2.560195446014404297e+00,2.895634460449218750e+01,-1.254119968414306641e+01,-1.254119968414306641e+01,4.098113276995718479e-05,1.795760650634765625e+02,-3.051757266803178936e-05,-3.803784309752700210e-08,8.080123237164116290e-09,-2.648914232850074768e-04,-9.347819514005095698e-07,6.379023886893264716e-08,-3.186370059847831726e-02,2.066136403300333768e-06,2.434802809148095548e-05,-3.857276276164611772e-09,0.000000000000000000e+00,9.484862908720970154e-03,1.000000000000000000e+00
2.618730545043945312e+00,2.895634460449218750e+01,-1.254119968414306641e+01,-1.254119968414306641e+01,4.098113276995718479e-05,1.795760650634765625e+02,-3.051757266803178936e-05,-3.803784309752700210e-08,8.080123237164116290e-09,-2.648914232850074768e-04,-9.347819514005095698e-07,6.379023886893264716e-08,-3.186370059847831726e-02,2.066136403300333768e-06,2.434802809148095548e-05,-3.857276276164611772e-09,0.000000000000000000e+00,9.484862908720970154e-03,1.000000000000000000e+00
2.618730545043945312e+00,2.895634460449218750e+01,-1.254119968414306641e+01,-1.254119968414306641e+01,4.098113276995718479e-05,1.795760650634765625e+02,-3.051757266803178936e-05,2.831978918038657866e-08,1.672944982544777304e-08,-1.626253506401553750e-04,1.132314650931220967e-06,1.475905548886657925e-07,1.745049841701984406e-03,1.001759119390044361e-05,-2.004816633416339755e-05,-9.383530397144568269e-09,0.000000000000000000e+00,9.484862908720970154e-03,1.000000000000000000e+00
2.677334070205688477e+00,2.895634460449218750e+01,-1.254119968414306641e+01,-1.254119968414306641e+01,4.098113276995718479e-05,1.795760650634765625e+02,-3.051757266803178936e-05,2.831978918038657866e-08,1.672944982544777304e-08,-1.626253506401553750e-04,1.132314650931220967e-06,1.475905548886657925e-07,1.745049841701984406e-03,1.001759119390044361e-05,-2.004816633416339755e-05,-9.383530397144568269e-09,0.000000000000000000e+00,9.484862908720970154e-03,1.000000000000000000e+00
2.677334070205688477e+00,2.895634460449218750e+01,-1.254119968414306641e+01,-1.254119968414306641e+01,4.098113276995718479e-05,1.795760650634765625e+02,-3.051757266803178936e-05,2.831978918038657866e-08,1.672944982544777304e-08,-1.626253506401553750e-04,1.132314650931220967e-06,1.475905548886657925e-07,1.745049841701984406e-03,1.001759119390044361e-05,-2.004816633416339755e-05,-9.383530397144568269e-09,0.000000000000000000e+00,9.484862908720970154e-03,1.000000000000000000e+00
2.677334070205688477e+00,2.895634460449218750e+01,-1.254119968414306641e+01,-1.254119968414306641e+01,4.098113276995718479e-05,1.795760650634765625e+02,-3.051757266803178936e-05,2.831978918038657866e-08,1.672944982544777304e-08,-1.626253506401553750e-04,1.132314650931220967e-06,1.475905548886657925e-07,1.745049841701984406e-03,1.001759119390044361e-05,-2.004816633416339755e-05,-9.383530397144568269e-09,0.000000000000000000e+00,9.484862908720970154e-03,1.000000000000000000e+00
2.755024909973144531e+00,2.895634460449218750e+01,-1.254119968414306641e+01,-1.254119968414306641e+01,4.098113276995718479e-05,1.795760650634765625e+02,-3.051757266803178936e-05,1.334954280451938757e-08,-6.024383480962569593e-08,-2.626606437843292952e-04,-1.926899955151384347e-07,-9.907639650919009000e-07,-1.287607359699904919e-03,-3.000237302330788225e-05,-8.861100468493532389e-06,1.508618896473024051e-09,0.000000000000000000e+00,9.484862908720970154e-03,1.000000000000000000e+00
2.755024909973144531e+00,2.895634460449218750e+01,-1.254119968414306641e+01,-1.254119968414306641e+01,4.098113276995718479e-05,1.795760650634765625e+02,-3.051757266803178936e-05,1.334954280451938757e-08,-6.024383480962569593e-08,-2.626606437843292952e-04,-1.926899955151384347e-07,-9.907639650919009000e-07,-1.287607359699904919e-03,-3.000237302330788225e-05,-8.861100468493532389e-06,1.508618896473024051e-09,0.000000000000000000e+00,9.484862908720970154e-03,1.000000000000000000e+00
2.755024909973144531e+00,2.895634460449218750e+01,-1.254119968414306641e+01,-1.254119968414306641e+01,4.098113276995718479e-05,1.795760650634765625e+02,-3.051757266803178936e-05,1.334954280451938757e-08,-6.024383480962569593e-08,-2.626606437843292952e-04,-1.926899955151384347e-07,-9.907639650919009000e-07,-1.287607359699904919e-03,-3.000237302330788225e-05,-8.861100468493532389e-06,1.508618896473024051e-09,0.000000000000000000e+00,9.484862908720970154e-03,1.000000000000000000e+00
2.830169916152954102e+00,2.895634460449218750e+01,-1.254119968414306641e+01,-1.254119968414306641e+01,4.098113276995718479e-05,1.795760650634765625e+02,-3.051757266803178936e-05,-4.388189012161092251e-08,-3.194702280495675950e-09,-8.226641803048551083e-04,-7.616132506882422604e-07,7.591872304146818351e-07,-7.452305406332015991e-03,9.972681255021598190e-06,3.015000947925727814e-05,7.166113924483852315e-09,0.000000000000000000e+00,9.484862908720970154e-03,1.000000000000000000e+00
2.830169916152954102e+00,2.895634460449218750e+01,-1.254119968414306641e+01,-1.254119968414306641e+01,4.098113276995718479e-05,1.795760650634765625e+02,-3.051757266803178936e-05,-4.388189012161092251e-08,-3.194702280495675950e-09,-8.226641803048551083e-04,-7.616132506882422604e-07,7.591872304146818351e-07,-7.452305406332015991e-03,9.972681255021598190e-06,3.015000947925727814e-05,7.166113924483852315e-09,0.000000000000000000e+00,9.484862908720970154e-03,1.000000000000000000e+00
2.830169916152954102e+00,2.895634460449218750e+01,-1.254119968414306641e+01,-1.254119968414306641e+01,4.098113276995718479e-05,1.795760650634765625e+02,-3.051757266803178936e-05,-4.388189012161092251e-08,-3.194702280495675950e-09,-8.226641803048551083e-04,-7.616132506882422604e-07,7.591872304146818351e-07,-7.452305406332015991e-03,9.972681255021598190e-06,3.015000947925727814e-05,7.166113924483852315e-09,0.000000000000000000e+00,9.484862908720970154e-03,1.000000000000000000e+00
2.830169916152954102e+00,2.895634460449218750e+01,-1.254119968414306641e+01,-1.254119968414306641e+01,4.098113276995718479e-05,1.795760650634765625e+02,-3.051757266803178936e-05,-4.388189012161092251e-08,-3.194702280495675950e-09,-8.226641803048551083e-04,-7.616132506882422604e-07,7.591872304146818351e-07,-7.452305406332015991e-03,9.972681255021598190e-06,3.015000947925727814e-05,7.166113924483852315e-09,0.000000000000000000e+00,9.484862908720970154e-03,1.000000000000000000e+00
2.830169916152954102e+00,2.895634460449218750e+01,-1.254119968414306641e+01,-1.254119968414306641e+01,4.098113276995718479e-05,1.795760650634765625e+02,-3.051757266803178936e-05,-4.388189012161092251e-08,-3.194702280495675950e-09,-8.226641803048551083e-04,-7.616132506882422604e-07,7.591872304146818351e-07,-7.452305406332015991e-03,9.972681255021598190e-06,3.015000947925727814e-05,7.166113924483852315e-09,0.000000000000000000e+00,9.484862908720970154e-03,1.000000000000000000e+00
2.917726278305053711e+00,2.895634460449218750e+01,-1.254119968414306641e+01,-1.254119968414306641e+01,4.098113276995718479e-05,1.795760650634765625e+02,-3.051757266803178936e-05,4.109706708277371945e-08,2.150731681638262671e-08,-3.375499773028423078e-06,9.705628372103092261e-07,2.821270470576564549e-07,9.357270784676074982e-03,1.061267539625987411e-05,-2.685889558051712811e-05,5.559354643303038301e-10,0.000000000000000000e+00,9.484862908720970154e-03,1.000000000000000000e+00
