# Time,X,Y,Z,Roll,Pitch,Yaw,Vx,Vy,Vz,Ax,Ay,Az,Wx,Wy,Wz,Throttle,Steer,Brake
0.000000000000000000e+00,1.516614532470703125e+02,-2.355201339721679688e+01,-2.355201339721679688e+01,-1.733980029821395874e-01,1.796987762451171875e+02,-4.577636718750000000e-04,0.000000000000000000e+00,0.000000000000000000e+00,0.000000000000000000e+00,1.651189585061274556e-08,2.907466409851622302e-07,-4.071835137438029051e-04,0.000000000000000000e+00,0.000000000000000000e+00,0.000000000000000000e+00,0.000000000000000000e+00,2.557373140007257462e-03,1.000000000000000000e+00
1.045818328857421875e-01,1.516614532470703125e+02,-2.355201339721679688e+01,-2.355201339721679688e+01,-1.733980029821395874e-01,1.796987762451171875e+02,-4.577636718750000000e-04,0.000000000000000000e+00,0.000000000000000000e+00,0.000000000000000000e+00,1.651189585061274556e-08,2.907466409851622302e-07,-4.071835137438029051e-04,0.000000000000000000e+00,0.000000000000000000e+00,0.000000000000000000e+00,0.000000000000000000e+00,2.557373140007257462e-03,1.000000000000000000e+00
1.045818328857421875e-01,1.516614532470703125e+02,-2.355201339721679688e+01,-2.355201339721679688e+01,-1.733980029821395874e-01,1.796987762451171875e+02,-4.577636718750000000e-04,0.000000000000000000e+00,0.000000000000000000e+00,0.000000000000000000e+00,1.651189585061274556e-08,2.907466409851622302e-07,-4.071835137438029051e-04,0.000000000000000000e+00,0.000000000000000000e+00,0.000000000000000000e+00,0.000000000000000000e+00,2.557373140007257462e-03,1.000000000000000000e+00
1.045818328857421875e-01,1.516614532470703125e+02,-2.355201339721679688e+01,-2.355201339721679688e+01,-1.733980029821395874e-01,1.796987762451171875e+02,-4.577636718750000000e-04,0.000000000000000000e+00,0.000000000000000000e+00,0.000000000000000000e+00,1.651189585061274556e-08,2.907466409851622302e-07,-4.071835137438029051e-04,0.000000000000000000e+00,0.000000000000000000e+00,0.000000000000000000e+00,0.000000000000000000e+00,2.557373140007257462e-03,1.000000000000000000e+00
1.045818328857421875e-01,1.516614532470703125e+02,-2.355201339721679688e+01,-2.355201339721679688e+01,-1.733980029821395874e-01,1.796987762451171875e+02,-4.577636718750000000e-04,0.000000000000000000e+00,0.000000000000000000e+00,0.000000000000000000e+00,1.651189585061274556e-08,2.907466409851622302e-07,-4.071835137438029051e-04,0.000000000000000000e+00,0.000000000000000000e+00,0.000000000000000000e+00,0.000000000000000000e+00,2.557373140007257462e-03,1.000000000000000000e+00
1.045818328857421875e-01,1.516614532470703125e+02,-2.355201339721679688e+01,-2.355201339721679688e+01,-1.733980029821395874e-01,1.796987762451171875e+02,-4.577636718750000000e-04,0.000000000000000000e+00,0.000000000000000000e+00,0.000000000000000000e+00,1.651189585061274556e-08,2.907466409851622302e-07,-4.071835137438029051e-04,0.000000000000000000e+00,0.000000000000000000e+00,0.000000000000000000e+00,0.000000000000000000e+00,2.557373140007257462e-03,1.000000000000000000e+00
1.045818328857421875e-01,1.516614532470703125e+02,-2.355201339721679688e+01,-2.355201339721679688e+01,-1.733980029821395874e-01,1.796987762451171875e+02,-4.577636718750000000e-04,-2.795153553059037677e-10,-7.698414350443272269e-09,-9.634128655306994915e-04,-2.669451326653415890e-09,-7.352205244615106494e-08,-9.200868196785449982e-03,-2.168861465179361403e-05,-9.521590072836261243e-06,-6.386822093418231816e-08,0.000000000000000000e+00,2.557373140007257462e-03,1.000000000000000000e+00
2.092907428741455078e-01,1.516614532470703125e+02,-2.355201339721679688e+01,-2.355201339721679688e+01,-1.733980029821395874e-01,1.796987762451171875e+02,-4.577636718750000000e-04,-2.795153553059037677e-10,-7.698414350443272269e-09,-9.634128655306994915e-04,-2.669451326653415890e-09,-7.352205244615106494e-08,-9.200868196785449982e-03,-2.168861465179361403e-05,-9.521590072836261243e-06,-6.386822093418231816e-08,0.000000000000000000e+00,2.557373140007257462e-03,1.000000000000000000e+00
2.092907428741455078e-01,1.516614532470703125e+02,-2.355201339721679688e+01,-2.355201339721679688e+01,-1.733980029821395874e-01,1.796987762451171875e+02,-4.577636718750000000e-04,-2.795153553059037677e-10,-7.698414350443272269e-09,-9.634128655306994915e-04,-2.669451326653415890e-09,-7.352205244615106494e-08,-9.200868196785449982e-03,-2.168861465179361403e-05,-9.521590072836261243e-06,-6.386822093418231816e-08,0.000000000000000000e+00,2.557373140007257462e-03,1.000000000000000000e+00
2.092907428741455078e-01,1.516614532470703125e+02,-2.355201339721679688e+01,-2.355201339721679688e+01,-1.733980029821395874e-01,1.796987762451171875e+02,-4.577636718750000000e-04,-2.795153553059037677e-10,-7.698414350443272269e-09,-9.634128655306994915e-04,-2.669451326653415890e-09,-7.352205244615106494e-08,-9.200868196785449982e-03,-2.168861465179361403e-05,-9.521590072836261243e-06,-6.386822093418231816e-08,0.000000000000000000e+00,2.557373140007257462e-03,1.000000000000000000e+00
2.092907428741455078e-01,1.516614532470703125e+02,-2.355201339721679688e+01,-2.355201339721679688e+01,-1.733980029821395874e-01,1.796987762451171875e+02,-4.577636718750000000e-04,-2.795153553059037677e-10,-7.698414350443272269e-09,-9.634128655306994915e-04,-2.669451326653415890e-09,-7.352205244615106494e-08,-9.200868196785449982e-03,-2.168861465179361403e-05,-9.521590072836261243e-06,-6.386822093418231816e-08,0.000000000000000000e+00,2.557373140007257462e-03,1.000000000000000000e+00
2.092907428741455078e-01,1.516614532470703125e+02,-2.355201339721679688e+01,-2.355201339721679688e+01,-1.733980029821395874e-01,1.796987762451171875e+02,-4.577636718750000000e-04,-2.379639596483684727e-09,3.340810128538151957e-10,1.317758287768810987e-04,-2.814479138635306299e-08,1.076473949979117606e-07,1.467715762555599213e-02,-1.172337647403765004e-06,-1.942100607266183943e-05,-2.633015361297452728e-09,0.000000000000000000e+00,2.557373140007257462e-03,1.000000000000000000e+00
2.839093208312988281e-01,1.516614532470703125e+02,-2.355201339721679688e+01,-2.355201339721679688e+01,-1.733980029821395874e-01,1.796987762451171875e+02,-4.577636718750000000e-04,-2.379639596483684727e-09,3.340810128538151957e-10,1.317758287768810987e-04,-2.814479138635306299e-08,1.076473949979117606e-07,1.467715762555599213e-02,-1.172337647403765004e-06,-1.942100607266183943e-05,-2.633015361297452728e-09,0.000000000000000000e+00,2.557373140007257462e-03,1.000000000000000000e+00
2.839093208312988281e-01,1.516614532470703125e+02,-2.355201339721679688e+01,-2.355201339721679688e+01,-1.733980029821395874e-01,1.796987762451171875e+02,-4.577636718750000000e-04,-2.379639596483684727e-09,3.340810128538151957e-10,1.317758287768810987e-04,-2.814479138635306299e-08,1.076473949979117606e-07,1.467715762555599213e-02,-1.172337647403765004e-06,-1.942100607266183943e-05,-2.633015361297452728e-09,0.000000000000000000e+00,2.557373140007257462e-03,1.000000000000000000e+00
2.839093208312988281e-01,1.516614532470703125e+02,-2.355201339721679688e+01,-2.355201339721679688e+01,-1.733980029821395874e-01,1.796987762451171875e+02,-4.577636718750000000e-04,-2.379639596483684727e-09,3.340810128538151957e-10,1.317758287768810987e-04,-2.814479138635306299e-08,1.076473949979117606e-07,1.467715762555599213e-02,-1.172337647403765004e-06,-1.942100607266183943e-05,-2.633015361297452728e-09,0.000000000000000000e+00,2.557373140007257462e-03,1.000000000000000000e+00
2.839093208312988281e-01,1.516614532470703125e+02,-2.355201339721679688e+01,-2.355201339721679688e+01,-1.733980029821395874e-01,1.796987762451171875e+02,-4.577636718750000000e-04,-2.379639596483684727e-09,3.340810128538151957e-10,1.317758287768810987e-04,-2.814479138635306299e-08,1.076473949979117606e-07,1.467715762555599213e-02,-1.172337647403765004e-06,-1.942100607266183943e-05,-2.633015361297452728e-09,0.000000000000000000e+00,2.557373140007257462e-03,1.000000000000000000e+00
3.569011688232421875e-01,1.516614532470703125e+02,-2.355201339721679688e+01,-2.355201339721679688e+01,-1.733980029821395874e-01,1.796987762451171875e+02,-4.577636718750000000e-04,4.310898166215437755e-11,1.990979647814583586e-08,1.575034577399492264e-03,3.319204466833980405e-08,2.681904334167484194e-07,1.977287605404853821e-02,-6.116648000897839665e-05,3.156994353048503399e-06,-1.670486966531825601e-07,0.000000000000000000e+00,2.557373140007257462e-03,1.000000000000000000e+00
3.569011688232421875e-01,1.516614532470703125e+02,-2.355201339721679688e+01,-2.355201339721679688e+01,-1.733980029821395874e-01,1.796987762451171875e+02,-4.577636718750000000e-04,4.310898166215437755e-11,1.990979647814583586e-08,1.575034577399492264e-03,3.319204466833980405e-08,2.681904334167484194e-07,1.977287605404853821e-02,-6.116648000897839665e-05,3.156994353048503399e-06,-1.670486966531825601e-07,0.000000000000000000e+00,2.557373140007257462e-03,1.000000000000000000e+00
3.569011688232421875e-01,1.516614532470703125e+02,-2.355201339721679688e+01,-2.355201339721679688e+01,-1.733980029821395874e-01,1.796987762451171875e+02,-4.577636718750000000e-04,4.310898166215437755e-11,1.990979647814583586e-08,1.575034577399492264e-03,3.319204466833980405e-08,2.681904334167484194e-07,1.977287605404853821e-02,-6.116648000897839665e-05,3.156994353048503399e-06,-1.670486966531825601e-07,0.000000000000000000e+00,2.557373140007257462e-03,1.000000000000000000e+00
3.569011688232421875e-01,1.516614532470703125e+02,-2.355201339721679688e+01,-2.355201339721679688e+01,-1.733980029821395874e-01,1.796987762451171875e+02,-4.577636718750000000e-04,4.310898166215437755e-11,1.990979647814583586e-08,1.575034577399492264e-03,3.319204466833980405e-08,2.681904334167484194e-07,1.977287605404853821e-02,-6.116648000897839665e-05,3.156994353048503399e-06,-1.670486966531825601e-07,0.000000000000000000e+00,2.557373140007257462e-03,1.000000000000000000e+00
4.765405654907226562e-01,1.516614532470703125e+02,-2.355201339721679688e+01,-2.355201339721679688e+01,-1.733980029821395874e-01,1.796987762451171875e+02,-4.577636718750000000e-04,2.489535522176566928e-10,1.476814492917810639e-08,8.992789662443101406e-04,1.720541709104850270e-09,-4.297624300875213521e-08,-5.648270249366760254e-03,-2.512934952392242849e-05,9.957835573004558682e-06,-6.624374293551227311e-08,0.000000000000000000e+00,2.557373140007257462e-03,1.000000000000000000e+00
4.765405654907226562e-01,1.516614532470703125e+02,-2.355201339721679688e+01,-2.355201339721679688e+01,-1.733980029821395874e-01,1.796987762451171875e+02,-4.577636718750000000e-04,2.489535522176566928e-10,1.476814492917810639e-08,8.992789662443101406e-04,1.720541709104850270e-09,-4.297624300875213521e-08,-5.648270249366760254e-03,-2.512934952392242849e-05,9.957835573004558682e-06,-6.624374293551227311e-08,0.000000000000000000e+00,2.557373140007257462e-03,1.000000000000000000e+00
4.765405654907226562e-01,1.516614532470703125e+02,-2.355201339721679688e+01,-2.355201339721679688e+01,-1.733980029821395874e-01,1.796987762451171875e+02,-4.577636718750000000e-04,2.489535522176566928e-10,1.476814492917810639e-08,8.992789662443101406e-04,1.720541709104850270e-09,-4.297624300875213521e-08,-5.648270249366760254e-03,-2.512934952392242849e-05,9.957835573004558682e-06,-6.624374293551227311e-08,0.000000000000000000e+00,2.557373140007257462e-03,1.000000000000000000e+00
4.765405654907226562e-01,1.516614532470703125e+02,-2.355201339721679688e+01,-2.355201339721679688e+01,-1.733980029821395874e-01,1.796987762451171875e+02,-4.577636718750000000e-04,2.489535522176566928e-10,1.476814492917810639e-08,8.992789662443101406e-04,1.720541709104850270e-09,-4.297624300875213521e-08,-5.648270249366760254e-03,-2.512934952392242849e-05,9.957835573004558682e-06,-6.624374293551227311e-08,0.000000000000000000e+00,2.557373140007257462e-03,1.000000000000000000e+00
4.765405654907226562e-01,1.516614532470703125e+02,-2.355201339721679688e+01,-2.355201339721679688e+01,-1.733980029821395874e-01,1.796987762451171875e+02,-4.577636718750000000e-04,2.489535522176566928e-10,1.476814492917810639e-08,8.992789662443101406e-04,1.720541709104850270e-09,-4.297624300875213521e-08,-5.648270249366760254e-03,-2.512934952392242849e-05,9.957835573004558682e-06,-6.624374293551227311e-08,0.000000000000000000e+00,2.557373140007257462e-03,1.000000000000000000e+00
4.765405654907226562e-01,1.516614532470703125e+02,-2.355201339721679688e+01,-2.355201339721679688e+01,-1.733980029821395874e-01,1.796987762451171875e+02,-4.577636718750000000e-04,2.489535522176566928e-10,1.476814492917810639e-08,8.992789662443101406e-04,1.720541709104850270e-09,-4.297624300875213521e-08,-5.648270249366760254e-03,-2.512934952392242849e-05,9.957835573004558682e-06,-6.624374293551227311e-08,0.000000000000000000e+00,2.557373140007257462e-03,1.000000000000000000e+00
4.765405654907226562e-01,1.516614532470703125e+02,-2.355201339721679688e+01,-2.355201339721679688e+01,-1.733980029821395874e-01,1.796987762451171875e+02,-4.577636718750000000e-04,2.489535522176566928e-10,1.476814492917810639e-08,8.992789662443101406e-04,1.720541709104850270e-09,-4.297624300875213521e-08,-5.648270249366760254e-03,-2.512934952392242849e-05,9.957835573004558682e-06,-6.624374293551227311e-08,0.000000000000000000e+00,2.557373140007257462e-03,1.000000000000000000e+00
6.200885772705078125e-01,1.516614532470703125e+02,-2.355201339721679688e+01,-2.355201339721679688e+01,-1.733980029821395874e-01,1.796987762451171875e+02,-4.577636718750000000e-04,-1.540949590150830772e-09,3.267185189059773620e-09,-1.425124064553529024e-04,-1.246902048279707742e-08,-8.011925700657229754e-08,-7.257442455738782883e-03,-2.227223558293189853e-05,-1.774675001797731966e-05,-6.229295479442953365e-08,0.000000000000000000e+00,2.557373140007257462e-03,1.000000000000000000e+00
6.200885772705078125e-01,1.516614532470703125e+02,-2.355201339721679688e+01,-2.355201339721679688e+01,-1.733980029821395874e-01,1.796987762451171875e+02,-4.577636718750000000e-04,-1.540949590150830772e-09,3.267185189059773620e-09,-1.425124064553529024e-04,-1.246902048279707742e-08,-8.011925700657229754e-08,-7.257442455738782883e-03,-2.227223558293189853e-05,-1.774675001797731966e-05,-6.229295479442953365e-08,0.000000000000000000e+00,2.557373140007257462e-03,1.000000000000000000e+00
6.200885772705078125e-01,1.516614532470703125e+02,-2.355201339721679688e+01,-2.355201339721679688e+01,-1.733980029821395874e-01,1.796987762451171875e+02,-4.577636718750000000e-04,-1.540949590150830772e-09,3.267185189059773620e-09,-1.425124064553529024e-04,-1.246902048279707742e-08,-8.011925700657229754e-08,-7.257442455738782883e-03,-2.227223558293189853e-05,-1.774675001797731966e-05,-6.229295479442953365e-08,0.000000000000000000e+00,2.557373140007257462e-03,1.000000000000000000e+00
6.200885772705078125e-01,1.516614532470703125e+02,-2.355201339721679688e+01,-2.355201339721679688e+01,-1.733980029821395874e-01,1.796987762451171875e+02,-4.577636718750000000e-04,-1.540949590150830772e-09,3.267185189059773620e-09,-1.425124064553529024e-04,-1.246902048279707742e-08,-8.011925700657229754e-08,-7.257442455738782883e-03,-2.227223558293189853e-05,-1.774675001797731966e-05,-6.229295479442953365e-08,0.000000000000000000e+00,2.557373140007257462e-03,1.000000000000000000e+00
6.200885772705078125e-01,1.516614532470703125e+02,-2.355201339721679688e+01,-2.355201339721679688e+01,-1.733980029821395874e-01,1.796987762451171875e+02,-4.577636718750000000e-04,-1.540949590150830772e-09,3.267185189059773620e-09,-1.425124064553529024e-04,-1.246902048279707742e-08,-8.011925700657229754e-08,-7.257442455738782883e-03,-2.227223558293189853e-05,-1.774675001797731966e-05,-6.229295479442953365e-08,0.000000000000000000e+00,2.557373140007257462e-03,1.000000000000000000e+00
6.200885772705078125e-01,1.516614532470703125e+02,-2.355201339721679688e+01,-2.355201339721679688e+01,-1.733980029821395874e-01,1.796987762451171875e+02,-4.577636718750000000e-04,-1.540949590150830772e-09,3.267185189059773620e-09,-1.425124064553529024e-04,-1.246902048279707742e-08,-8.011925700657229754e-08,-7.257442455738782883e-03,-2.227223558293189853e-05,-1.774675001797731966e-05,-6.229295479442953365e-08,0.000000000000000000e+00,2.557373140007257462e-03,1.000000000000000000e+00
7.946169376373291016e-01,1.516614532470703125e+02,-2.355201339721679688e+01,-2.355201339721679688e+01,-1.733980029821395874e-01,1.796987762451171875e+02,-4.577636718750000000e-04,-1.440883412584526013e-09,1.164335072800781745e-09,6.350412604660959914e-06,5.733519770068085109e-10,-1.204875843541231006e-08,8.529433980584144592e-04,-2.094250521622598171e-05,-1.693520425760652870e-05,-6.015212505872113979e-08,0.000000000000000000e+00,2.557373140007257462e-03,1.000000000000000000e+00
7.946169376373291016e-01,1.516614532470703125e+02,-2.355201339721679688e+01,-2.355201339721679688e+01,-1.733980029821395874e-01,1.796987762451171875e+02,-4.577636718750000000e-04,-1.440883412584526013e-09,1.164335072800781745e-09,6.350412604660959914e-06,5.733519770068085109e-10,-1.204875843541231006e-08,8.529433980584144592e-04,-2.094250521622598171e-05,-1.693520425760652870e-05,-6.015212505872113979e-08,0.000000000000000000e+00,2.557373140007257462e-03,1.000000000000000000e+00
7.946169376373291016e-01,1.516614532470703125e+02,-2.355201339721679688e+01,-2.355201339721679688e+01,-1.733980029821395874e-01,1.796987762451171875e+02,-4.577636718750000000e-04,-1.440883412584526013e-09,1.164335072800781745e-09,6.350412604660959914e-06,5.733519770068085109e-10,-1.204875843541231006e-08,8.529433980584144592e-04,-2.094250521622598171e-05,-1.693520425760652870e-05,-6.015212505872113979e-08,0.000000000000000000e+00,2.557373140007257462e-03,1.000000000000000000e+00
7.946169376373291016e-01,1.516614532470703125e+02,-2.355201339721679688e+01,-2.355201339721679688e+01,-1.733980029821395874e-01,1.796987762451171875e+02,-4.577636718750000000e-04,-1.440883412584526013e-09,1.164335072800781745e-09,6.350412604660959914e-06,5.733519770068085109e-10,-1.204875843541231006e-08,8.529433980584144592e-04,-2.094250521622598171e-05,-1.693520425760652870e-05,-6.015212505872113979e-08,0.000000000000000000e+00,2.557373140007257462e-03,1.000000000000000000e+00
8.783230781555175781e-01,1.516614532470703125e+02,-2.355201339721679688e+01,-2.355201339721679688e+01,-1.733980029821395874e-01,1.796987762451171875e+02,-4.577636718750000000e-04,-2.680736077564915831e-09,8.419350772115308246e-10,4.294633254176005721e-05,-1.481196854058453027e-08,-3.851569285728828618e-09,4.371951799839735031e-04,2.670565663720481098e-06,-2.771327126538380980e-05,9.263118272428982891e-09,0.000000000000000000e+00,2.557373140007257462e-03,1.000000000000000000e+00
8.783230781555175781e-01,1.516614532470703125e+02,-2.355201339721679688e+01,-2.355201339721679688e+01,-1.733980029821395874e-01,1.796987762451171875e+02,-4.577636718750000000e-04,-2.680736077564915831e-09,8.419350772115308246e-10,4.294633254176005721e-05,-1.481196854058453027e-08,-3.851569285728828618e-09,4.371951799839735031e-04,2.670565663720481098e-06,-2.771327126538380980e-05,9.263118272428982891e-09,0.000000000000000000e+00,2.557373140007257462e-03,1.000000000000000000e+00
9.483780860900878906e-01,1.516614532470703125e+02,-2.355201339721679688e+01,-2.355201339721679688e+01,-1.733980029821395874e-01,1.796987762451171875e+02,-4.577636718750000000e-04,3.425648431587546838e-09,2.137853005734768885e-09,1.620037946850061417e-03,8.716556720855805906e-08,1.849857689251166448e-08,2.251219004392623901e-02,6.073118584026815370e-06,4.444415753823705018e-05,1.499664925574961671e-08,0.000000000000000000e+00,2.557373140007257462e-03,1.000000000000000000e+00
9.483780860900878906e-01,1.516614532470703125e+02,-2.355201339721679688e+01,-2.355201339721679688e+01,-1.733980029821395874e-01,1.796987762451171875e+02,-4.577636718750000000e-04,3.425648431587546838e-09,2.137853005734768885e-09,1.620037946850061417e-03,8.716556720855805906e-08,1.849857689251166448e-08,2.251219004392623901e-02,6.073118584026815370e-06,4.444415753823705018e-05,1.499664925574961671e-08,0.000000000000000000e+00,2.557373140007257462e-03,1.000000000000000000e+00
9.483780860900878906e-01,1.516614532470703125e+02,-2.355201339721679688e+01,-2.355201339721679688e+01,-1.733980029821395874e-01,1.796987762451171875e+02,-4.577636718750000000e-04,3.425648431587546838e-09,2.137853005734768885e-09,1.620037946850061417e-03,8.716556720855805906e-08,1.849857689251166448e-08,2.251219004392623901e-02,6.073118584026815370e-06,4.444415753823705018e-05,1.499664925574961671e-08,0.000000000000000000e+00,2.557373140007257462e-03,1.000000000000000000e+00
9.483780860900878906e-01,1.516614532470703125e+02,-2.355201339721679688e+01,-2.355201339721679688e+01,-1.733980029821395874e-01,1.796987762451171875e+02,-4.577636718750000000e-04,3.425648431587546838e-09,2.137853005734768885e-09,1.620037946850061417e-03,8.716556720855805906e-08,1.849857689251166448e-08,2.251219004392623901e-02,6.073118584026815370e-06,4.444415753823705018e-05,1.499664925574961671e-08,0.000000000000000000e+00,2.557373140007257462e-03,1.000000000000000000e+00
9.483780860900878906e-01,1.516614532470703125e+02,-2.355201339721679688e+01,-2.355201339721679688e+01,-1.733980029821395874e-01,1.796987762451171875e+02,-4.577636718750000000e-04,-5.696145777278616151e-10,-8.644073012931130506e-09,3.722146211657673120e-04,-5.070194220024859533e-08,-1.368281914437829982e-07,-1.583551988005638123e-02,6.568040134879993275e-06,1.612414416740648448e-05,1.396891313731885020e-08,0.000000000000000000e+00,2.557373140007257462e-03,1.000000000000000000e+00
1.027177095413208008e+00,1.516614532470703125e+02,-2.355201339721679688e+01,-2.355201339721679688e+01,-1.733980029821395874e-01,1.796987762451171875e+02,-4.577636718750000000e-04,-5.696145777278616151e-10,-8.644073012931130506e-09,3.722146211657673120e-04,-5.070194220024859533e-08,-1.368281914437829982e-07,-1.583551988005638123e-02,6.568040134879993275e-06,1.612414416740648448e-05,1.396891313731885020e-08,0.000000000000000000e+00,2.557373140007257462e-03,1.000000000000000000e+00
1.027177095413208008e+00,1.516614532470703125e+02,-2.355201339721679688e+01,-2.355201339721679688e+01,-1.733980029821395874e-01,1.796987762451171875e+02,-4.577636718750000000e-04,-5.696145777278616151e-10,-8.644073012931130506e-09,3.722146211657673120e-04,-5.070194220024859533e-08,-1.368281914437829982e-07,-1.583551988005638123e-02,6.568040134879993275e-06,1.612414416740648448e-05,1.396891313731885020e-08,0.000000000000000000e+00,2.557373140007257462e-03,1.000000000000000000e+00
1.095043420791625977e+00,1.516614532470703125e+02,-2.355201339721679688e+01,-2.355201339721679688e+01,-1.733980029821395874e-01,1.796987762451171875e+02,-4.577636718750000000e-04,-8.775467019717098083e-10,4.242013129651667214e-10,-3.677932836581021547e-04,-4.537333175846924860e-09,1.336196362444752594e-07,-1.090390421450138092e-02,1.930372491187881678e-06,-3.417019252083264291e-05,8.666190431938503025e-09,0.000000000000000000e+00,2.557373140007257462e-03,1.000000000000000000e+00
1.095043420791625977e+00,1.516614532470703125e+02,-2.355201339721679688e+01,-2.355201339721679688e+01,-1.733980029821395874e-01,1.796987762451171875e+02,-4.577636718750000000e-04,-8.775467019717098083e-10,4.242013129651667214e-10,-3.677932836581021547e-04,-4.537333175846924860e-09,1.336196362444752594e-07,-1.090390421450138092e-02,1.930372491187881678e-06,-3.417019252083264291e-05,8.666190431938503025e-09,0.000000000000000000e+00,2.557373140007257462e-03,1.000000000000000000e+00
1.095043420791625977e+00,1.516614532470703125e+02,-2.355201339721679688e+01,-2.355201339721679688e+01,-1.733980029821395874e-01,1.796987762451171875e+02,-4.577636718750000000e-04,-8.775467019717098083e-10,4.242013129651667214e-10,-3.677932836581021547e-04,-4.537333175846924860e-09,1.336196362444752594e-07,-1.090390421450138092e-02,1.930372491187881678e-06,-3.417019252083264291e-05,8.666190431938503025e-09,0.000000000000000000e+00,2.557373140007257462e-03,1.000000000000000000e+00
1.095043420791625977e+00,1.516614532470703125e+02,-2.355201339721679688e+01,-2.355201339721679688e+01,-1.733980029821395874e-01,1.796987762451171875e+02,-4.577636718750000000e-04,-8.775467019717098083e-10,4.242013129651667214e-10,-3.677932836581021547e-04,-4.537333175846924860e-09,1.336196362444752594e-07,-1.090390421450138092e-02,1.930372491187881678e-06,-3.417019252083264291e-05,8.666190431938503025e-09,0.000000000000000000e+00,2.557373140007257462e-03,1.000000000000000000e+00
1.168572425842285156e+00,1.516614532470703125e+02,-2.355201339721679688e+01,-2.355201339721679688e+01,-1.733980029821395874e-01,1.796987762451171875e+02,-4.577636718750000000e-04,-1.906300006737637887e-09,2.728283376995932485e-09,1.124038710258901119e-03,-1.399112203870345184e-08,3.133568782232032390e-08,2.028902620077133179e-02,4.833691946259932593e-06,-9.065377071237890050e-07,1.334309551737078436e-08,0.000000000000000000e+00,2.557373140007257462e-03,1.000000000000000000e+00
1.168572425842285156e+00,1.516614532470703125e+02,-2.355201339721679688e+01,-2.355201339721679688e+01,-1.733980029821395874e-01,1.796987762451171875e+02,-4.577636718750000000e-04,-1.906300006737637887e-09,2.728283376995932485e-09,1.124038710258901119e-03,-1.399112203870345184e-08,3.133568782232032390e-08,2.028902620077133179e-02,4.833691946259932593e-06,-9.065377071237890050e-07,1.334309551737078436e-08,0.000000000000000000e+00,2.557373140007257462e-03,1.000000000000000000e+00
1.168572425842285156e+00,1.516614532470703125e+02,-2.355201339721679688e+01,-2.355201339721679688e+01,-1.733980029821395874e-01,1.796987762451171875e+02,-4.577636718750000000e-04,-1.906300006737637887e-09,2.728283376995932485e-09,1.124038710258901119e-03,-1.399112203870345184e-08,3.133568782232032390e-08,2.028902620077133179e-02,4.833691946259932593e-06,-9.065377071237890050e-07,1.334309551737078436e-08,0.000000000000000000e+00,2.557373140007257462e-03,1.000000000000000000e+00
1.168572425842285156e+00,1.516614532470703125e+02,-2.355201339721679688e+01,-2.355201339721679688e+01,-1.733980029821395874e-01,1.796987762451171875e+02,-4.577636718750000000e-04,-1.906300006737637887e-09,2.728283376995932485e-09,1.124038710258901119e-03,-1.399112203870345184e-08,3.133568782232032390e-08,2.028902620077133179e-02,4.833691946259932593e-06,-9.065377071237890050e-07,1.334309551737078436e-08,0.000000000000000000e+00,2.557373140007257462e-03,1.000000000000000000e+00
1.168572425842285156e+00,1.516614532470703125e+02,-2.355201339721679688e+01,-2.355201339721679688e+01,-1.733980029821395874e-01,1.796987762451171875e+02,-4.577636718750000000e-04,-2.861844095036758517e-09,1.638920776869667861e-09,-6.591494893655180931e-04,-1.273236360788132515e-08,-1.451545816877342077e-08,-2.376049384474754333e-02,5.573255748458905146e-06,-2.971118010464124382e-05,1.706267660495086602e-08,0.000000000000000000e+00,2.557373140007257462e-03,1.000000000000000000e+00
1.243620872497558594e+00,1.516614532470703125e+02,-2.355201339721679688e+01,-2.355201339721679688e+01,-1.733980029821395874e-01,1.796987762451171875e+02,-4.577636718750000000e-04,-2.861844095036758517e-09,1.638920776869667861e-09,-6.591494893655180931e-04,-1.273236360788132515e-08,-1.451545816877342077e-08,-2.376049384474754333e-02,5.573255748458905146e-06,-2.971118010464124382e-05,1.706267660495086602e-08,0.000000000000000000e+00,2.557373140007257462e-03,1.000000000000000000e+00
1.243620872497558594e+00,1.516614532470703125e+02,-2.355201339721679688e+01,-2.355201339721679688e+01,-1.733980029821395874e-01,1.796987762451171875e+02,-4.577636718750000000e-04,-2.861844095036758517e-09,1.638920776869667861e-09,-6.591494893655180931e-04,-1.273236360788132515e-08,-1.451545816877342077e-08,-2.376049384474754333e-02,5.573255748458905146e-06,-2.971118010464124382e-05,1.706267660495086602e-08,0.000000000000000000e+00,2.557373140007257462e-03,1.000000000000000000e+00
1.243620872497558594e+00,1.516614532470703125e+02,-2.355201339721679688e+01,-2.355201339721679688e+01,-1.733980029821395874e-01,1.796987762451171875e+02,-4.577636718750000000e-04,-2.861844095036758517e-09,1.638920776869667861e-09,-6.591494893655180931e-04,-1.273236360788132515e-08,-1.451545816877342077e-08,-2.376049384474754333e-02,5.573255748458905146e-06,-2.971118010464124382e-05,1.706267660495086602e-08,0.000000000000000000e+00,2.557373140007257462e-03,1.000000000000000000e+00
1.312042951583862305e+00,1.516614532470703125e+02,-2.355201339721679688e+01,-2.355201339721679688e+01,-1.733980029821395874e-01,1.796987762451171875e+02,-4.577636718750000000e-04,-2.761698203457285672e-09,2.773299367930803783e-09,-7.276491378434002399e-04,1.463648757749069773e-09,1.657913095698404504e-08,-1.001133699901401997e-03,7.517824542446760461e-06,-2.885487265302799642e-05,2.310694036111726746e-08,0.000000000000000000e+00,2.557373140007257462e-03,1.000000000000000000e+00
1.312042951583862305e+00,1.516614532470703125e+02,-2.355201339721679688e+01,-2.355201339721679688e+01,-1.733980029821395874e-01,1.796987762451171875e+02,-4.577636718750000000e-04,-2.761698203457285672e-09,2.773299367930803783e-09,-7.276491378434002399e-04,1.463648757749069773e-09,1.657913095698404504e-08,-1.001133699901401997e-03,7.517824542446760461e-06,-2.885487265302799642e-05,2.310694036111726746e-08,0.000000000000000000e+00,2.557373140007257462e-03,1.000000000000000000e+00
1.312042951583862305e+00,1.516614532470703125e+02,-2.355201339721679688e+01,-2.355201339721679688e+01,-1.733980029821395874e-01,1.796987762451171875e+02,-4.577636718750000000e-04,-2.780023988790958356e-09,2.830369050244030404e-09,4.316978738643229008e-04,-2.577958957417081365e-10,8.028213094313230158e-10,1.630898192524909973e-02,7.959441973071079701e-06,-2.849053817044477910e-05,2.369720775163841608e-08,0.000000000000000000e+00,2.557373140007257462e-03,1.000000000000000000e+00
1.383129358291625977e+00,1.516614532470703125e+02,-2.355201339721679688e+01,-2.355201339721679688e+01,-1.733980029821395874e-01,1.796987762451171875e+02,-4.577636718750000000e-04,-2.780023988790958356e-09,2.830369050244030404e-09,4.316978738643229008e-04,-2.577958957417081365e-10,8.028213094313230158e-10,1.630898192524909973e-02,7.959441973071079701e-06,-2.849053817044477910e-05,2.369720775163841608e-08,0.000000000000000000e+00,2.557373140007257462e-03,1.000000000000000000e+00
1.383129358291625977e+00,1.516614532470703125e+02,-2.355201339721679688e+01,-2.355201339721679688e+01,-1.733980029821395874e-01,1.796987762451171875e+02,-4.577636718750000000e-04,-2.780023988790958356e-09,2.830369050244030404e-09,4.316978738643229008e-04,-2.577958957417081365e-10,8.028213094313230158e-10,1.630898192524909973e-02,7.959441973071079701e-06,-2.849053817044477910e-05,2.369720775163841608e-08,0.000000000000000000e+00,2.557373140007257462e-03,1.000000000000000000e+00
1.450951814651489258e+00,1.516614532470703125e+02,-2.355201339721679688e+01,-2.355201339721679688e+01,-1.733980029821395874e-01,1.796987762451171875e+02,-4.577636718750000000e-04,3.882483501360667333e-10,4.607598302897031317e-09,-3.800138074439018965e-04,4.671420938962000946e-08,2.620414107923352276e-08,-1.196818426251411438e-02,9.170131306746043265e-06,1.005701415124349296e-05,2.680959454437470413e-08,0.000000000000000000e+00,2.557373140007257462e-03,1.000000000000000000e+00
1.450951814651489258e+00,1.516614532470703125e+02,-2.355201339721679688e+01,-2.355201339721679688e+01,-1.733980029821395874e-01,1.796987762451171875e+02,-4.577636718750000000e-04,3.882483501360667333e-10,4.607598302897031317e-09,-3.800138074439018965e-04,4.671420938962000946e-08,2.620414107923352276e-08,-1.196818426251411438e-02,9.170131306746043265e-06,1.005701415124349296e-05,2.680959454437470413e-08,0.000000000000000000e+00,2.557373140007257462e-03,1.000000000000000000e+00
1.450951814651489258e+00,1.516614532470703125e+02,-2.355201339721679688e+01,-2.355201339721679688e+01,-1.733980029821395874e-01,1.796987762451171875e+02,-4.577636718750000000e-04,3.882483501360667333e-10,4.607598302897031317e-09,-3.800138074439018965e-04,4.671420938962000946e-08,2.620414107923352276e-08,-1.196818426251411438e-02,9.170131306746043265e-06,1.005701415124349296e-05,2.680959454437470413e-08,0.000000000000000000e+00,2.557373140007257462e-03,1.000000000000000000e+00
1.527701377868652344e+00,1.516614532470703125e+02,-2.355201339721679688e+01,-2.355201339721679688e+01,-1.733980029821395874e-01,1.796987762451171875e+02,-4.577636718750000000e-04,-1.487933554145115522e-09,3.165236517332914445e-09,-6.055010453565046191e-05,-2.444550517566312919e-08,-1.879309508012738661e-08,4.162417259067296982e-03,-2.044025859504472464e-05,-1.613617314433213323e-05,-5.508495704020788253e-08,0.000000000000000000e+00,2.557373140007257462e-03,1.000000000000000000e+00
1.527701377868652344e+00,1.516614532470703125e+02,-2.355201339721679688e+01,-2.355201339721679688e+01,-1.733980029821395874e-01,1.796987762451171875e+02,-4.577636718750000000e-04,-1.487933554145115522e-09,3.165236517332914445e-09,-6.055010453565046191e-05,-2.444550517566312919e-08,-1.879309508012738661e-08,4.162417259067296982e-03,-2.044025859504472464e-05,-1.613617314433213323e-05,-5.508495704020788253e-08,0.000000000000000000e+00,2.557373140007257462e-03,1.000000000000000000e+00
1.527701377868652344e+00,1.516614532470703125e+02,-2.355201339721679688e+01,-2.355201339721679688e+01,-1.733980029821395874e-01,1.796987762451171875e+02,-4.577636718750000000e-04,-1.487933554145115522e-09,3.165236517332914445e-09,-6.055010453565046191e-05,-2.444550517566312919e-08,-1.879309508012738661e-08,4.162417259067296982e-03,-2.044025859504472464e-05,-1.613617314433213323e-05,-5.508495704020788253e-08,0.000000000000000000e+00,2.557373140007257462e-03,1.000000000000000000e+00
1.600134611129760742e+00,1.516614532470703125e+02,-2.355201339721679688e+01,-2.355201339721679688e+01,-1.733980029821395874e-01,1.796987762451171875e+02,-4.577636718750000000e-04,-1.878279892730816414e-10,-1.926306403277067147e-08,-1.238451572135090828e-03,1.794902004803589080e-08,-3.096410239322722191e-07,-1.626189425587654114e-02,6.364246655721217394e-05,-1.036991761793615296e-05,1.757512961830798304e-07,0.000000000000000000e+00,2.557373140007257462e-03,1.000000000000000000e+00
1.600134611129760742e+00,1.516614532470703125e+02,-2.355201339721679688e+01,-2.355201339721679688e+01,-1.733980029821395874e-01,1.796987762451171875e+02,-4.577636718750000000e-04,-1.878279892730816414e-10,-1.926306403277067147e-08,-1.238451572135090828e-03,1.794902004803589080e-08,-3.096410239322722191e-07,-1.626189425587654114e-02,6.364246655721217394e-05,-1.036991761793615296e-05,1.757512961830798304e-07,0.000000000000000000e+00,2.557373140007257462e-03,1.000000000000000000e+00
1.600134611129760742e+00,1.516614532470703125e+02,-2.355201339721679688e+01,-2.355201339721679688e+01,-1.733980029821395874e-01,1.796987762451171875e+02,-4.577636718750000000e-04,-1.878279892730816414e-10,-1.926306403277067147e-08,-1.238451572135090828e-03,1.794902004803589080e-08,-3.096410239322722191e-07,-1.626189425587654114e-02,6.364246655721217394e-05,-1.036991761793615296e-05,1.757512961830798304e-07,0.000000000000000000e+00,2.557373140007257462e-03,1.000000000000000000e+00
1.600134611129760742e+00,1.516614532470703125e+02,-2.355201339721679688e+01,-2.355201339721679688e+01,-1.733980029821395874e-01,1.796987762451171875e+02,-4.577636718750000000e-04,-1.878279892730816414e-10,-1.926306403277067147e-08,-1.238451572135090828e-03,1.794902004803589080e-08,-3.096410239322722191e-07,-1.626189425587654114e-02,6.364246655721217394e-05,-1.036991761793615296e-05,1.757512961830798304e-07,0.000000000000000000e+00,2.557373140007257462e-03,1.000000000000000000e+00
1.600134611129760742e+00,1.516614532470703125e+02,-2.355201339721679688e+01,-2.355201339721679688e+01,-1.733980029821395874e-01,1.796987762451171875e+02,-4.577636718750000000e-04,-1.878279892730816414e-10,-1.926306403277067147e-08,-1.238451572135090828e-03,1.794902004803589080e-08,-3.096410239322722191e-07,-1.626189425587654114e-02,6.364246655721217394e-05,-1.036991761793615296e-05,1.757512961830798304e-07,0.000000000000000000e+00,2.557373140007257462e-03,1.000000000000000000e+00
1.600134611129760742e+00,1.516614532470703125e+02,-2.355201339721679688e+01,-2.355201339721679688e+01,-1.733980029821395874e-01,1.796987762451171875e+02,-4.577636718750000000e-04,-6.553257381192167941e-10,4.081289195490001021e-10,1.545586710562929511e-04,-4.051849522568318207e-09,1.704921714917873032e-07,1.207335758954286575e-02,4.271988927939673886e-06,-2.514829793653916568e-05,1.368522628553137110e-08,0.000000000000000000e+00,2.557373140007257462e-03,1.000000000000000000e+00
1.715513467788696289e+00,1.516614532470703125e+02,-2.355201339721679688e+01,-2.355201339721679688e+01,-1.733980029821395874e-01,1.796987762451171875e+02,-4.577636718750000000e-04,-6.553257381192167941e-10,4.081289195490001021e-10,1.545586710562929511e-04,-4.051849522568318207e-09,1.704921714917873032e-07,1.207335758954286575e-02,4.271988927939673886e-06,-2.514829793653916568e-05,1.368522628553137110e-08,0.000000000000000000e+00,2.557373140007257462e-03,1.000000000000000000e+00
1.715513467788696289e+00,1.516614532470703125e+02,-2.355201339721679688e+01,-2.355201339721679688e+01,-1.733980029821395874e-01,1.796987762451171875e+02,-4.577636718750000000e-04,-6.553257381192167941e-10,4.081289195490001021e-10,1.545586710562929511e-04,-4.051849522568318207e-09,1.704921714917873032e-07,1.207335758954286575e-02,4.271988927939673886e-06,-2.514829793653916568e-05,1.368522628553137110e-08,0.000000000000000000e+00,2.557373140007257462e-03,1.000000000000000000e+00
1.715513467788696289e+00,1.516614532470703125e+02,-2.355201339721679688e+01,-2.355201339721679688e+01,-1.733980029821395874e-01,1.796987762451171875e+02,-4.577636718750000000e-04,-6.553257381192167941e-10,4.081289195490001021e-10,1.545586710562929511e-04,-4.051849522568318207e-09,1.704921714917873032e-07,1.207335758954286575e-02,4.271988927939673886e-06,-2.514829793653916568e-05,1.368522628553137110e-08,0.000000000000000000e+00,2.557373140007257462e-03,1.000000000000000000e+00
1.813115119934082031e+00,1.516614532470703125e+02,-2.355201339721679688e+01,-2.355201339721679688e+01,-1.733980029821395874e-01,1.796987762451171875e+02,-4.577636718750000000e-04,-1.639856139767914556e-09,-9.160936009777742584e-09,-9.410434286110103130e-04,-1.008723149453771839e-08,-9.804203671137656784e-08,-1.122524123638868332e-02,5.983611117699183524e-06,-2.032882184721529484e-05,1.530296422913579590e-08,0.000000000000000000e+00,2.557373140007257462e-03,1.000000000000000000e+00
1.813115119934082031e+00,1.516614532470703125e+02,-2.355201339721679688e+01,-2.355201339721679688e+01,-1.733980029821395874e-01,1.796987762451171875e+02,-4.577636718750000000e-04,-1.639856139767914556e-09,-9.160936009777742584e-09,-9.410434286110103130e-04,-1.008723149453771839e-08,-9.804203671137656784e-08,-1.122524123638868332e-02,5.983611117699183524e-06,-2.032882184721529484e-05,1.530296422913579590e-08,0.000000000000000000e+00,2.557373140007257462e-03,1.000000000000000000e+00
1.813115119934082031e+00,1.516614532470703125e+02,-2.355201339721679688e+01,-2.355201339721679688e+01,-1.733980029821395874e-01,1.796987762451171875e+02,-4.577636718750000000e-04,-1.639856139767914556e-09,-9.160936009777742584e-09,-9.410434286110103130e-04,-1.008723149453771839e-08,-9.804203671137656784e-08,-1.122524123638868332e-02,5.983611117699183524e-06,-2.032882184721529484e-05,1.530296422913579590e-08,0.000000000000000000e+00,2.557373140007257462e-03,1.000000000000000000e+00
1.813115119934082031e+00,1.516614532470703125e+02,-2.355201339721679688e+01,-2.355201339721679688e+01,-1.733980029821395874e-01,1.796987762451171875e+02,-4.577636718750000000e-04,-1.639856139767914556e-09,-9.160936009777742584e-09,-9.410434286110103130e-04,-1.008723149453771839e-08,-9.804203671137656784e-08,-1.122524123638868332e-02,5.983611117699183524e-06,-2.032882184721529484e-05,1.530296422913579590e-08,0.000000000000000000e+00,2.557373140007257462e-03,1.000000000000000000e+00
1.896134853363037109e+00,1.516614532470703125e+02,-2.355201339721679688e+01,-2.355201339721679688e+01,-1.733980029821395874e-01,1.796987762451171875e+02,-4.577636718750000000e-04,2.759728001677785869e-09,-5.078132137015245462e-09,2.335931349080055952e-04,5.299444083561866137e-08,4.917871621046288055e-08,1.414888352155685425e-02,-1.169142888102214783e-05,3.041968739125877619e-05,-3.649851976206264226e-08,0.000000000000000000e+00,2.557373140007257462e-03,1.000000000000000000e+00
1.896134853363037109e+00,1.516614532470703125e+02,-2.355201339721679688e+01,-2.355201339721679688e+01,-1.733980029821395874e-01,1.796987762451171875e+02,-4.577636718750000000e-04,2.759728001677785869e-09,-5.078132137015245462e-09,2.335931349080055952e-04,5.299444083561866137e-08,4.917871621046288055e-08,1.414888352155685425e-02,-1.169142888102214783e-05,3.041968739125877619e-05,-3.649851976206264226e-08,0.000000000000000000e+00,2.557373140007257462e-03,1.000000000000000000e+00
1.896134853363037109e+00,1.516614532470703125e+02,-2.355201339721679688e+01,-2.355201339721679688e+01,-1.733980029821395874e-01,1.796987762451171875e+02,-4.577636718750000000e-04,2.759728001677785869e-09,-5.078132137015245462e-09,2.335931349080055952e-04,5.299444083561866137e-08,4.917871621046288055e-08,1.414888352155685425e-02,-1.169142888102214783e-05,3.041968739125877619e-05,-3.649851976206264226e-08,0.000000000000000000e+00,2.557373140007257462e-03,1.000000000000000000e+00
1.896134853363037109e+00,1.516614532470703125e+02,-2.355201339721679688e+01,-2.355201339721679688e+01,-1.733980029821395874e-01,1.796987762451171875e+02,-4.577636718750000000e-04,2.759728001677785869e-09,-5.078132137015245462e-09,2.335931349080055952e-04,5.299444083561866137e-08,4.917871621046288055e-08,1.414888352155685425e-02,-1.169142888102214783e-05,3.041968739125877619e-05,-3.649851976206264226e-08,0.000000000000000000e+00,2.557373140007257462e-03,1.000000000000000000e+00
1.896134853363037109e+00,1.516614532470703125e+02,-2.355201339721679688e+01,-2.355201339721679688e+01,-1.733980029821395874e-01,1.796987762451171875e+02,-4.577636718750000000e-04,2.759728001677785869e-09,-5.078132137015245462e-09,2.335931349080055952e-04,5.299444083561866137e-08,4.917871621046288055e-08,1.414888352155685425e-02,-1.169142888102214783e-05,3.041968739125877619e-05,-3.649851976206264226e-08,0.000000000000000000e+00,2.557373140007257462e-03,1.000000000000000000e+00
1.896134853363037109e+00,1.516614532470703125e+02,-2.355201339721679688e+01,-2.355201339721679688e+01,-1.733980029821395874e-01,1.796987762451171875e+02,-4.577636718750000000e-04,2.759728001677785869e-09,-5.078132137015245462e-09,2.335931349080055952e-04,5.299444083561866137e-08,4.917871621046288055e-08,1.414888352155685425e-02,-1.169142888102214783e-05,3.041968739125877619e-05,-3.649851976206264226e-08,0.000000000000000000e+00,2.557373140007257462e-03,1.000000000000000000e+00
1.896134853363037109e+00,1.516614532470703125e+02,-2.355201339721679688e+01,-2.355201339721679688e+01,-1.733980029821395874e-01,1.796987762451171875e+02,-4.577636718750000000e-04,2.759728001677785869e-09,-5.078132137015245462e-09,2.335931349080055952e-04,5.299444083561866137e-08,4.917871621046288055e-08,1.414888352155685425e-02,-1.169142888102214783e-05,3.041968739125877619e-05,-3.649851976206264226e-08,0.000000000000000000e+00,2.557373140007257462e-03,1.000000000000000000e+00
2.195794820785522461e+00,1.516614532470703125e+02,-2.355201339721679688e+01,-2.355201339721679688e+01,-1.733980029821395874e-01,1.796987762451171875e+02,-4.577636718750000000e-04,2.576951985133746348e-09,-2.389489717202764041e-09,1.345132710412144661e-03,7.161253279264201410e-08,1.593855074588645948e-07,2.191166207194328308e-02,-3.293304644103045575e-06,2.188054168072994798e-05,-1.121142556570475790e-08,0.000000000000000000e+00,2.557373140007257462e-03,1.000000000000000000e+00
2.195794820785522461e+00,1.516614532470703125e+02,-2.355201339721679688e+01,-2.355201339721679688e+01,-1.733980029821395874e-01,1.796987762451171875e+02,-4.577636718750000000e-04,2.576951985133746348e-09,-2.389489717202764041e-09,1.345132710412144661e-03,7.161253279264201410e-08,1.593855074588645948e-07,2.191166207194328308e-02,-3.293304644103045575e-06,2.188054168072994798e-05,-1.121142556570475790e-08,0.000000000000000000e+00,2.557373140007257462e-03,1.000000000000000000e+00
2.195794820785522461e+00,1.516614532470703125e+02,-2.355201339721679688e+01,-2.355201339721679688e+01,-1.733980029821395874e-01,1.796987762451171875e+02,-4.577636718750000000e-04,2.576951985133746348e-09,-2.389489717202764041e-09,1.345132710412144661e-03,7.161253279264201410e-08,1.593855074588645948e-07,2.191166207194328308e-02,-3.293304644103045575e-06,2.188054168072994798e-05,-1.121142556570475790e-08,0.000000000000000000e+00,2.557373140007257462e-03,1.000000000000000000e+00
2.195794820785522461e+00,1.516614532470703125e+02,-2.355201339721679688e+01,-2.355201339721679688e+01,-1.733980029821395874e-01,1.796987762451171875e+02,-4.577636718750000000e-04,2.576951985133746348e-09,-2.389489717202764041e-09,1.345132710412144661e-03,7.161253279264201410e-08,1.593855074588645948e-07,2.191166207194328308e-02,-3.293304644103045575e-06,2.188054168072994798e-05,-1.121142556570475790e-08,0.000000000000000000e+00,2.557373140007257462e-03,1.000000000000000000e+00
2.195794820785522461e+00,1.516614532470703125e+02,-2.355201339721679688e+01,-2.355201339721679688e+01,-1.733980029821395874e-01,1.796987762451171875e+02,-4.577636718750000000e-04,2.576951985133746348e-09,-2.389489717202764041e-09,1.345132710412144661e-03,7.161253279264201410e-08,1.593855074588645948e-07,2.191166207194328308e-02,-3.293304644103045575e-06,2.188054168072994798e-05,-1.121142556570475790e-08,0.000000000000000000e+00,2.557373140007257462e-03,1.000000000000000000e+00
2.195794820785522461e+00,1.516614532470703125e+02,-2.355201339721679688e+01,-2.355201339721679688e+01,-1.733980029821395874e-01,1.796987762451171875e+02,-4.577636718750000000e-04,2.576951985133746348e-09,-2.389489717202764041e-09,1.345132710412144661e-03,7.161253279264201410e-08,1.593855074588645948e-07,2.191166207194328308e-02,-3.293304644103045575e-06,2.188054168072994798e-05,-1.121142556570475790e-08,0.000000000000000000e+00,2.557373140007257462e-03,1.000000000000000000e+00
2.195794820785522461e+00,1.516614532470703125e+02,-2.355201339721679688e+01,-2.355201339721679688e+01,-1.733980029821395874e-01,1.796987762451171875e+02,-4.577636718750000000e-04,2.576951985133746348e-09,-2.389489717202764041e-09,1.345132710412144661e-03,7.161253279264201410e-08,1.593855074588645948e-07,2.191166207194328308e-02,-3.293304644103045575e-06,2.188054168072994798e-05,-1.121142556570475790e-08,0.000000000000000000e+00,2.557373140007257462e-03,1.000000000000000000e+00
2.195794820785522461e+00,1.516614532470703125e+02,-2.355201339721679688e+01,-2.355201339721679688e+01,-1.733980029821395874e-01,1.796987762451171875e+02,-4.577636718750000000e-04,2.576951985133746348e-09,-2.389489717202764041e-09,1.345132710412144661e-03,7.161253279264201410e-08,1.593855074588645948e-07,2.191166207194328308e-02,-3.293304644103045575e-06,2.188054168072994798e-05,-1.121142556570475790e-08,0.000000000000000000e+00,2.557373140007257462e-03,1.000000000000000000e+00
2.195794820785522461e+00,1.516614532470703125e+02,-2.355201339721679688e+01,-2.355201339721679688e+01,-1.733980029821395874e-01,1.796987762451171875e+02,-4.577636718750000000e-04,2.576951985133746348e-09,-2.389489717202764041e-09,1.345132710412144661e-03,7.161253279264201410e-08,1.593855074588645948e-07,2.191166207194328308e-02,-3.293304644103045575e-06,2.188054168072994798e-05,-1.121142556570475790e-08,0.000000000000000000e+00,2.557373140007257462e-03,1.000000000000000000e+00
2.195794820785522461e+00,1.516614532470703125e+02,-2.355201339721679688e+01,-2.355201339721679688e+01,-1.733980029821395874e-01,1.796987762451171875e+02,-4.577636718750000000e-04,2.576951985133746348e-09,-2.389489717202764041e-09,1.345132710412144661e-03,7.161253279264201410e-08,1.593855074588645948e-07,2.191166207194328308e-02,-3.293304644103045575e-06,2.188054168072994798e-05,-1.121142556570475790e-08,0.000000000000000000e+00,2.557373140007257462e-03,1.000000000000000000e+00
2.374083757400512695e+00,1.516614532470703125e+02,-2.355201339721679688e+01,-2.355201339721679688e+01,-1.733980029821395874e-01,1.796987762451171875e+02,-4.577636718750000000e-04,-4.970373002066708068e-10,-3.474013965387712233e-09,1.664808485656976700e-03,-1.724161435845417145e-08,-6.082958581288266942e-09,1.793020754121243954e-03,-2.244847337351529859e-06,-1.497135508543578908e-05,-7.292144665882460686e-09,0.000000000000000000e+00,2.557373140007257462e-03,1.000000000000000000e+00
2.374083757400512695e+00,1.516614532470703125e+02,-2.355201339721679688e+01,-2.355201339721679688e+01,-1.733980029821395874e-01,1.796987762451171875e+02,-4.577636718750000000e-04,-4.970373002066708068e-10,-3.474013965387712233e-09,1.664808485656976700e-03,-1.724161435845417145e-08,-6.082958581288266942e-09,1.793020754121243954e-03,-2.244847337351529859e-06,-1.497135508543578908e-05,-7.292144665882460686e-09,0.000000000000000000e+00,2.557373140007257462e-03,1.000000000000000000e+00
2.374083757400512695e+00,1.516614532470703125e+02,-2.355201339721679688e+01,-2.355201339721679688e+01,-1.733980029821395874e-01,1.796987762451171875e+02,-4.577636718750000000e-04,-4.970373002066708068e-10,-3.474013965387712233e-09,1.664808485656976700e-03,-1.724161435845417145e-08,-6.082958581288266942e-09,1.793020754121243954e-03,-2.244847337351529859e-06,-1.497135508543578908e-05,-7.292144665882460686e-09,0.000000000000000000e+00,2.557373140007257462e-03,1.000000000000000000e+00
2.447860002517700195e+00,1.516614532470703125e+02,-2.355201339721679688e+01,-2.355201339721679688e+01,-1.733980029821395874e-01,1.796987762451171875e+02,-4.577636718750000000e-04,-3.745833851431790151e-11,-3.717363972199905220e-09,-1.371593796648085117e-03,6.229362359277956784e-09,-3.298487261105265134e-09,-4.115691035985946655e-02,-1.782301842467859387e-05,4.134771188546437770e-06,-5.106261014020674338e-08,0.000000000000000000e+00,2.557373140007257462e-03,1.000000000000000000e+00
2.447860002517700195e+00,1.516614532470703125e+02,-2.355201339721679688e+01,-2.355201339721679688e+01,-1.733980029821395874e-01,1.796987762451171875e+02,-4.577636718750000000e-04,-3.745833851431790151e-11,-3.717363972199905220e-09,-1.371593796648085117e-03,6.229362359277956784e-09,-3.298487261105265134e-09,-4.115691035985946655e-02,-1.782301842467859387e-05,4.134771188546437770e-06,-5.106261014020674338e-08,0.000000000000000000e+00,2.557373140007257462e-03,1.000000000000000000e+00
2.500878810882568359e+00,1.516614532470703125e+02,-2.355201339721679688e+01,-2.355201339721679688e+01,-1.733980029821395874e-01,1.796987762451171875e+02,-4.577636718750000000e-04,-2.977771140777463188e-09,8.611538149239095219e-10,2.322616928722709417e-04,-5.545792092220835912e-08,8.635648640620274819e-08,3.025068901479244232e-02,2.730262167460750788e-06,-3.474026379990391433e-05,9.865177119650070381e-09,0.000000000000000000e+00,2.557373140007257462e-03,1.000000000000000000e+00
2.500878810882568359e+00,1.516614532470703125e+02,-2.355201339721679688e+01,-2.355201339721679688e+01,-1.733980029821395874e-01,1.796987762451171875e+02,-4.577636718750000000e-04,-2.977771140777463188e-09,8.611538149239095219e-10,2.322616928722709417e-04,-5.545792092220835912e-08,8.635648640620274819e-08,3.025068901479244232e-02,2.730262167460750788e-06,-3.474026379990391433e-05,9.865177119650070381e-09,0.000000000000000000e+00,2.557373140007257462e-03,1.000000000000000000e+00
2.500878810882568359e+00,1.516614532470703125e+02,-2.355201339721679688e+01,-2.355201339721679688e+01,-1.733980029821395874e-01,1.796987762451171875e+02,-4.577636718750000000e-04,-2.977771140777463188e-09,8.611538149239095219e-10,2.322616928722709417e-04,-5.545792092220835912e-08,8.635648640620274819e-08,3.025068901479244232e-02,2.730262167460750788e-06,-3.474026379990391433e-05,9.865177119650070381e-09,0.000000000000000000e+00,2.557373140007257462e-03,1.000000000000000000e+00
2.560195446014404297e+00,1.516614532470703125e+02,-2.355201339721679688e+01,-2.355201339721679688e+01,-1.733980029821395874e-01,1.796987762451171875e+02,-4.577636718750000000e-04,-2.108707652936914201e-09,-1.216018841176946808e-08,1.421673106960952282e-03,1.465126064914556991e-08,-2.195226045387244085e-07,2.005190216004848480e-02,1.873968017207516823e-06,-3.657519482658244669e-05,3.472933274295542105e-09,0.000000000000000000e+00,2.557373140007257462e-03,1.000000000000000000e+00
2.560195446014404297e+00,1.516614532470703125e+02,-2.355201339721679688e+01,-2.355201339721679688e+01,-1.733980029821395874e-01,1.796987762451171875e+02,-4.577636718750000000e-04,-2.108707652936914201e-09,-1.216018841176946808e-08,1.421673106960952282e-03,1.465126064914556991e-08,-2.195226045387244085e-07,2.005190216004848480e-02,1.873968017207516823e-06,-3.657519482658244669e-05,3.472933274295542105e-09,0.000000000000000000e+00,2.557373140007257462e-03,1.000000000000000000e+00
2.618730545043945312e+00,1.516614532470703125e+02,-2.355201339721679688e+01,-2.355201339721679688e+01,-1.733980029821395874e-01,1.796987762451171875e+02,-4.577636718750000000e-04,3.443556551019355538e-09,4.374364870329827681e-09,-5.427509313449263573e-04,9.485358987149083987e-08,2.824724560923641548e-07,-3.355976194143295288e-02,-1.563923251524101943e-05,1.965451883734203875e-05,-4.249978147186084243e-08,0.000000000000000000e+00,2.557373140007257462e-03,1.000000000000000000e+00
2.618730545043945312e+00,1.516614532470703125e+02,-2.355201339721679688e+01,-2.355201339721679688e+01,-1.733980029821395874e-01,1.796987762451171875e+02,-4.577636718750000000e-04,3.443556551019355538e-09,4.374364870329827681e-09,-5.427509313449263573e-04,9.485358987149083987e-08,2.824724560923641548e-07,-3.355976194143295288e-02,-1.563923251524101943e-05,1.965451883734203875e-05,-4.249978147186084243e-08,0.000000000000000000e+00,2.557373140007257462e-03,1.000000000000000000e+00
2.677334070205688477e+00,1.516614532470703125e+02,-2.355201339721679688e+01,-2.355201339721679688e+01,-1.733980029821395874e-01,1.796987762451171875e+02,-4.577636718750000000e-04,2.471885141019924959e-09,-6.199275315310615042e-09,-7.147696305764839053e-05,-1.658042592111996782e-08,-1.804266815952360048e-07,8.041733875870704651e-03,-1.485140546719776466e-05,2.098045843013096601e-05,-4.432416389477111807e-08,0.000000000000000000e+00,2.557373140007257462e-03,1.000000000000000000e+00
2.677334070205688477e+00,1.516614532470703125e+02,-2.355201339721679688e+01,-2.355201339721679688e+01,-1.733980029821395874e-01,1.796987762451171875e+02,-4.577636718750000000e-04,2.471885141019924959e-09,-6.199275315310615042e-09,-7.147696305764839053e-05,-1.658042592111996782e-08,-1.804266815952360048e-07,8.041733875870704651e-03,-1.485140546719776466e-05,2.098045843013096601e-05,-4.432416389477111807e-08,0.000000000000000000e+00,2.557373140007257462e-03,1.000000000000000000e+00
2.677334070205688477e+00,1.516614532470703125e+02,-2.355201339721679688e+01,-2.355201339721679688e+01,-1.733980029821395874e-01,1.796987762451171875e+02,-4.577636718750000000e-04,2.471885141019924959e-09,-6.199275315310615042e-09,-7.147696305764839053e-05,-1.658042592111996782e-08,-1.804266815952360048e-07,8.041733875870704651e-03,-1.485140546719776466e-05,2.098045843013096601e-05,-4.432416389477111807e-08,0.000000000000000000e+00,2.557373140007257462e-03,1.000000000000000000e+00
2.677334070205688477e+00,1.516614532470703125e+02,-2.355201339721679688e+01,-2.355201339721679688e+01,-1.733980029821395874e-01,1.796987762451171875e+02,-4.577636718750000000e-04,2.471885141019924959e-09,-6.199275315310615042e-09,-7.147696305764839053e-05,-1.658042592111996782e-08,-1.804266815952360048e-07,8.041733875870704651e-03,-1.485140546719776466e-05,2.098045843013096601e-05,-4.432416389477111807e-08,0.000000000000000000e+00,2.557373140007257462e-03,1.000000000000000000e+00
2.755024909973144531e+00,1.516614532470703125e+02,-2.355201339721679688e+01,-2.355201339721679688e+01,-1.733980029821395874e-01,1.796987762451171875e+02,-4.577636718750000000e-04,-3.785346258666777430e-09,-7.734146656446228008e-09,-1.637218883843161166e-05,-8.054013989067243529e-08,-1.975614338789455360e-08,7.092827581800520420e-04,8.215408342948649079e-06,-2.944405787275172770e-05,2.152586020542912593e-08,0.000000000000000000e+00,2.557373140007257462e-03,1.000000000000000000e+00
2.755024909973144531e+00,1.516614532470703125e+02,-2.355201339721679688e+01,-2.355201339721679688e+01,-1.733980029821395874e-01,1.796987762451171875e+02,-4.577636718750000000e-04,-3.785346258666777430e-09,-7.734146656446228008e-09,-1.637218883843161166e-05,-8.054013989067243529e-08,-1.975614338789455360e-08,7.092827581800520420e-04,8.215408342948649079e-06,-2.944405787275172770e-05,2.152586020542912593e-08,0.000000000000000000e+00,2.557373140007257462e-03,1.000000000000000000e+00
2.755024909973144531e+00,1.516614532470703125e+02,-2.355201339721679688e+01,-2.355201339721679688e+01,-1.733980029821395874e-01,1.796987762451171875e+02,-4.577636718750000000e-04,-3.785346258666777430e-09,-7.734146656446228008e-09,-1.637218883843161166e-05,-8.054013989067243529e-08,-1.975614338789455360e-08,7.092827581800520420e-04,8.215408342948649079e-06,-2.944405787275172770e-05,2.152586020542912593e-08,0.000000000000000000e+00,2.557373140007257462e-03,1.000000000000000000e+00
2.830169916152954102e+00,1.516614532470703125e+02,-2.355201339721679688e+01,-2.355201339721679688e+01,-1.733980029821395874e-01,1.796987762451171875e+02,-4.577636718750000000e-04,-2.388091502325551119e-09,-1.774849267555111965e-09,-5.318386829458177090e-04,1.859411291604828875e-08,7.930397316613380099e-08,-6.859623827040195465e-03,-5.414319730334682390e-06,-1.240681376657448709e-05,-1.563741136578755686e-08,0.000000000000000000e+00,2.557373140007257462e-03,1.000000000000000000e+00
2.830169916152954102e+00,1.516614532470703125e+02,-2.355201339721679688e+01,-2.355201339721679688e+01,-1.733980029821395874e-01,1.796987762451171875e+02,-4.577636718750000000e-04,-2.388091502325551119e-09,-1.774849267555111965e-09,-5.318386829458177090e-04,1.859411291604828875e-08,7.930397316613380099e-08,-6.859623827040195465e-03,-5.414319730334682390e-06,-1.240681376657448709e-05,-1.563741136578755686e-08,0.000000000000000000e+00,2.557373140007257462e-03,1.000000000000000000e+00
2.830169916152954102e+00,1.516614532470703125e+02,-2.355201339721679688e+01,-2.355201339721679688e+01,-1.733980029821395874e-01,1.796987762451171875e+02,-4.577636718750000000e-04,-2.388091502325551119e-09,-1.774849267555111965e-09,-5.318386829458177090e-04,1.859411291604828875e-08,7.930397316613380099e-08,-6.859623827040195465e-03,-5.414319730334682390e-06,-1.240681376657448709e-05,-1.563741136578755686e-08,0.000000000000000000e+00,2.557373140007257462e-03,1.000000000000000000e+00
2.830169916152954102e+00,1.516614532470703125e+02,-2.355201339721679688e+01,-2.355201339721679688e+01,-1.733980029821395874e-01,1.796987762451171875e+02,-4.577636718750000000e-04,-2.388091502325551119e-09,-1.774849267555111965e-09,-5.318386829458177090e-04,1.859411291604828875e-08,7.930397316613380099e-08,-6.859623827040195465e-03,-5.414319730334682390e-06,-1.240681376657448709e-05,-1.563741136578755686e-08,0.000000000000000000e+00,2.557373140007257462e-03,1.000000000000000000e+00
2.830169916152954102e+00,1.516614532470703125e+02,-2.355201339721679688e+01,-2.355201339721679688e+01,-1.733980029821395874e-01,1.796987762451171875e+02,-4.577636718750000000e-04,-2.388091502325551119e-09,-1.774849267555111965e-09,-5.318386829458177090e-04,1.859411291604828875e-08,7.930397316613380099e-08,-6.859623827040195465e-03,-5.414319730334682390e-06,-1.240681376657448709e-05,-1.563741136578755686e-08,0.000000000000000000e+00,2.557373140007257462e-03,1.000000000000000000e+00
