# Time,X,Y,Z,Roll,Pitch,Yaw,Vx,Vy,Vz,Ax,Ay,Az,Wx,Wy,Wz,Throttle,Steer,Brake
0.000000000000000000e+00,2.584277725219726562e+01,-2.303104019165039062e+01,-2.303104019165039062e+01,1.983486860990524292e-02,1.799847717285156250e+02,3.202479774699895643e-06,2.724944922483096832e-11,-6.964809284859541094e-10,6.499325390905141830e-04,-2.097166174053199938e-08,-1.976058285890758270e-07,7.764543406665325165e-03,-2.132748932126560248e-06,3.112586739462130936e-07,1.298365755186825510e-11,0.000000000000000000e+00,-6.160142831504344940e-03,1.000000000000000000e+00
1.045818328857421875e-01,2.584277725219726562e+01,-2.303104019165039062e+01,-2.303104019165039062e+01,1.983486860990524292e-02,1.799847717285156250e+02,3.202479774699895643e-06,2.724944922483096832e-11,-6.964809284859541094e-10,6.499325390905141830e-04,-2.097166174053199938e-08,-1.976058285890758270e-07,7.764543406665325165e-03,-2.132748932126560248e-06,3.112586739462130936e-07,1.298365755186825510e-11,0.000000000000000000e+00,-6.160142831504344940e-03,1.000000000000000000e+00
1.045818328857421875e-01,2.584277725219726562e+01,-2.303104019165039062e+01,-2.303104019165039062e+01,1.983486860990524292e-02,1.799847717285156250e+02,3.202479774699895643e-06,2.724944922483096832e-11,-6.964809284859541094e-10,6.499325390905141830e-04,-2.097166174053199938e-08,-1.976058285890758270e-07,7.764543406665325165e-03,-2.132748932126560248e-06,3.112586739462130936e-07,1.298365755186825510e-11,0.000000000000000000e+00,-6.160142831504344940e-03,1.000000000000000000e+00
1.045818328857421875e-01,2.584277725219726562e+01,-2.303104019165039062e+01,-2.303104019165039062e+01,1.983486860990524292e-02,1.799847717285156250e+02,3.202479774699895643e-06,2.724944922483096832e-11,-6.964809284859541094e-10,6.499325390905141830e-04,-2.097166174053199938e-08,-1.976058285890758270e-07,7.764543406665325165e-03,-2.132748932126560248e-06,3.112586739462130936e-07,1.298365755186825510e-11,0.000000000000000000e+00,-6.160142831504344940e-03,1.000000000000000000e+00
1.045818328857421875e-01,2.584277725219726562e+01,-2.303104019165039062e+01,-2.303104019165039062e+01,1.983486860990524292e-02,1.799847717285156250e+02,3.202479774699895643e-06,2.724944922483096832e-11,-6.964809284859541094e-10,6.499325390905141830e-04,-2.097166174053199938e-08,-1.976058285890758270e-07,7.764543406665325165e-03,-2.132748932126560248e-06,3.112586739462130936e-07,1.298365755186825510e-11,0.000000000000000000e+00,-6.160142831504344940e-03,1.000000000000000000e+00
1.045818328857421875e-01,2.584277725219726562e+01,-2.303104019165039062e+01,-2.303104019165039062e+01,1.983486860990524292e-02,1.799847717285156250e+02,3.202479774699895643e-06,2.724944922483096832e-11,-6.964809284859541094e-10,6.499325390905141830e-04,-2.097166174053199938e-08,-1.976058285890758270e-07,7.764543406665325165e-03,-2.132748932126560248e-06,3.112586739462130936e-07,1.298365755186825510e-11,0.000000000000000000e+00,-6.160142831504344940e-03,1.000000000000000000e+00
1.045818328857421875e-01,2.584277725219726562e+01,-2.303104019165039062e+01,-2.303104019165039062e+01,1.983486860990524292e-02,1.799847717285156250e+02,3.202479774699895643e-06,-1.063020296787620111e-10,-1.528350668245082034e-09,-6.232939194887876511e-04,-1.275454741822557025e-09,-7.944593427566815080e-09,-1.215967629104852676e-02,-2.572600124040036462e-06,-8.443149113190884236e-07,-3.117001448615930315e-11,0.000000000000000000e+00,-6.160142831504344940e-03,1.000000000000000000e+00
2.092907428741455078e-01,2.584277725219726562e+01,-2.303104019165039062e+01,-2.303104019165039062e+01,1.983486860990524292e-02,1.799847717285156250e+02,3.202479774699895643e-06,-1.063020296787620111e-10,-1.528350668245082034e-09,-6.232939194887876511e-04,-1.275454741822557025e-09,-7.944593427566815080e-09,-1.215967629104852676e-02,-2.572600124040036462e-06,-8.443149113190884236e-07,-3.117001448615930315e-11,0.000000000000000000e+00,-6.160142831504344940e-03,1.000000000000000000e+00
2.092907428741455078e-01,2.584277725219726562e+01,-2.303104019165039062e+01,-2.303104019165039062e+01,1.983486860990524292e-02,1.799847717285156250e+02,3.202479774699895643e-06,-1.063020296787620111e-10,-1.528350668245082034e-09,-6.232939194887876511e-04,-1.275454741822557025e-09,-7.944593427566815080e-09,-1.215967629104852676e-02,-2.572600124040036462e-06,-8.443149113190884236e-07,-3.117001448615930315e-11,0.000000000000000000e+00,-6.160142831504344940e-03,1.000000000000000000e+00
2.092907428741455078e-01,2.584277725219726562e+01,-2.303104019165039062e+01,-2.303104019165039062e+01,1.983486860990524292e-02,1.799847717285156250e+02,3.202479774699895643e-06,-1.063020296787620111e-10,-1.528350668245082034e-09,-6.232939194887876511e-04,-1.275454741822557025e-09,-7.944593427566815080e-09,-1.215967629104852676e-02,-2.572600124040036462e-06,-8.443149113190884236e-07,-3.117001448615930315e-11,0.000000000000000000e+00,-6.160142831504344940e-03,1.000000000000000000e+00
2.092907428741455078e-01,2.584277725219726562e+01,-2.303104019165039062e+01,-2.303104019165039062e+01,1.983486860990524292e-02,1.799847717285156250e+02,3.202479774699895643e-06,-1.063020296787620111e-10,-1.528350668245082034e-09,-6.232939194887876511e-04,-1.275454741822557025e-09,-7.944593427566815080e-09,-1.215967629104852676e-02,-2.572600124040036462e-06,-8.443149113190884236e-07,-3.117001448615930315e-11,0.000000000000000000e+00,-6.160142831504344940e-03,1.000000000000000000e+00
2.092907428741455078e-01,2.584277725219726562e+01,-2.303104019165039062e+01,-2.303104019165039062e+01,1.983486860990524292e-02,1.799847717285156250e+02,3.202479774699895643e-06,-1.406964683647871084e-10,-6.858557055622327425e-10,3.776874218601733446e-04,-4.609366777152956729e-10,1.129068660787879708e-08,1.341463904827833176e-02,-6.863786552457895596e-07,-1.267511265723442193e-06,-7.375734745185269503e-11,0.000000000000000000e+00,-6.160142831504344940e-03,1.000000000000000000e+00
2.839093208312988281e-01,2.584277725219726562e+01,-2.303104019165039062e+01,-2.303104019165039062e+01,1.983486860990524292e-02,1.799847717285156250e+02,3.202479774699895643e-06,-1.406964683647871084e-10,-6.858557055622327425e-10,3.776874218601733446e-04,-4.609366777152956729e-10,1.129068660787879708e-08,1.341463904827833176e-02,-6.863786552457895596e-07,-1.267511265723442193e-06,-7.375734745185269503e-11,0.000000000000000000e+00,-6.160142831504344940e-03,1.000000000000000000e+00
2.839093208312988281e-01,2.584277725219726562e+01,-2.303104019165039062e+01,-2.303104019165039062e+01,1.983486860990524292e-02,1.799847717285156250e+02,3.202479774699895643e-06,-1.406964683647871084e-10,-6.858557055622327425e-10,3.776874218601733446e-04,-4.609366777152956729e-10,1.129068660787879708e-08,1.341463904827833176e-02,-6.863786552457895596e-07,-1.267511265723442193e-06,-7.375734745185269503e-11,0.000000000000000000e+00,-6.160142831504344940e-03,1.000000000000000000e+00
2.839093208312988281e-01,2.584277725219726562e+01,-2.303104019165039062e+01,-2.303104019165039062e+01,1.983486860990524292e-02,1.799847717285156250e+02,3.202479774699895643e-06,-1.406964683647871084e-10,-6.858557055622327425e-10,3.776874218601733446e-04,-4.609366777152956729e-10,1.129068660787879708e-08,1.341463904827833176e-02,-6.863786552457895596e-07,-1.267511265723442193e-06,-7.375734745185269503e-11,0.000000000000000000e+00,-6.160142831504344940e-03,1.000000000000000000e+00
2.839093208312988281e-01,2.584277725219726562e+01,-2.303104019165039062e+01,-2.303104019165039062e+01,1.983486860990524292e-02,1.799847717285156250e+02,3.202479774699895643e-06,-1.406964683647871084e-10,-6.858557055622327425e-10,3.776874218601733446e-04,-4.609366777152956729e-10,1.129068660787879708e-08,1.341463904827833176e-02,-6.863786552457895596e-07,-1.267511265723442193e-06,-7.375734745185269503e-11,0.000000000000000000e+00,-6.160142831504344940e-03,1.000000000000000000e+00
3.569011688232421875e-01,2.584277725219726562e+01,-2.303104019165039062e+01,-2.303104019165039062e+01,1.983486860990524292e-02,1.799847717285156250e+02,3.202479774699895643e-06,-2.287696143632445001e-10,-6.625747728250530599e-10,1.753764576278626919e-03,-1.206616140336791432e-09,3.189525032976092689e-10,1.885247789323329926e-02,-1.023090703711204696e-06,-2.100322262776899152e-06,-1.103988983564008208e-10,0.000000000000000000e+00,-6.160142831504344940e-03,1.000000000000000000e+00
3.569011688232421875e-01,2.584277725219726562e+01,-2.303104019165039062e+01,-2.303104019165039062e+01,1.983486860990524292e-02,1.799847717285156250e+02,3.202479774699895643e-06,-2.287696143632445001e-10,-6.625747728250530599e-10,1.753764576278626919e-03,-1.206616140336791432e-09,3.189525032976092689e-10,1.885247789323329926e-02,-1.023090703711204696e-06,-2.100322262776899152e-06,-1.103988983564008208e-10,0.000000000000000000e+00,-6.160142831504344940e-03,1.000000000000000000e+00
3.569011688232421875e-01,2.584277725219726562e+01,-2.303104019165039062e+01,-2.303104019165039062e+01,1.983486860990524292e-02,1.799847717285156250e+02,3.202479774699895643e-06,-2.287696143632445001e-10,-6.625747728250530599e-10,1.753764576278626919e-03,-1.206616140336791432e-09,3.189525032976092689e-10,1.885247789323329926e-02,-1.023090703711204696e-06,-2.100322262776899152e-06,-1.103988983564008208e-10,0.000000000000000000e+00,-6.160142831504344940e-03,1.000000000000000000e+00
3.569011688232421875e-01,2.584277725219726562e+01,-2.303104019165039062e+01,-2.303104019165039062e+01,1.983486860990524292e-02,1.799847717285156250e+02,3.202479774699895643e-06,-2.287696143632445001e-10,-6.625747728250530599e-10,1.753764576278626919e-03,-1.206616140336791432e-09,3.189525032976092689e-10,1.885247789323329926e-02,-1.023090703711204696e-06,-2.100322262776899152e-06,-1.103988983564008208e-10,0.000000000000000000e+00,-6.160142831504344940e-03,1.000000000000000000e+00
4.765405654907226562e-01,2.584277725219726562e+01,-2.303104019165039062e+01,-2.303104019165039062e+01,1.983486860990524292e-02,1.799847717285156250e+02,3.202479774699895643e-06,0.000000000000000000e+00,0.000000000000000000e+00,0.000000000000000000e+00,1.912159541817004538e-09,5.538098868385077367e-09,-1.465875469148159027e-02,0.000000000000000000e+00,0.000000000000000000e+00,0.000000000000000000e+00,0.000000000000000000e+00,-6.160142831504344940e-03,1.000000000000000000e+00
4.765405654907226562e-01,2.584277725219726562e+01,-2.303104019165039062e+01,-2.303104019165039062e+01,1.983486860990524292e-02,1.799847717285156250e+02,3.202479774699895643e-06,0.000000000000000000e+00,0.000000000000000000e+00,0.000000000000000000e+00,1.912159541817004538e-09,5.538098868385077367e-09,-1.465875469148159027e-02,0.000000000000000000e+00,0.000000000000000000e+00,0.000000000000000000e+00,0.000000000000000000e+00,-6.160142831504344940e-03,1.000000000000000000e+00
4.765405654907226562e-01,2.584277725219726562e+01,-2.303104019165039062e+01,-2.303104019165039062e+01,1.983486860990524292e-02,1.799847717285156250e+02,3.202479774699895643e-06,0.000000000000000000e+00,0.000000000000000000e+00,0.000000000000000000e+00,1.912159541817004538e-09,5.538098868385077367e-09,-1.465875469148159027e-02,0.000000000000000000e+00,0.000000000000000000e+00,0.000000000000000000e+00,0.000000000000000000e+00,-6.160142831504344940e-03,1.000000000000000000e+00
4.765405654907226562e-01,2.584277725219726562e+01,-2.303104019165039062e+01,-2.303104019165039062e+01,1.983486860990524292e-02,1.799847717285156250e+02,3.202479774699895643e-06,0.000000000000000000e+00,0.000000000000000000e+00,0.000000000000000000e+00,1.912159541817004538e-09,5.538098868385077367e-09,-1.465875469148159027e-02,0.000000000000000000e+00,0.000000000000000000e+00,0.000000000000000000e+00,0.000000000000000000e+00,-6.160142831504344940e-03,1.000000000000000000e+00
4.765405654907226562e-01,2.584277725219726562e+01,-2.303104019165039062e+01,-2.303104019165039062e+01,1.983486860990524292e-02,1.799847717285156250e+02,3.202479774699895643e-06,0.000000000000000000e+00,0.000000000000000000e+00,0.000000000000000000e+00,1.912159541817004538e-09,5.538098868385077367e-09,-1.465875469148159027e-02,0.000000000000000000e+00,0.000000000000000000e+00,0.000000000000000000e+00,0.000000000000000000e+00,-6.160142831504344940e-03,1.000000000000000000e+00
4.765405654907226562e-01,2.584277725219726562e+01,-2.303104019165039062e+01,-2.303104019165039062e+01,1.983486860990524292e-02,1.799847717285156250e+02,3.202479774699895643e-06,0.000000000000000000e+00,0.000000000000000000e+00,0.000000000000000000e+00,1.912159541817004538e-09,5.538098868385077367e-09,-1.465875469148159027e-02,0.000000000000000000e+00,0.000000000000000000e+00,0.000000000000000000e+00,0.000000000000000000e+00,-6.160142831504344940e-03,1.000000000000000000e+00
4.765405654907226562e-01,2.584277725219726562e+01,-2.303104019165039062e+01,-2.303104019165039062e+01,1.983486860990524292e-02,1.799847717285156250e+02,3.202479774699895643e-06,0.000000000000000000e+00,0.000000000000000000e+00,0.000000000000000000e+00,1.912159541817004538e-09,5.538098868385077367e-09,-1.465875469148159027e-02,0.000000000000000000e+00,0.000000000000000000e+00,0.000000000000000000e+00,0.000000000000000000e+00,-6.160142831504344940e-03,1.000000000000000000e+00
6.200885772705078125e-01,2.584277725219726562e+01,-2.303104019165039062e+01,-2.303104019165039062e+01,1.983486860990524292e-02,1.799847717285156250e+02,3.202479774699895643e-06,-1.387205073033470626e-10,1.243500968861610545e-09,-8.249814854934811592e-04,-9.663700950568454573e-10,8.662613737442370621e-09,-5.747077055275440216e-03,2.201692041126079857e-06,-1.297056655857886653e-06,-7.089857173570024429e-11,0.000000000000000000e+00,-6.160142831504344940e-03,1.000000000000000000e+00
6.200885772705078125e-01,2.584277725219726562e+01,-2.303104019165039062e+01,-2.303104019165039062e+01,1.983486860990524292e-02,1.799847717285156250e+02,3.202479774699895643e-06,-1.387205073033470626e-10,1.243500968861610545e-09,-8.249814854934811592e-04,-9.663700950568454573e-10,8.662613737442370621e-09,-5.747077055275440216e-03,2.201692041126079857e-06,-1.297056655857886653e-06,-7.089857173570024429e-11,0.000000000000000000e+00,-6.160142831504344940e-03,1.000000000000000000e+00
6.200885772705078125e-01,2.584277725219726562e+01,-2.303104019165039062e+01,-2.303104019165039062e+01,1.983486860990524292e-02,1.799847717285156250e+02,3.202479774699895643e-06,-1.387205073033470626e-10,1.243500968861610545e-09,-8.249814854934811592e-04,-9.663700950568454573e-10,8.662613737442370621e-09,-5.747077055275440216e-03,2.201692041126079857e-06,-1.297056655857886653e-06,-7.089857173570024429e-11,0.000000000000000000e+00,-6.160142831504344940e-03,1.000000000000000000e+00
6.200885772705078125e-01,2.584277725219726562e+01,-2.303104019165039062e+01,-2.303104019165039062e+01,1.983486860990524292e-02,1.799847717285156250e+02,3.202479774699895643e-06,-1.387205073033470626e-10,1.243500968861610545e-09,-8.249814854934811592e-04,-9.663700950568454573e-10,8.662613737442370621e-09,-5.747077055275440216e-03,2.201692041126079857e-06,-1.297056655857886653e-06,-7.089857173570024429e-11,0.000000000000000000e+00,-6.160142831504344940e-03,1.000000000000000000e+00
6.200885772705078125e-01,2.584277725219726562e+01,-2.303104019165039062e+01,-2.303104019165039062e+01,1.983486860990524292e-02,1.799847717285156250e+02,3.202479774699895643e-06,-1.387205073033470626e-10,1.243500968861610545e-09,-8.249814854934811592e-04,-9.663700950568454573e-10,8.662613737442370621e-09,-5.747077055275440216e-03,2.201692041126079857e-06,-1.297056655857886653e-06,-7.089857173570024429e-11,0.000000000000000000e+00,-6.160142831504344940e-03,1.000000000000000000e+00
6.200885772705078125e-01,2.584277725219726562e+01,-2.303104019165039062e+01,-2.303104019165039062e+01,1.983486860990524292e-02,1.799847717285156250e+02,3.202479774699895643e-06,-1.387205073033470626e-10,1.243500968861610545e-09,-8.249814854934811592e-04,-9.663700950568454573e-10,8.662613737442370621e-09,-5.747077055275440216e-03,2.201692041126079857e-06,-1.297056655857886653e-06,-7.089857173570024429e-11,0.000000000000000000e+00,-6.160142831504344940e-03,1.000000000000000000e+00
7.946169376373291016e-01,2.584277725219726562e+01,-2.303104019165039062e+01,-2.303104019165039062e+01,1.983486860990524292e-02,1.799847717285156250e+02,3.202479774699895643e-06,-1.927605436380375181e-10,9.583459581463671384e-10,1.027889520628377795e-04,-3.096347067632621020e-10,-1.633860602368031323e-09,5.315871909260749817e-03,2.138938498319475912e-06,-1.804410658223787323e-06,-1.149670428302052017e-10,0.000000000000000000e+00,-6.160142831504344940e-03,1.000000000000000000e+00
7.946169376373291016e-01,2.584277725219726562e+01,-2.303104019165039062e+01,-2.303104019165039062e+01,1.983486860990524292e-02,1.799847717285156250e+02,3.202479774699895643e-06,-1.927605436380375181e-10,9.583459581463671384e-10,1.027889520628377795e-04,-3.096347067632621020e-10,-1.633860602368031323e-09,5.315871909260749817e-03,2.138938498319475912e-06,-1.804410658223787323e-06,-1.149670428302052017e-10,0.000000000000000000e+00,-6.160142831504344940e-03,1.000000000000000000e+00
7.946169376373291016e-01,2.584277725219726562e+01,-2.303104019165039062e+01,-2.303104019165039062e+01,1.983486860990524292e-02,1.799847717285156250e+02,3.202479774699895643e-06,-1.927605436380375181e-10,9.583459581463671384e-10,1.027889520628377795e-04,-3.096347067632621020e-10,-1.633860602368031323e-09,5.315871909260749817e-03,2.138938498319475912e-06,-1.804410658223787323e-06,-1.149670428302052017e-10,0.000000000000000000e+00,-6.160142831504344940e-03,1.000000000000000000e+00
7.946169376373291016e-01,2.584277725219726562e+01,-2.303104019165039062e+01,-2.303104019165039062e+01,1.983486860990524292e-02,1.799847717285156250e+02,3.202479774699895643e-06,-1.927605436380375181e-10,9.583459581463671384e-10,1.027889520628377795e-04,-3.096347067632621020e-10,-1.633860602368031323e-09,5.315871909260749817e-03,2.138938498319475912e-06,-1.804410658223787323e-06,-1.149670428302052017e-10,0.000000000000000000e+00,-6.160142831504344940e-03,1.000000000000000000e+00
8.783230781555175781e-01,2.584277725219726562e+01,-2.303104019165039062e+01,-2.303104019165039062e+01,1.983486860990524292e-02,1.799847717285156250e+02,3.202479774699895643e-06,-7.975394233916688336e-10,1.683920913819747511e-08,3.143358917441219091e-04,-7.225024578616512372e-09,1.897216037605176098e-07,2.527257194742560387e-03,3.291368784630321898e-06,-1.353449192720290739e-06,1.037460339858853331e-09,0.000000000000000000e+00,-6.160142831504344940e-03,1.000000000000000000e+00
8.783230781555175781e-01,2.584277725219726562e+01,-2.303104019165039062e+01,-2.303104019165039062e+01,1.983486860990524292e-02,1.799847717285156250e+02,3.202479774699895643e-06,-7.975394233916688336e-10,1.683920913819747511e-08,3.143358917441219091e-04,-7.225024578616512372e-09,1.897216037605176098e-07,2.527257194742560387e-03,3.291368784630321898e-06,-1.353449192720290739e-06,1.037460339858853331e-09,0.000000000000000000e+00,-6.160142831504344940e-03,1.000000000000000000e+00
9.483780860900878906e-01,2.584277725219726562e+01,-2.303104019165039062e+01,-2.303104019165039062e+01,1.983486860990524292e-02,1.799847717285156250e+02,3.202479774699895643e-06,-1.795957133010617213e-10,1.668007287847217412e-09,1.877741888165473938e-03,8.820835617484590330e-09,-2.165612613680423237e-07,2.231683395802974701e-02,1.693158424131979700e-06,-1.778015644049446564e-06,-1.054316287052436962e-10,0.000000000000000000e+00,-6.160142831504344940e-03,1.000000000000000000e+00
9.483780860900878906e-01,2.584277725219726562e+01,-2.303104019165039062e+01,-2.303104019165039062e+01,1.983486860990524292e-02,1.799847717285156250e+02,3.202479774699895643e-06,-1.795957133010617213e-10,1.668007287847217412e-09,1.877741888165473938e-03,8.820835617484590330e-09,-2.165612613680423237e-07,2.231683395802974701e-02,1.693158424131979700e-06,-1.778015644049446564e-06,-1.054316287052436962e-10,0.000000000000000000e+00,-6.160142831504344940e-03,1.000000000000000000e+00
9.483780860900878906e-01,2.584277725219726562e+01,-2.303104019165039062e+01,-2.303104019165039062e+01,1.983486860990524292e-02,1.799847717285156250e+02,3.202479774699895643e-06,-1.795957133010617213e-10,1.668007287847217412e-09,1.877741888165473938e-03,8.820835617484590330e-09,-2.165612613680423237e-07,2.231683395802974701e-02,1.693158424131979700e-06,-1.778015644049446564e-06,-1.054316287052436962e-10,0.000000000000000000e+00,-6.160142831504344940e-03,1.000000000000000000e+00
9.483780860900878906e-01,2.584277725219726562e+01,-2.303104019165039062e+01,-2.303104019165039062e+01,1.983486860990524292e-02,1.799847717285156250e+02,3.202479774699895643e-06,-1.795957133010617213e-10,1.668007287847217412e-09,1.877741888165473938e-03,8.820835617484590330e-09,-2.165612613680423237e-07,2.231683395802974701e-02,1.693158424131979700e-06,-1.778015644049446564e-06,-1.054316287052436962e-10,0.000000000000000000e+00,-6.160142831504344940e-03,1.000000000000000000e+00
9.483780860900878906e-01,2.584277725219726562e+01,-2.303104019165039062e+01,-2.303104019165039062e+01,1.983486860990524292e-02,1.799847717285156250e+02,3.202479774699895643e-06,8.955815256062038543e-11,-4.828030752968004435e-10,5.281661651679314673e-05,3.415701055331510361e-09,-2.729489168018517375e-08,-2.315924130380153656e-02,-2.747444568740320392e-06,6.640252649958711118e-07,1.075872247194298303e-12,0.000000000000000000e+00,-6.160142831504344940e-03,1.000000000000000000e+00
1.027177095413208008e+00,2.584277725219726562e+01,-2.303104019165039062e+01,-2.303104019165039062e+01,1.983486860990524292e-02,1.799847717285156250e+02,3.202479774699895643e-06,8.955815256062038543e-11,-4.828030752968004435e-10,5.281661651679314673e-05,3.415701055331510361e-09,-2.729489168018517375e-08,-2.315924130380153656e-02,-2.747444568740320392e-06,6.640252649958711118e-07,1.075872247194298303e-12,0.000000000000000000e+00,-6.160142831504344940e-03,1.000000000000000000e+00
1.027177095413208008e+00,2.584277725219726562e+01,-2.303104019165039062e+01,-2.303104019165039062e+01,1.983486860990524292e-02,1.799847717285156250e+02,3.202479774699895643e-06,8.955815256062038543e-11,-4.828030752968004435e-10,5.281661651679314673e-05,3.415701055331510361e-09,-2.729489168018517375e-08,-2.315924130380153656e-02,-2.747444568740320392e-06,6.640252649958711118e-07,1.075872247194298303e-12,0.000000000000000000e+00,-6.160142831504344940e-03,1.000000000000000000e+00
1.095043420791625977e+00,2.584277725219726562e+01,-2.303104019165039062e+01,-2.303104019165039062e+01,1.983486860990524292e-02,1.799847717285156250e+02,3.202479774699895643e-06,-1.563019491612749334e-09,-1.122122395003088968e-08,-1.154183526523411274e-03,-2.435048074289625220e-08,-1.582289996804320253e-07,-1.778496243059635162e-02,3.330354593344964087e-05,-8.591699042881373316e-06,-1.985675790461272072e-10,0.000000000000000000e+00,-6.160142831504344940e-03,1.000000000000000000e+00
1.095043420791625977e+00,2.584277725219726562e+01,-2.303104019165039062e+01,-2.303104019165039062e+01,1.983486860990524292e-02,1.799847717285156250e+02,3.202479774699895643e-06,-1.563019491612749334e-09,-1.122122395003088968e-08,-1.154183526523411274e-03,-2.435048074289625220e-08,-1.582289996804320253e-07,-1.778496243059635162e-02,3.330354593344964087e-05,-8.591699042881373316e-06,-1.985675790461272072e-10,0.000000000000000000e+00,-6.160142831504344940e-03,1.000000000000000000e+00
1.095043420791625977e+00,2.584277725219726562e+01,-2.303104019165039062e+01,-2.303104019165039062e+01,1.983486860990524292e-02,1.799847717285156250e+02,3.202479774699895643e-06,-1.563019491612749334e-09,-1.122122395003088968e-08,-1.154183526523411274e-03,-2.435048074289625220e-08,-1.582289996804320253e-07,-1.778496243059635162e-02,3.330354593344964087e-05,-8.591699042881373316e-06,-1.985675790461272072e-10,0.000000000000000000e+00,-6.160142831504344940e-03,1.000000000000000000e+00
1.095043420791625977e+00,2.584277725219726562e+01,-2.303104019165039062e+01,-2.303104019165039062e+01,1.983486860990524292e-02,1.799847717285156250e+02,3.202479774699895643e-06,-1.563019491612749334e-09,-1.122122395003088968e-08,-1.154183526523411274e-03,-2.435048074289625220e-08,-1.582289996804320253e-07,-1.778496243059635162e-02,3.330354593344964087e-05,-8.591699042881373316e-06,-1.985675790461272072e-10,0.000000000000000000e+00,-6.160142831504344940e-03,1.000000000000000000e+00
1.168572425842285156e+00,2.584277725219726562e+01,-2.303104019165039062e+01,-2.303104019165039062e+01,1.983486860990524292e-02,1.799847717285156250e+02,3.202479774699895643e-06,1.085375123111020912e-09,2.365409379478933261e-08,1.128177042119204998e-03,3.601836340294539696e-08,4.743069155210832832e-07,3.104027360677719116e-02,-1.623398748051840812e-05,3.308718760308693163e-06,-3.400410508724860392e-11,0.000000000000000000e+00,-6.160142831504344940e-03,1.000000000000000000e+00
1.168572425842285156e+00,2.584277725219726562e+01,-2.303104019165039062e+01,-2.303104019165039062e+01,1.983486860990524292e-02,1.799847717285156250e+02,3.202479774699895643e-06,1.085375123111020912e-09,2.365409379478933261e-08,1.128177042119204998e-03,3.601836340294539696e-08,4.743069155210832832e-07,3.104027360677719116e-02,-1.623398748051840812e-05,3.308718760308693163e-06,-3.400410508724860392e-11,0.000000000000000000e+00,-6.160142831504344940e-03,1.000000000000000000e+00
1.168572425842285156e+00,2.584277725219726562e+01,-2.303104019165039062e+01,-2.303104019165039062e+01,1.983486860990524292e-02,1.799847717285156250e+02,3.202479774699895643e-06,1.085375123111020912e-09,2.365409379478933261e-08,1.128177042119204998e-03,3.601836340294539696e-08,4.743069155210832832e-07,3.104027360677719116e-02,-1.623398748051840812e-05,3.308718760308693163e-06,-3.400410508724860392e-11,0.000000000000000000e+00,-6.160142831504344940e-03,1.000000000000000000e+00
1.168572425842285156e+00,2.584277725219726562e+01,-2.303104019165039062e+01,-2.303104019165039062e+01,1.983486860990524292e-02,1.799847717285156250e+02,3.202479774699895643e-06,1.085375123111020912e-09,2.365409379478933261e-08,1.128177042119204998e-03,3.601836340294539696e-08,4.743069155210832832e-07,3.104027360677719116e-02,-1.623398748051840812e-05,3.308718760308693163e-06,-3.400410508724860392e-11,0.000000000000000000e+00,-6.160142831504344940e-03,1.000000000000000000e+00
1.168572425842285156e+00,2.584277725219726562e+01,-2.303104019165039062e+01,-2.303104019165039062e+01,1.983486860990524292e-02,1.799847717285156250e+02,3.202479774699895643e-06,-1.282970174543152098e-09,-2.085643835414430214e-08,-3.317440277896821499e-04,-3.155755123884773639e-08,-5.930906468165630940e-07,-1.945304684340953827e-02,1.752459502313286066e-05,-5.601341854344354942e-06,1.312837477618344906e-10,0.000000000000000000e+00,-6.160142831504344940e-03,1.000000000000000000e+00
1.243620872497558594e+00,2.584277725219726562e+01,-2.303104019165039062e+01,-2.303104019165039062e+01,1.983486860990524292e-02,1.799847717285156250e+02,3.202479774699895643e-06,-1.282970174543152098e-09,-2.085643835414430214e-08,-3.317440277896821499e-04,-3.155755123884773639e-08,-5.930906468165630940e-07,-1.945304684340953827e-02,1.752459502313286066e-05,-5.601341854344354942e-06,1.312837477618344906e-10,0.000000000000000000e+00,-6.160142831504344940e-03,1.000000000000000000e+00
1.243620872497558594e+00,2.584277725219726562e+01,-2.303104019165039062e+01,-2.303104019165039062e+01,1.983486860990524292e-02,1.799847717285156250e+02,3.202479774699895643e-06,-1.282970174543152098e-09,-2.085643835414430214e-08,-3.317440277896821499e-04,-3.155755123884773639e-08,-5.930906468165630940e-07,-1.945304684340953827e-02,1.752459502313286066e-05,-5.601341854344354942e-06,1.312837477618344906e-10,0.000000000000000000e+00,-6.160142831504344940e-03,1.000000000000000000e+00
1.243620872497558594e+00,2.584277725219726562e+01,-2.303104019165039062e+01,-2.303104019165039062e+01,1.983486860990524292e-02,1.799847717285156250e+02,3.202479774699895643e-06,-1.282970174543152098e-09,-2.085643835414430214e-08,-3.317440277896821499e-04,-3.155755123884773639e-08,-5.930906468165630940e-07,-1.945304684340953827e-02,1.752459502313286066e-05,-5.601341854344354942e-06,1.312837477618344906e-10,0.000000000000000000e+00,-6.160142831504344940e-03,1.000000000000000000e+00
1.312042951583862305e+00,2.584277725219726562e+01,-2.303104019165039062e+01,-2.303104019165039062e+01,1.983486860990524292e-02,1.799847717285156250e+02,3.202479774699895643e-06,-1.194804255533199466e-09,-2.491500161738713359e-08,-3.332495980430394411e-04,1.288559481338324986e-09,-5.931657298674508638e-08,-2.200415838160552084e-05,1.208679987030336633e-05,-4.584850103128701448e-06,2.838644944103130285e-11,0.000000000000000000e+00,-6.160142831504344940e-03,1.000000000000000000e+00
1.312042951583862305e+00,2.584277725219726562e+01,-2.303104019165039062e+01,-2.303104019165039062e+01,1.983486860990524292e-02,1.799847717285156250e+02,3.202479774699895643e-06,-1.194804255533199466e-09,-2.491500161738713359e-08,-3.332495980430394411e-04,1.288559481338324986e-09,-5.931657298674508638e-08,-2.200415838160552084e-05,1.208679987030336633e-05,-4.584850103128701448e-06,2.838644944103130285e-11,0.000000000000000000e+00,-6.160142831504344940e-03,1.000000000000000000e+00
1.312042951583862305e+00,2.584277725219726562e+01,-2.303104019165039062e+01,-2.303104019165039062e+01,1.983486860990524292e-02,1.799847717285156250e+02,3.202479774699895643e-06,3.202317078176974974e-09,9.552064916817926132e-09,7.898298208601772785e-04,6.185600653907386004e-08,4.848615731134486850e-07,1.579879224300384521e-02,-9.910418157232925296e-06,1.765938213793560863e-05,-1.490896850420142528e-10,0.000000000000000000e+00,-6.160142831504344940e-03,1.000000000000000000e+00
1.383129358291625977e+00,2.584277725219726562e+01,-2.303104019165039062e+01,-2.303104019165039062e+01,1.983486860990524292e-02,1.799847717285156250e+02,3.202479774699895643e-06,3.202317078176974974e-09,9.552064916817926132e-09,7.898298208601772785e-04,6.185600653907386004e-08,4.848615731134486850e-07,1.579879224300384521e-02,-9.910418157232925296e-06,1.765938213793560863e-05,-1.490896850420142528e-10,0.000000000000000000e+00,-6.160142831504344940e-03,1.000000000000000000e+00
1.383129358291625977e+00,2.584277725219726562e+01,-2.303104019165039062e+01,-2.303104019165039062e+01,1.983486860990524292e-02,1.799847717285156250e+02,3.202479774699895643e-06,3.202317078176974974e-09,9.552064916817926132e-09,7.898298208601772785e-04,6.185600653907386004e-08,4.848615731134486850e-07,1.579879224300384521e-02,-9.910418157232925296e-06,1.765938213793560863e-05,-1.490896850420142528e-10,0.000000000000000000e+00,-6.160142831504344940e-03,1.000000000000000000e+00
1.450951814651489258e+00,2.584277725219726562e+01,-2.303104019165039062e+01,-2.303104019165039062e+01,1.983486860990524292e-02,1.799847717285156250e+02,3.202479774699895643e-06,-2.550291748615318710e-11,-3.988876728922008397e-10,-5.377958586905151606e-05,-4.759220217920301366e-08,-1.467206232064199867e-07,-1.243849657475948334e-02,-9.113844612329558004e-07,-1.921630286005893140e-07,-8.495189794677227013e-12,0.000000000000000000e+00,-6.160142831504344940e-03,1.000000000000000000e+00
1.450951814651489258e+00,2.584277725219726562e+01,-2.303104019165039062e+01,-2.303104019165039062e+01,1.983486860990524292e-02,1.799847717285156250e+02,3.202479774699895643e-06,-2.550291748615318710e-11,-3.988876728922008397e-10,-5.377958586905151606e-05,-4.759220217920301366e-08,-1.467206232064199867e-07,-1.243849657475948334e-02,-9.113844612329558004e-07,-1.921630286005893140e-07,-8.495189794677227013e-12,0.000000000000000000e+00,-6.160142831504344940e-03,1.000000000000000000e+00
1.450951814651489258e+00,2.584277725219726562e+01,-2.303104019165039062e+01,-2.303104019165039062e+01,1.983486860990524292e-02,1.799847717285156250e+02,3.202479774699895643e-06,-2.550291748615318710e-11,-3.988876728922008397e-10,-5.377958586905151606e-05,-4.759220217920301366e-08,-1.467206232064199867e-07,-1.243849657475948334e-02,-9.113844612329558004e-07,-1.921630286005893140e-07,-8.495189794677227013e-12,0.000000000000000000e+00,-6.160142831504344940e-03,1.000000000000000000e+00
1.527701377868652344e+00,2.584277725219726562e+01,-2.303104019165039062e+01,-2.303104019165039062e+01,1.983486860990524292e-02,1.799847717285156250e+02,3.202479774699895643e-06,-5.451114212795538094e-11,-6.760186299636927743e-10,3.497793513815850019e-04,-3.779594692776555576e-10,-3.610847398860528301e-09,5.258127115666866302e-03,-9.115381658375554252e-07,-4.445033425781730330e-07,-2.182812958162472228e-11,0.000000000000000000e+00,-6.160142831504344940e-03,1.000000000000000000e+00
1.527701377868652344e+00,2.584277725219726562e+01,-2.303104019165039062e+01,-2.303104019165039062e+01,1.983486860990524292e-02,1.799847717285156250e+02,3.202479774699895643e-06,-5.451114212795538094e-11,-6.760186299636927743e-10,3.497793513815850019e-04,-3.779594692776555576e-10,-3.610847398860528301e-09,5.258127115666866302e-03,-9.115381658375554252e-07,-4.445033425781730330e-07,-2.182812958162472228e-11,0.000000000000000000e+00,-6.160142831504344940e-03,1.000000000000000000e+00
1.527701377868652344e+00,2.584277725219726562e+01,-2.303104019165039062e+01,-2.303104019165039062e+01,1.983486860990524292e-02,1.799847717285156250e+02,3.202479774699895643e-06,-5.451114212795538094e-11,-6.760186299636927743e-10,3.497793513815850019e-04,-3.779594692776555576e-10,-3.610847398860528301e-09,5.258127115666866302e-03,-9.115381658375554252e-07,-4.445033425781730330e-07,-2.182812958162472228e-11,0.000000000000000000e+00,-6.160142831504344940e-03,1.000000000000000000e+00
1.600134611129760742e+00,2.584277725219726562e+01,-2.303104019165039062e+01,-2.303104019165039062e+01,1.983486860990524292e-02,1.799847717285156250e+02,3.202479774699895643e-06,-6.685136888506804098e-10,1.521647696733907651e-08,-1.059255097061395645e-03,-8.476807700219524122e-09,2.194089034901480773e-07,-1.945287361741065979e-02,-7.160329005273524672e-07,-3.145507889712462202e-07,1.110721181696305848e-09,0.000000000000000000e+00,-6.160142831504344940e-03,1.000000000000000000e+00
1.600134611129760742e+00,2.584277725219726562e+01,-2.303104019165039062e+01,-2.303104019165039062e+01,1.983486860990524292e-02,1.799847717285156250e+02,3.202479774699895643e-06,-6.685136888506804098e-10,1.521647696733907651e-08,-1.059255097061395645e-03,-8.476807700219524122e-09,2.194089034901480773e-07,-1.945287361741065979e-02,-7.160329005273524672e-07,-3.145507889712462202e-07,1.110721181696305848e-09,0.000000000000000000e+00,-6.160142831504344940e-03,1.000000000000000000e+00
1.600134611129760742e+00,2.584277725219726562e+01,-2.303104019165039062e+01,-2.303104019165039062e+01,1.983486860990524292e-02,1.799847717285156250e+02,3.202479774699895643e-06,-6.685136888506804098e-10,1.521647696733907651e-08,-1.059255097061395645e-03,-8.476807700219524122e-09,2.194089034901480773e-07,-1.945287361741065979e-02,-7.160329005273524672e-07,-3.145507889712462202e-07,1.110721181696305848e-09,0.000000000000000000e+00,-6.160142831504344940e-03,1.000000000000000000e+00
1.600134611129760742e+00,2.584277725219726562e+01,-2.303104019165039062e+01,-2.303104019165039062e+01,1.983486860990524292e-02,1.799847717285156250e+02,3.202479774699895643e-06,-6.685136888506804098e-10,1.521647696733907651e-08,-1.059255097061395645e-03,-8.476807700219524122e-09,2.194089034901480773e-07,-1.945287361741065979e-02,-7.160329005273524672e-07,-3.145507889712462202e-07,1.110721181696305848e-09,0.000000000000000000e+00,-6.160142831504344940e-03,1.000000000000000000e+00
1.600134611129760742e+00,2.584277725219726562e+01,-2.303104019165039062e+01,-2.303104019165039062e+01,1.983486860990524292e-02,1.799847717285156250e+02,3.202479774699895643e-06,-6.685136888506804098e-10,1.521647696733907651e-08,-1.059255097061395645e-03,-8.476807700219524122e-09,2.194089034901480773e-07,-1.945287361741065979e-02,-7.160329005273524672e-07,-3.145507889712462202e-07,1.110721181696305848e-09,0.000000000000000000e+00,-6.160142831504344940e-03,1.000000000000000000e+00
1.600134611129760742e+00,2.584277725219726562e+01,-2.303104019165039062e+01,-2.303104019165039062e+01,1.983486860990524292e-02,1.799847717285156250e+02,3.202479774699895643e-06,-1.239919104889519730e-11,-1.689848372343760730e-09,2.267032250529155135e-04,5.686609405586295907e-09,-1.465287908786194748e-07,1.114552840590476990e-02,-3.142363084407406859e-06,4.252133756210696447e-09,-1.823709369283554871e-12,0.000000000000000000e+00,-6.160142831504344940e-03,1.000000000000000000e+00
1.715513467788696289e+00,2.584277725219726562e+01,-2.303104019165039062e+01,-2.303104019165039062e+01,1.983486860990524292e-02,1.799847717285156250e+02,3.202479774699895643e-06,-1.239919104889519730e-11,-1.689848372343760730e-09,2.267032250529155135e-04,5.686609405586295907e-09,-1.465287908786194748e-07,1.114552840590476990e-02,-3.142363084407406859e-06,4.252133756210696447e-09,-1.823709369283554871e-12,0.000000000000000000e+00,-6.160142831504344940e-03,1.000000000000000000e+00
1.715513467788696289e+00,2.584277725219726562e+01,-2.303104019165039062e+01,-2.303104019165039062e+01,1.983486860990524292e-02,1.799847717285156250e+02,3.202479774699895643e-06,-1.239919104889519730e-11,-1.689848372343760730e-09,2.267032250529155135e-04,5.686609405586295907e-09,-1.465287908786194748e-07,1.114552840590476990e-02,-3.142363084407406859e-06,4.252133756210696447e-09,-1.823709369283554871e-12,0.000000000000000000e+00,-6.160142831504344940e-03,1.000000000000000000e+00
1.715513467788696289e+00,2.584277725219726562e+01,-2.303104019165039062e+01,-2.303104019165039062e+01,1.983486860990524292e-02,1.799847717285156250e+02,3.202479774699895643e-06,-1.239919104889519730e-11,-1.689848372343760730e-09,2.267032250529155135e-04,5.686609405586295907e-09,-1.465287908786194748e-07,1.114552840590476990e-02,-3.142363084407406859e-06,4.252133756210696447e-09,-1.823709369283554871e-12,0.000000000000000000e+00,-6.160142831504344940e-03,1.000000000000000000e+00
1.813115119934082031e+00,2.584277725219726562e+01,-2.303104019165039062e+01,-2.303104019165039062e+01,1.983486860990524292e-02,1.799847717285156250e+02,3.202479774699895643e-06,-5.965043736733122159e-11,-1.304021113313069691e-09,-9.292197646573185921e-04,-4.841234080288359110e-10,3.953081417762405181e-09,-1.184327341616153717e-02,-2.136158627763506956e-06,-5.596992309619963635e-07,-3.326968561756515896e-11,0.000000000000000000e+00,-6.160142831504344940e-03,1.000000000000000000e+00
1.813115119934082031e+00,2.584277725219726562e+01,-2.303104019165039062e+01,-2.303104019165039062e+01,1.983486860990524292e-02,1.799847717285156250e+02,3.202479774699895643e-06,-5.965043736733122159e-11,-1.304021113313069691e-09,-9.292197646573185921e-04,-4.841234080288359110e-10,3.953081417762405181e-09,-1.184327341616153717e-02,-2.136158627763506956e-06,-5.596992309619963635e-07,-3.326968561756515896e-11,0.000000000000000000e+00,-6.160142831504344940e-03,1.000000000000000000e+00
1.813115119934082031e+00,2.584277725219726562e+01,-2.303104019165039062e+01,-2.303104019165039062e+01,1.983486860990524292e-02,1.799847717285156250e+02,3.202479774699895643e-06,-5.965043736733122159e-11,-1.304021113313069691e-09,-9.292197646573185921e-04,-4.841234080288359110e-10,3.953081417762405181e-09,-1.184327341616153717e-02,-2.136158627763506956e-06,-5.596992309619963635e-07,-3.326968561756515896e-11,0.000000000000000000e+00,-6.160142831504344940e-03,1.000000000000000000e+00
1.813115119934082031e+00,2.584277725219726562e+01,-2.303104019165039062e+01,-2.303104019165039062e+01,1.983486860990524292e-02,1.799847717285156250e+02,3.202479774699895643e-06,-5.965043736733122159e-11,-1.304021113313069691e-09,-9.292197646573185921e-04,-4.841234080288359110e-10,3.953081417762405181e-09,-1.184327341616153717e-02,-2.136158627763506956e-06,-5.596992309619963635e-07,-3.326968561756515896e-11,0.000000000000000000e+00,-6.160142831504344940e-03,1.000000000000000000e+00
1.896134853363037109e+00,2.584277725219726562e+01,-2.303104019165039062e+01,-2.303104019165039062e+01,1.983486860990524292e-02,1.799847717285156250e+02,3.202479774699895643e-06,-6.107062078264391403e-11,1.628794599195515502e-10,1.458502956666052341e-04,-1.710657657194580850e-11,1.766930068924921216e-08,1.294957380741834641e-02,2.459116501540847821e-07,-4.677246181472582975e-07,-9.593277561226187800e-12,0.000000000000000000e+00,-6.160142831504344940e-03,1.000000000000000000e+00
1.896134853363037109e+00,2.584277725219726562e+01,-2.303104019165039062e+01,-2.303104019165039062e+01,1.983486860990524292e-02,1.799847717285156250e+02,3.202479774699895643e-06,-6.107062078264391403e-11,1.628794599195515502e-10,1.458502956666052341e-04,-1.710657657194580850e-11,1.766930068924921216e-08,1.294957380741834641e-02,2.459116501540847821e-07,-4.677246181472582975e-07,-9.593277561226187800e-12,0.000000000000000000e+00,-6.160142831504344940e-03,1.000000000000000000e+00
1.896134853363037109e+00,2.584277725219726562e+01,-2.303104019165039062e+01,-2.303104019165039062e+01,1.983486860990524292e-02,1.799847717285156250e+02,3.202479774699895643e-06,-6.107062078264391403e-11,1.628794599195515502e-10,1.458502956666052341e-04,-1.710657657194580850e-11,1.766930068924921216e-08,1.294957380741834641e-02,2.459116501540847821e-07,-4.677246181472582975e-07,-9.593277561226187800e-12,0.000000000000000000e+00,-6.160142831504344940e-03,1.000000000000000000e+00
1.896134853363037109e+00,2.584277725219726562e+01,-2.303104019165039062e+01,-2.303104019165039062e+01,1.983486860990524292e-02,1.799847717285156250e+02,3.202479774699895643e-06,-6.107062078264391403e-11,1.628794599195515502e-10,1.458502956666052341e-04,-1.710657657194580850e-11,1.766930068924921216e-08,1.294957380741834641e-02,2.459116501540847821e-07,-4.677246181472582975e-07,-9.593277561226187800e-12,0.000000000000000000e+00,-6.160142831504344940e-03,1.000000000000000000e+00
1.896134853363037109e+00,2.584277725219726562e+01,-2.303104019165039062e+01,-2.303104019165039062e+01,1.983486860990524292e-02,1.799847717285156250e+02,3.202479774699895643e-06,-6.107062078264391403e-11,1.628794599195515502e-10,1.458502956666052341e-04,-1.710657657194580850e-11,1.766930068924921216e-08,1.294957380741834641e-02,2.459116501540847821e-07,-4.677246181472582975e-07,-9.593277561226187800e-12,0.000000000000000000e+00,-6.160142831504344940e-03,1.000000000000000000e+00
1.896134853363037109e+00,2.584277725219726562e+01,-2.303104019165039062e+01,-2.303104019165039062e+01,1.983486860990524292e-02,1.799847717285156250e+02,3.202479774699895643e-06,-6.107062078264391403e-11,1.628794599195515502e-10,1.458502956666052341e-04,-1.710657657194580850e-11,1.766930068924921216e-08,1.294957380741834641e-02,2.459116501540847821e-07,-4.677246181472582975e-07,-9.593277561226187800e-12,0.000000000000000000e+00,-6.160142831504344940e-03,1.000000000000000000e+00
1.896134853363037109e+00,2.584277725219726562e+01,-2.303104019165039062e+01,-2.303104019165039062e+01,1.983486860990524292e-02,1.799847717285156250e+02,3.202479774699895643e-06,-6.107062078264391403e-11,1.628794599195515502e-10,1.458502956666052341e-04,-1.710657657194580850e-11,1.766930068924921216e-08,1.294957380741834641e-02,2.459116501540847821e-07,-4.677246181472582975e-07,-9.593277561226187800e-12,0.000000000000000000e+00,-6.160142831504344940e-03,1.000000000000000000e+00
2.195794820785522461e+00,2.584277725219726562e+01,-2.303104019165039062e+01,-2.303104019165039062e+01,1.983486860990524292e-02,1.799847717285156250e+02,3.202479774699895643e-06,-1.333074206577578025e-10,-3.593337405405350182e-09,1.379278837703168392e-03,1.227790225044600447e-08,-3.341299361636629328e-07,2.231395803391933441e-02,-6.057000973669346422e-06,-1.156707185145933181e-06,-8.405515866671819936e-11,0.000000000000000000e+00,-6.160142831504344940e-03,1.000000000000000000e+00
2.195794820785522461e+00,2.584277725219726562e+01,-2.303104019165039062e+01,-2.303104019165039062e+01,1.983486860990524292e-02,1.799847717285156250e+02,3.202479774699895643e-06,-1.333074206577578025e-10,-3.593337405405350182e-09,1.379278837703168392e-03,1.227790225044600447e-08,-3.341299361636629328e-07,2.231395803391933441e-02,-6.057000973669346422e-06,-1.156707185145933181e-06,-8.405515866671819936e-11,0.000000000000000000e+00,-6.160142831504344940e-03,1.000000000000000000e+00
2.195794820785522461e+00,2.584277725219726562e+01,-2.303104019165039062e+01,-2.303104019165039062e+01,1.983486860990524292e-02,1.799847717285156250e+02,3.202479774699895643e-06,-1.333074206577578025e-10,-3.593337405405350182e-09,1.379278837703168392e-03,1.227790225044600447e-08,-3.341299361636629328e-07,2.231395803391933441e-02,-6.057000973669346422e-06,-1.156707185145933181e-06,-8.405515866671819936e-11,0.000000000000000000e+00,-6.160142831504344940e-03,1.000000000000000000e+00
2.195794820785522461e+00,2.584277725219726562e+01,-2.303104019165039062e+01,-2.303104019165039062e+01,1.983486860990524292e-02,1.799847717285156250e+02,3.202479774699895643e-06,-1.333074206577578025e-10,-3.593337405405350182e-09,1.379278837703168392e-03,1.227790225044600447e-08,-3.341299361636629328e-07,2.231395803391933441e-02,-6.057000973669346422e-06,-1.156707185145933181e-06,-8.405515866671819936e-11,0.000000000000000000e+00,-6.160142831504344940e-03,1.000000000000000000e+00
2.195794820785522461e+00,2.584277725219726562e+01,-2.303104019165039062e+01,-2.303104019165039062e+01,1.983486860990524292e-02,1.799847717285156250e+02,3.202479774699895643e-06,-1.333074206577578025e-10,-3.593337405405350182e-09,1.379278837703168392e-03,1.227790225044600447e-08,-3.341299361636629328e-07,2.231395803391933441e-02,-6.057000973669346422e-06,-1.156707185145933181e-06,-8.405515866671819936e-11,0.000000000000000000e+00,-6.160142831504344940e-03,1.000000000000000000e+00
2.195794820785522461e+00,2.584277725219726562e+01,-2.303104019165039062e+01,-2.303104019165039062e+01,1.983486860990524292e-02,1.799847717285156250e+02,3.202479774699895643e-06,-1.333074206577578025e-10,-3.593337405405350182e-09,1.379278837703168392e-03,1.227790225044600447e-08,-3.341299361636629328e-07,2.231395803391933441e-02,-6.057000973669346422e-06,-1.156707185145933181e-06,-8.405515866671819936e-11,0.000000000000000000e+00,-6.160142831504344940e-03,1.000000000000000000e+00
2.195794820785522461e+00,2.584277725219726562e+01,-2.303104019165039062e+01,-2.303104019165039062e+01,1.983486860990524292e-02,1.799847717285156250e+02,3.202479774699895643e-06,-1.333074206577578025e-10,-3.593337405405350182e-09,1.379278837703168392e-03,1.227790225044600447e-08,-3.341299361636629328e-07,2.231395803391933441e-02,-6.057000973669346422e-06,-1.156707185145933181e-06,-8.405515866671819936e-11,0.000000000000000000e+00,-6.160142831504344940e-03,1.000000000000000000e+00
2.195794820785522461e+00,2.584277725219726562e+01,-2.303104019165039062e+01,-2.303104019165039062e+01,1.983486860990524292e-02,1.799847717285156250e+02,3.202479774699895643e-06,-1.333074206577578025e-10,-3.593337405405350182e-09,1.379278837703168392e-03,1.227790225044600447e-08,-3.341299361636629328e-07,2.231395803391933441e-02,-6.057000973669346422e-06,-1.156707185145933181e-06,-8.405515866671819936e-11,0.000000000000000000e+00,-6.160142831504344940e-03,1.000000000000000000e+00
2.195794820785522461e+00,2.584277725219726562e+01,-2.303104019165039062e+01,-2.303104019165039062e+01,1.983486860990524292e-02,1.799847717285156250e+02,3.202479774699895643e-06,-1.333074206577578025e-10,-3.593337405405350182e-09,1.379278837703168392e-03,1.227790225044600447e-08,-3.341299361636629328e-07,2.231395803391933441e-02,-6.057000973669346422e-06,-1.156707185145933181e-06,-8.405515866671819936e-11,0.000000000000000000e+00,-6.160142831504344940e-03,1.000000000000000000e+00
2.195794820785522461e+00,2.584277725219726562e+01,-2.303104019165039062e+01,-2.303104019165039062e+01,1.983486860990524292e-02,1.799847717285156250e+02,3.202479774699895643e-06,-1.333074206577578025e-10,-3.593337405405350182e-09,1.379278837703168392e-03,1.227790225044600447e-08,-3.341299361636629328e-07,2.231395803391933441e-02,-6.057000973669346422e-06,-1.156707185145933181e-06,-8.405515866671819936e-11,0.000000000000000000e+00,-6.160142831504344940e-03,1.000000000000000000e+00
2.374083757400512695e+00,2.584277725219726562e+01,-2.303104019165039062e+01,-2.303104019165039062e+01,1.983486860990524292e-02,1.799847717285156250e+02,3.202479774699895643e-06,-1.011522254845687030e-10,-3.343673560252113930e-09,1.698783482424914837e-03,1.803543980827271298e-10,1.400332738654697096e-09,1.792060909792780876e-03,-5.156691258889622986e-06,-9.549524975227541290e-07,-6.002629643342416443e-11,0.000000000000000000e+00,-6.160142831504344940e-03,1.000000000000000000e+00
2.374083757400512695e+00,2.584277725219726562e+01,-2.303104019165039062e+01,-2.303104019165039062e+01,1.983486860990524292e-02,1.799847717285156250e+02,3.202479774699895643e-06,-1.011522254845687030e-10,-3.343673560252113930e-09,1.698783482424914837e-03,1.803543980827271298e-10,1.400332738654697096e-09,1.792060909792780876e-03,-5.156691258889622986e-06,-9.549524975227541290e-07,-6.002629643342416443e-11,0.000000000000000000e+00,-6.160142831504344940e-03,1.000000000000000000e+00
2.374083757400512695e+00,2.584277725219726562e+01,-2.303104019165039062e+01,-2.303104019165039062e+01,1.983486860990524292e-02,1.799847717285156250e+02,3.202479774699895643e-06,-1.011522254845687030e-10,-3.343673560252113930e-09,1.698783482424914837e-03,1.803543980827271298e-10,1.400332738654697096e-09,1.792060909792780876e-03,-5.156691258889622986e-06,-9.549524975227541290e-07,-6.002629643342416443e-11,0.000000000000000000e+00,-6.160142831504344940e-03,1.000000000000000000e+00
2.447860002517700195e+00,2.584277725219726562e+01,-2.303104019165039062e+01,-2.303104019165039062e+01,1.983486860990524292e-02,1.799847717285156250e+02,3.202479774699895643e-06,-1.734789756291377216e-09,3.936953429928280457e-09,-3.548412059899419546e-04,-2.214313887805019476e-08,9.868524841749604093e-08,-2.783585339784622192e-02,-2.191008570662233979e-05,-1.019898809317965060e-05,2.088670209010601297e-10,0.000000000000000000e+00,-6.160142831504344940e-03,1.000000000000000000e+00
2.447860002517700195e+00,2.584277725219726562e+01,-2.303104019165039062e+01,-2.303104019165039062e+01,1.983486860990524292e-02,1.799847717285156250e+02,3.202479774699895643e-06,-1.734789756291377216e-09,3.936953429928280457e-09,-3.548412059899419546e-04,-2.214313887805019476e-08,9.868524841749604093e-08,-2.783585339784622192e-02,-2.191008570662233979e-05,-1.019898809317965060e-05,2.088670209010601297e-10,0.000000000000000000e+00,-6.160142831504344940e-03,1.000000000000000000e+00
2.500878810882568359e+00,2.584277725219726562e+01,-2.303104019165039062e+01,-2.303104019165039062e+01,1.983486860990524292e-02,1.799847717285156250e+02,3.202479774699895643e-06,1.239991304080589885e-10,2.415332822636173660e-09,1.056057517416775227e-03,3.505904544454097049e-08,-2.869963822149657062e-08,2.661128714680671692e-02,5.218148544372525066e-06,1.099337850973824970e-06,7.343296803963283992e-11,0.000000000000000000e+00,-6.160142831504344940e-03,1.000000000000000000e+00
2.500878810882568359e+00,2.584277725219726562e+01,-2.303104019165039062e+01,-2.303104019165039062e+01,1.983486860990524292e-02,1.799847717285156250e+02,3.202479774699895643e-06,1.239991304080589885e-10,2.415332822636173660e-09,1.056057517416775227e-03,3.505904544454097049e-08,-2.869963822149657062e-08,2.661128714680671692e-02,5.218148544372525066e-06,1.099337850973824970e-06,7.343296803963283992e-11,0.000000000000000000e+00,-6.160142831504344940e-03,1.000000000000000000e+00
2.500878810882568359e+00,2.584277725219726562e+01,-2.303104019165039062e+01,-2.303104019165039062e+01,1.983486860990524292e-02,1.799847717285156250e+02,3.202479774699895643e-06,1.239991304080589885e-10,2.415332822636173660e-09,1.056057517416775227e-03,3.505904544454097049e-08,-2.869963822149657062e-08,2.661128714680671692e-02,5.218148544372525066e-06,1.099337850973824970e-06,7.343296803963283992e-11,0.000000000000000000e+00,-6.160142831504344940e-03,1.000000000000000000e+00
2.560195446014404297e+00,2.584277725219726562e+01,-2.303104019165039062e+01,-2.303104019165039062e+01,1.983486860990524292e-02,1.799847717285156250e+02,3.202479774699895643e-06,2.526377995692996592e-10,2.286753897351445630e-09,1.518782461062073708e-03,2.168677681879671582e-09,-2.167670487551731640e-09,7.800930179655551910e-03,8.464376151096075773e-06,2.197060666730976664e-06,3.919186641887506539e-10,0.000000000000000000e+00,-6.160142831504344940e-03,1.000000000000000000e+00
2.560195446014404297e+00,2.584277725219726562e+01,-2.303104019165039062e+01,-2.303104019165039062e+01,1.983486860990524292e-02,1.799847717285156250e+02,3.202479774699895643e-06,2.526377995692996592e-10,2.286753897351445630e-09,1.518782461062073708e-03,2.168677681879671582e-09,-2.167670487551731640e-09,7.800930179655551910e-03,8.464376151096075773e-06,2.197060666730976664e-06,3.919186641887506539e-10,0.000000000000000000e+00,-6.160142831504344940e-03,1.000000000000000000e+00
2.560195446014404297e+00,2.584277725219726562e+01,-2.303104019165039062e+01,-2.303104019165039062e+01,1.983486860990524292e-02,1.799847717285156250e+02,3.202479774699895643e-06,-1.451327169554872398e-09,1.047324982295094742e-08,-8.316331659443676472e-04,-2.911014007622725330e-08,1.398561835230793804e-07,-4.015395045280456543e-02,-1.051948311214800924e-05,-7.629754691151902080e-06,4.788436314129285165e-10,0.000000000000000000e+00,-6.160142831504344940e-03,1.000000000000000000e+00
2.618730545043945312e+00,2.584277725219726562e+01,-2.303104019165039062e+01,-2.303104019165039062e+01,1.983486860990524292e-02,1.799847717285156250e+02,3.202479774699895643e-06,-1.451327169554872398e-09,1.047324982295094742e-08,-8.316331659443676472e-04,-2.911014007622725330e-08,1.398561835230793804e-07,-4.015395045280456543e-02,-1.051948311214800924e-05,-7.629754691151902080e-06,4.788436314129285165e-10,0.000000000000000000e+00,-6.160142831504344940e-03,1.000000000000000000e+00
2.618730545043945312e+00,2.584277725219726562e+01,-2.303104019165039062e+01,-2.303104019165039062e+01,1.983486860990524292e-02,1.799847717285156250e+02,3.202479774699895643e-06,4.342862736095298715e-10,8.349744007318804506e-09,-4.979739896953105927e-04,3.217576960423684795e-08,-3.623512156991637312e-08,5.693499930202960968e-03,1.726688424241729081e-05,3.798108537012012675e-06,4.122592267563618407e-10,0.000000000000000000e+00,-6.160142831504344940e-03,1.000000000000000000e+00
2.677334070205688477e+00,2.584277725219726562e+01,-2.303104019165039062e+01,-2.303104019165039062e+01,1.983486860990524292e-02,1.799847717285156250e+02,3.202479774699895643e-06,4.342862736095298715e-10,8.349744007318804506e-09,-4.979739896953105927e-04,3.217576960423684795e-08,-3.623512156991637312e-08,5.693499930202960968e-03,1.726688424241729081e-05,3.798108537012012675e-06,4.122592267563618407e-10,0.000000000000000000e+00,-6.160142831504344940e-03,1.000000000000000000e+00
2.677334070205688477e+00,2.584277725219726562e+01,-2.303104019165039062e+01,-2.303104019165039062e+01,1.983486860990524292e-02,1.799847717285156250e+02,3.202479774699895643e-06,4.342862736095298715e-10,8.349744007318804506e-09,-4.979739896953105927e-04,3.217576960423684795e-08,-3.623512156991637312e-08,5.693499930202960968e-03,1.726688424241729081e-05,3.798108537012012675e-06,4.122592267563618407e-10,0.000000000000000000e+00,-6.160142831504344940e-03,1.000000000000000000e+00
2.677334070205688477e+00,2.584277725219726562e+01,-2.303104019165039062e+01,-2.303104019165039062e+01,1.983486860990524292e-02,1.799847717285156250e+02,3.202479774699895643e-06,4.342862736095298715e-10,8.349744007318804506e-09,-4.979739896953105927e-04,3.217576960423684795e-08,-3.623512156991637312e-08,5.693499930202960968e-03,1.726688424241729081e-05,3.798108537012012675e-06,4.122592267563618407e-10,0.000000000000000000e+00,-6.160142831504344940e-03,1.000000000000000000e+00
2.755024909973144531e+00,2.584277725219726562e+01,-2.303104019165039062e+01,-2.303104019165039062e+01,1.983486860990524292e-02,1.799847717285156250e+02,3.202479774699895643e-06,4.604414904907372375e-10,8.703096021633882629e-09,-4.577633226290345192e-04,3.366576739605164903e-10,4.548181387065142189e-09,5.175728001631796360e-04,1.936559601745102555e-05,4.070229806529823691e-06,5.381898815493002530e-10,0.000000000000000000e+00,-6.160142831504344940e-03,1.000000000000000000e+00
2.755024909973144531e+00,2.584277725219726562e+01,-2.303104019165039062e+01,-2.303104019165039062e+01,1.983486860990524292e-02,1.799847717285156250e+02,3.202479774699895643e-06,4.604414904907372375e-10,8.703096021633882629e-09,-4.577633226290345192e-04,3.366576739605164903e-10,4.548181387065142189e-09,5.175728001631796360e-04,1.936559601745102555e-05,4.070229806529823691e-06,5.381898815493002530e-10,0.000000000000000000e+00,-6.160142831504344940e-03,1.000000000000000000e+00
2.755024909973144531e+00,2.584277725219726562e+01,-2.303104019165039062e+01,-2.303104019165039062e+01,1.983486860990524292e-02,1.799847717285156250e+02,3.202479774699895643e-06,4.604414904907372375e-10,8.703096021633882629e-09,-4.577633226290345192e-04,3.366576739605164903e-10,4.548181387065142189e-09,5.175728001631796360e-04,1.936559601745102555e-05,4.070229806529823691e-06,5.381898815493002530e-10,0.000000000000000000e+00,-6.160142831504344940e-03,1.000000000000000000e+00
2.830169916152954102e+00,2.584277725219726562e+01,-2.303104019165039062e+01,-2.303104019165039062e+01,1.983486860990524292e-02,1.799847717285156250e+02,3.202479774699895643e-06,-5.101222222414492080e-10,-6.010049125038108286e-10,-9.132396080531179905e-04,-1.291587814478134533e-08,-1.238152833593630930e-07,-6.061297841370105743e-03,-1.418335813241355936e-07,-5.070486167824128643e-06,-2.849071534249958404e-10,0.000000000000000000e+00,-6.160142831504344940e-03,1.000000000000000000e+00
2.830169916152954102e+00,2.584277725219726562e+01,-2.303104019165039062e+01,-2.303104019165039062e+01,1.983486860990524292e-02,1.799847717285156250e+02,3.202479774699895643e-06,-5.101222222414492080e-10,-6.010049125038108286e-10,-9.132396080531179905e-04,-1.291587814478134533e-08,-1.238152833593630930e-07,-6.061297841370105743e-03,-1.418335813241355936e-07,-5.070486167824128643e-06,-2.849071534249958404e-10,0.000000000000000000e+00,-6.160142831504344940e-03,1.000000000000000000e+00
2.830169916152954102e+00,2.584277725219726562e+01,-2.303104019165039062e+01,-2.303104019165039062e+01,1.983486860990524292e-02,1.799847717285156250e+02,3.202479774699895643e-06,-5.101222222414492080e-10,-6.010049125038108286e-10,-9.132396080531179905e-04,-1.291587814478134533e-08,-1.238152833593630930e-07,-6.061297841370105743e-03,-1.418335813241355936e-07,-5.070486167824128643e-06,-2.849071534249958404e-10,0.000000000000000000e+00,-6.160142831504344940e-03,1.000000000000000000e+00
2.830169916152954102e+00,2.584277725219726562e+01,-2.303104019165039062e+01,-2.303104019165039062e+01,1.983486860990524292e-02,1.799847717285156250e+02,3.202479774699895643e-06,-5.101222222414492080e-10,-6.010049125038108286e-10,-9.132396080531179905e-04,-1.291587814478134533e-08,-1.238152833593630930e-07,-6.061297841370105743e-03,-1.418335813241355936e-07,-5.070486167824128643e-06,-2.849071534249958404e-10,0.000000000000000000e+00,-6.160142831504344940e-03,1.000000000000000000e+00
2.830169916152954102e+00,2.584277725219726562e+01,-2.303104019165039062e+01,-2.303104019165039062e+01,1.983486860990524292e-02,1.799847717285156250e+02,3.202479774699895643e-06,-5.101222222414492080e-10,-6.010049125038108286e-10,-9.132396080531179905e-04,-1.291587814478134533e-08,-1.238152833593630930e-07,-6.061297841370105743e-03,-1.418335813241355936e-07,-5.070486167824128643e-06,-2.849071534249958404e-10,0.000000000000000000e+00,-6.160142831504344940e-03,1.000000000000000000e+00
2.917726278305053711e+00,2.584277725219726562e+01,-2.303104019165039062e+01,-2.303104019165039062e+01,1.983486860990524292e-02,1.799847717285156250e+02,3.202479774699895643e-06,2.036337320987513522e-09,-1.554485962174112501e-08,-4.042971340822987258e-05,2.908365814846547437e-08,-1.706769552356490749e-07,9.968549013137817383e-03,3.004724567290395498e-05,1.232077011081855744e-05,-3.783778568244855478e-10,0.000000000000000000e+00,-6.160142831504344940e-03,1.000000000000000000e+00
