# Time,X,Y,Z,Roll,Pitch,Yaw,Vx,Vy,Vz,Ax,Ay,Az,Wx,Wy,Wz,Throttle,Steer,Brake
0.000000000000000000e+00,-2.982760620117187500e+02,2.507842559814453125e+02,2.507842559814453125e+02,-1.141324546188116074e-02,-2.636108398437500000e-01,1.060681268572807312e-01,1.417474937438964844e+01,-5.459313839673995972e-02,1.741163032420445234e-05,-2.347759604454040527e-01,1.810645312070846558e-01,-1.332923129666596651e-04,6.522851586341857910e-01,-2.284767851233482361e-02,1.204185843467712402e+00,5.000000000000000000e-01,4.591871984302997589e-03,0.000000000000000000e+00
1.045818328857421875e-01,-2.982760620117187500e+02,2.507842559814453125e+02,2.507842559814453125e+02,-1.141324546188116074e-02,-2.636108398437500000e-01,1.060681268572807312e-01,1.417474937438964844e+01,-5.459313839673995972e-02,1.741163032420445234e-05,-2.347759604454040527e-01,1.810645312070846558e-01,-1.332923129666596651e-04,6.522851586341857910e-01,-2.284767851233482361e-02,1.204185843467712402e+00,5.000000000000000000e-01,4.591871984302997589e-03,0.000000000000000000e+00
1.045818328857421875e-01,-2.982760620117187500e+02,2.507842559814453125e+02,2.507842559814453125e+02,-1.141324546188116074e-02,-2.636108398437500000e-01,1.060681268572807312e-01,1.417474937438964844e+01,-5.459313839673995972e-02,1.741163032420445234e-05,-2.347759604454040527e-01,1.810645312070846558e-01,-1.332923129666596651e-04,6.522851586341857910e-01,-2.284767851233482361e-02,1.204185843467712402e+00,5.000000000000000000e-01,4.591871984302997589e-03,0.000000000000000000e+00
1.045818328857421875e-01,-2.982760620117187500e+02,2.507842559814453125e+02,2.507842559814453125e+02,-1.141324546188116074e-02,-2.636108398437500000e-01,1.060681268572807312e-01,1.417474937438964844e+01,-5.459313839673995972e-02,1.741163032420445234e-05,-2.347759604454040527e-01,1.810645312070846558e-01,-1.332923129666596651e-04,6.522851586341857910e-01,-2.284767851233482361e-02,1.204185843467712402e+00,5.000000000000000000e-01,4.591871984302997589e-03,0.000000000000000000e+00
1.045818328857421875e-01,-2.982760620117187500e+02,2.507842559814453125e+02,2.507842559814453125e+02,-1.141324546188116074e-02,-2.636108398437500000e-01,1.060681268572807312e-01,1.417474937438964844e+01,-5.459313839673995972e-02,1.741163032420445234e-05,-2.347759604454040527e-01,1.810645312070846558e-01,-1.332923129666596651e-04,6.522851586341857910e-01,-2.284767851233482361e-02,1.204185843467712402e+00,5.000000000000000000e-01,4.591871984302997589e-03,0.000000000000000000e+00
1.045818328857421875e-01,-2.982760620117187500e+02,2.507842559814453125e+02,2.507842559814453125e+02,-1.141324546188116074e-02,-2.636108398437500000e-01,1.060681268572807312e-01,1.417474937438964844e+01,-5.459313839673995972e-02,1.741163032420445234e-05,-2.347759604454040527e-01,1.810645312070846558e-01,-1.332923129666596651e-04,6.522851586341857910e-01,-2.284767851233482361e-02,1.204185843467712402e+00,5.000000000000000000e-01,4.591871984302997589e-03,0.000000000000000000e+00
1.045818328857421875e-01,-2.968602294921875000e+02,2.507796630859375000e+02,2.507796630859375000e+02,-9.794490411877632141e-03,-1.460876613855361938e-01,5.062939971685409546e-02,1.414584827423095703e+01,-3.001107461750507355e-02,7.113224455679301172e-06,-2.760137617588043213e-01,2.347657233476638794e-01,-9.835271339397877455e-05,4.783082008361816406e-01,-1.445325464010238647e-02,1.161727309226989746e+00,5.000000000000000000e-01,4.096625838428735733e-03,0.000000000000000000e+00
2.092907428741455078e-01,-2.968602294921875000e+02,2.507796630859375000e+02,2.507796630859375000e+02,-9.794490411877632141e-03,-1.460876613855361938e-01,5.062939971685409546e-02,1.414584827423095703e+01,-3.001107461750507355e-02,7.113224455679301172e-06,-2.760137617588043213e-01,2.347657233476638794e-01,-9.835271339397877455e-05,4.783082008361816406e-01,-1.445325464010238647e-02,1.161727309226989746e+00,5.000000000000000000e-01,4.096625838428735733e-03,0.000000000000000000e+00
2.092907428741455078e-01,-2.968602294921875000e+02,2.507796630859375000e+02,2.507796630859375000e+02,-9.794490411877632141e-03,-1.460876613855361938e-01,5.062939971685409546e-02,1.414584827423095703e+01,-3.001107461750507355e-02,7.113224455679301172e-06,-2.760137617588043213e-01,2.347657233476638794e-01,-9.835271339397877455e-05,4.783082008361816406e-01,-1.445325464010238647e-02,1.161727309226989746e+00,5.000000000000000000e-01,4.096625838428735733e-03,0.000000000000000000e+00
2.092907428741455078e-01,-2.968602294921875000e+02,2.507796630859375000e+02,2.507796630859375000e+02,-9.794490411877632141e-03,-1.460876613855361938e-01,5.062939971685409546e-02,1.414584827423095703e+01,-3.001107461750507355e-02,7.113224455679301172e-06,-2.760137617588043213e-01,2.347657233476638794e-01,-9.835271339397877455e-05,4.783082008361816406e-01,-1.445325464010238647e-02,1.161727309226989746e+00,5.000000000000000000e-01,4.096625838428735733e-03,0.000000000000000000e+00
2.092907428741455078e-01,-2.968602294921875000e+02,2.507796630859375000e+02,2.507796630859375000e+02,-9.794490411877632141e-03,-1.460876613855361938e-01,5.062939971685409546e-02,1.414584827423095703e+01,-3.001107461750507355e-02,7.113224455679301172e-06,-2.760137617588043213e-01,2.347657233476638794e-01,-9.835271339397877455e-05,4.783082008361816406e-01,-1.445325464010238647e-02,1.161727309226989746e+00,5.000000000000000000e-01,4.096625838428735733e-03,0.000000000000000000e+00
2.092907428741455078e-01,-2.954577026367187500e+02,2.507769317626953125e+02,2.507769317626953125e+02,-5.176600068807601929e-02,-6.021118164062500000e-02,2.048430405557155609e-02,1.382367515563964844e+01,-1.653788611292839050e-02,-1.697257403066032566e-06,-4.317599296569824219e+00,1.805607825517654419e-01,-1.180735634989105165e-04,2.481351494789123535e-01,1.078760623931884766e+00,7.477657198905944824e-01,5.000000000000000000e-01,1.962003996595740318e-03,0.000000000000000000e+00
2.839093208312988281e-01,-2.954577026367187500e+02,2.507769317626953125e+02,2.507769317626953125e+02,-5.176600068807601929e-02,-6.021118164062500000e-02,2.048430405557155609e-02,1.382367515563964844e+01,-1.653788611292839050e-02,-1.697257403066032566e-06,-4.317599296569824219e+00,1.805607825517654419e-01,-1.180735634989105165e-04,2.481351494789123535e-01,1.078760623931884766e+00,7.477657198905944824e-01,5.000000000000000000e-01,1.962003996595740318e-03,0.000000000000000000e+00
2.839093208312988281e-01,-2.954577026367187500e+02,2.507769317626953125e+02,2.507769317626953125e+02,-5.176600068807601929e-02,-6.021118164062500000e-02,2.048430405557155609e-02,1.382367515563964844e+01,-1.653788611292839050e-02,-1.697257403066032566e-06,-4.317599296569824219e+00,1.805607825517654419e-01,-1.180735634989105165e-04,2.481351494789123535e-01,1.078760623931884766e+00,7.477657198905944824e-01,5.000000000000000000e-01,1.962003996595740318e-03,0.000000000000000000e+00
2.839093208312988281e-01,-2.954577026367187500e+02,2.507769317626953125e+02,2.507769317626953125e+02,-5.176600068807601929e-02,-6.021118164062500000e-02,2.048430405557155609e-02,1.382367515563964844e+01,-1.653788611292839050e-02,-1.697257403066032566e-06,-4.317599296569824219e+00,1.805607825517654419e-01,-1.180735634989105165e-04,2.481351494789123535e-01,1.078760623931884766e+00,7.477657198905944824e-01,5.000000000000000000e-01,1.962003996595740318e-03,0.000000000000000000e+00
2.839093208312988281e-01,-2.954577026367187500e+02,2.507769317626953125e+02,2.507769317626953125e+02,-5.176600068807601929e-02,-6.021118164062500000e-02,2.048430405557155609e-02,1.382367515563964844e+01,-1.653788611292839050e-02,-1.697257403066032566e-06,-4.317599296569824219e+00,1.805607825517654419e-01,-1.180735634989105165e-04,2.481351494789123535e-01,1.078760623931884766e+00,7.477657198905944824e-01,5.000000000000000000e-01,1.962003996595740318e-03,0.000000000000000000e+00
3.569011688232421875e-01,-2.944434204101562500e+02,2.507756195068359375e+02,2.507756195068359375e+02,-1.290564239025115967e-01,-2.462768368422985077e-02,9.976273402571678162e-03,1.347094535827636719e+01,-1.279959548264741898e-02,-1.063188119587721303e-05,-4.832454681396484375e+00,5.121517926454544067e-02,-1.224057778017595410e-04,1.187735423445701599e-01,8.910214900970458984e-01,3.427077531814575195e-01,1.000000000000000000e+00,1.420318003511056304e-04,0.000000000000000000e+00
3.569011688232421875e-01,-2.944434204101562500e+02,2.507756195068359375e+02,2.507756195068359375e+02,-1.290564239025115967e-01,-2.462768368422985077e-02,9.976273402571678162e-03,1.347094535827636719e+01,-1.279959548264741898e-02,-1.063188119587721303e-05,-4.832454681396484375e+00,5.121517926454544067e-02,-1.224057778017595410e-04,1.187735423445701599e-01,8.910214900970458984e-01,3.427077531814575195e-01,1.000000000000000000e+00,1.420318003511056304e-04,0.000000000000000000e+00
3.569011688232421875e-01,-2.944434204101562500e+02,2.507756195068359375e+02,2.507756195068359375e+02,-1.290564239025115967e-01,-2.462768368422985077e-02,9.976273402571678162e-03,1.347094535827636719e+01,-1.279959548264741898e-02,-1.063188119587721303e-05,-4.832454681396484375e+00,5.121517926454544067e-02,-1.224057778017595410e-04,1.187735423445701599e-01,8.910214900970458984e-01,3.427077531814575195e-01,1.000000000000000000e+00,1.420318003511056304e-04,0.000000000000000000e+00
3.569011688232421875e-01,-2.944434204101562500e+02,2.507756195068359375e+02,2.507756195068359375e+02,-1.290564239025115967e-01,-2.462768368422985077e-02,9.976273402571678162e-03,1.347094535827636719e+01,-1.279959548264741898e-02,-1.063188119587721303e-05,-4.832454681396484375e+00,5.121517926454544067e-02,-1.224057778017595410e-04,1.187735423445701599e-01,8.910214900970458984e-01,3.427077531814575195e-01,1.000000000000000000e+00,1.420318003511056304e-04,0.000000000000000000e+00
4.765405654907226562e-01,-2.934694519042968750e+02,2.507747344970703125e+02,2.507747344970703125e+02,-1.639723479747772217e-01,-1.385497953742742538e-02,4.558606538921594620e-03,1.328713130950927734e+01,-1.076826639473438263e-02,-1.047935074893757701e-05,-1.536400675773620605e+00,1.697876490652561188e-02,1.274918304261518642e-06,5.955589935183525085e-02,1.942352801561355591e-01,4.977056011557579041e-02,1.000000000000000000e+00,-5.326255341060459614e-04,0.000000000000000000e+00
4.765405654907226562e-01,-2.934694519042968750e+02,2.507747344970703125e+02,2.507747344970703125e+02,-1.639723479747772217e-01,-1.385497953742742538e-02,4.558606538921594620e-03,1.328713130950927734e+01,-1.076826639473438263e-02,-1.047935074893757701e-05,-1.536400675773620605e+00,1.697876490652561188e-02,1.274918304261518642e-06,5.955589935183525085e-02,1.942352801561355591e-01,4.977056011557579041e-02,1.000000000000000000e+00,-5.326255341060459614e-04,0.000000000000000000e+00
4.765405654907226562e-01,-2.934694519042968750e+02,2.507747344970703125e+02,2.507747344970703125e+02,-1.639723479747772217e-01,-1.385497953742742538e-02,4.558606538921594620e-03,1.328713130950927734e+01,-1.076826639473438263e-02,-1.047935074893757701e-05,-1.536400675773620605e+00,1.697876490652561188e-02,1.274918304261518642e-06,5.955589935183525085e-02,1.942352801561355591e-01,4.977056011557579041e-02,1.000000000000000000e+00,-5.326255341060459614e-04,0.000000000000000000e+00
4.765405654907226562e-01,-2.934694519042968750e+02,2.507747344970703125e+02,2.507747344970703125e+02,-1.639723479747772217e-01,-1.385497953742742538e-02,4.558606538921594620e-03,1.328713130950927734e+01,-1.076826639473438263e-02,-1.047935074893757701e-05,-1.536400675773620605e+00,1.697876490652561188e-02,1.274918304261518642e-06,5.955589935183525085e-02,1.942352801561355591e-01,4.977056011557579041e-02,1.000000000000000000e+00,-5.326255341060459614e-04,0.000000000000000000e+00
4.765405654907226562e-01,-2.934694519042968750e+02,2.507747344970703125e+02,2.507747344970703125e+02,-1.639723479747772217e-01,-1.385497953742742538e-02,4.558606538921594620e-03,1.328713130950927734e+01,-1.076826639473438263e-02,-1.047935074893757701e-05,-1.536400675773620605e+00,1.697876490652561188e-02,1.274918304261518642e-06,5.955589935183525085e-02,1.942352801561355591e-01,4.977056011557579041e-02,1.000000000000000000e+00,-5.326255341060459614e-04,0.000000000000000000e+00
4.765405654907226562e-01,-2.934694519042968750e+02,2.507747344970703125e+02,2.507747344970703125e+02,-1.639723479747772217e-01,-1.385497953742742538e-02,4.558606538921594620e-03,1.328713130950927734e+01,-1.076826639473438263e-02,-1.047935074893757701e-05,-1.536400675773620605e+00,1.697876490652561188e-02,1.274918304261518642e-06,5.955589935183525085e-02,1.942352801561355591e-01,4.977056011557579041e-02,1.000000000000000000e+00,-5.326255341060459614e-04,0.000000000000000000e+00
4.765405654907226562e-01,-2.934694519042968750e+02,2.507747344970703125e+02,2.507747344970703125e+02,-1.639723479747772217e-01,-1.385497953742742538e-02,4.558606538921594620e-03,1.328713130950927734e+01,-1.076826639473438263e-02,-1.047935074893757701e-05,-1.536400675773620605e+00,1.697876490652561188e-02,1.274918304261518642e-06,5.955589935183525085e-02,1.942352801561355591e-01,4.977056011557579041e-02,1.000000000000000000e+00,-5.326255341060459614e-04,0.000000000000000000e+00
6.200885772705078125e-01,-2.921439208984375000e+02,2.507736511230468750e+02,2.507736511230468750e+02,-1.371501982212066650e-01,-2.722167968750000000e-02,3.268585540354251862e-03,1.325883388519287109e+01,-1.275431644171476364e-02,5.034561127104097977e-06,-1.971286386251449585e-01,-1.383544132113456726e-02,1.080747242667712271e-04,-4.247853998094797134e-03,-5.353055596351623535e-01,-2.169564813375473022e-01,1.000000000000000000e+00,-1.095701591111719608e-03,0.000000000000000000e+00
6.200885772705078125e-01,-2.921439208984375000e+02,2.507736511230468750e+02,2.507736511230468750e+02,-1.371501982212066650e-01,-2.722167968750000000e-02,3.268585540354251862e-03,1.325883388519287109e+01,-1.275431644171476364e-02,5.034561127104097977e-06,-1.971286386251449585e-01,-1.383544132113456726e-02,1.080747242667712271e-04,-4.247853998094797134e-03,-5.353055596351623535e-01,-2.169564813375473022e-01,1.000000000000000000e+00,-1.095701591111719608e-03,0.000000000000000000e+00
6.200885772705078125e-01,-2.921439208984375000e+02,2.507736511230468750e+02,2.507736511230468750e+02,-1.371501982212066650e-01,-2.722167968750000000e-02,3.268585540354251862e-03,1.325883388519287109e+01,-1.275431644171476364e-02,5.034561127104097977e-06,-1.971286386251449585e-01,-1.383544132113456726e-02,1.080747242667712271e-04,-4.247853998094797134e-03,-5.353055596351623535e-01,-2.169564813375473022e-01,1.000000000000000000e+00,-1.095701591111719608e-03,0.000000000000000000e+00
6.200885772705078125e-01,-2.921439208984375000e+02,2.507736511230468750e+02,2.507736511230468750e+02,-1.371501982212066650e-01,-2.722167968750000000e-02,3.268585540354251862e-03,1.325883388519287109e+01,-1.275431644171476364e-02,5.034561127104097977e-06,-1.971286386251449585e-01,-1.383544132113456726e-02,1.080747242667712271e-04,-4.247853998094797134e-03,-5.353055596351623535e-01,-2.169564813375473022e-01,1.000000000000000000e+00,-1.095701591111719608e-03,0.000000000000000000e+00
6.200885772705078125e-01,-2.921439208984375000e+02,2.507736511230468750e+02,2.507736511230468750e+02,-1.371501982212066650e-01,-2.722167968750000000e-02,3.268585540354251862e-03,1.325883388519287109e+01,-1.275431644171476364e-02,5.034561127104097977e-06,-1.971286386251449585e-01,-1.383544132113456726e-02,1.080747242667712271e-04,-4.247853998094797134e-03,-5.353055596351623535e-01,-2.169564813375473022e-01,1.000000000000000000e+00,-1.095701591111719608e-03,0.000000000000000000e+00
6.200885772705078125e-01,-2.921439208984375000e+02,2.507736511230468750e+02,2.507736511230468750e+02,-1.371501982212066650e-01,-2.722167968750000000e-02,3.268585540354251862e-03,1.325883388519287109e+01,-1.275431644171476364e-02,5.034561127104097977e-06,-1.971286386251449585e-01,-1.383544132113456726e-02,1.080747242667712271e-04,-4.247853998094797134e-03,-5.353055596351623535e-01,-2.169564813375473022e-01,1.000000000000000000e+00,-1.095701591111719608e-03,0.000000000000000000e+00
7.946169376373291016e-01,-2.908105163574218750e+02,2.507723388671875000e+02,2.507723388671875000e+02,-6.530343741178512573e-02,-5.456542596220970154e-02,5.206622183322906494e-03,1.339484977722167969e+01,-1.708104833960533142e-02,1.165195772045990452e-05,7.793340086936950684e-01,-2.479099668562412262e-02,3.791588096646592021e-05,-2.805979363620281219e-02,-7.956580519676208496e-01,-3.005696833133697510e-01,1.000000000000000000e+00,-1.133131794631481171e-03,0.000000000000000000e+00
7.946169376373291016e-01,-2.908105163574218750e+02,2.507723388671875000e+02,2.507723388671875000e+02,-6.530343741178512573e-02,-5.456542596220970154e-02,5.206622183322906494e-03,1.339484977722167969e+01,-1.708104833960533142e-02,1.165195772045990452e-05,7.793340086936950684e-01,-2.479099668562412262e-02,3.791588096646592021e-05,-2.805979363620281219e-02,-7.956580519676208496e-01,-3.005696833133697510e-01,1.000000000000000000e+00,-1.133131794631481171e-03,0.000000000000000000e+00
7.946169376373291016e-01,-2.908105163574218750e+02,2.507723388671875000e+02,2.507723388671875000e+02,-6.530343741178512573e-02,-5.456542596220970154e-02,5.206622183322906494e-03,1.339484977722167969e+01,-1.708104833960533142e-02,1.165195772045990452e-05,7.793340086936950684e-01,-2.479099668562412262e-02,3.791588096646592021e-05,-2.805979363620281219e-02,-7.956580519676208496e-01,-3.005696833133697510e-01,1.000000000000000000e+00,-1.133131794631481171e-03,0.000000000000000000e+00
7.946169376373291016e-01,-2.908105163574218750e+02,2.507723388671875000e+02,2.507723388671875000e+02,-6.530343741178512573e-02,-5.456542596220970154e-02,5.206622183322906494e-03,1.339484977722167969e+01,-1.708104833960533142e-02,1.165195772045990452e-05,7.793340086936950684e-01,-2.479099668562412262e-02,3.791588096646592021e-05,-2.805979363620281219e-02,-7.956580519676208496e-01,-3.005696833133697510e-01,1.000000000000000000e+00,-1.133131794631481171e-03,0.000000000000000000e+00
8.783230781555175781e-01,-2.894575195312500000e+02,2.507705993652343750e+02,2.507705993652343750e+02,1.521766092628240585e-02,-8.255004137754440308e-02,7.287118583917617798e-03,1.362404060363769531e+01,-2.163156308233737946e-02,4.119186542084207758e-06,2.738040924072265625e+00,-5.436297506093978882e-02,-8.999066631076857448e-05,-2.465591579675674438e-02,-7.890588641166687012e-01,-2.732119560241699219e-01,1.000000000000000000e+00,-8.516554953530430794e-04,0.000000000000000000e+00
8.783230781555175781e-01,-2.894575195312500000e+02,2.507705993652343750e+02,2.507705993652343750e+02,1.521766092628240585e-02,-8.255004137754440308e-02,7.287118583917617798e-03,1.362404060363769531e+01,-2.163156308233737946e-02,4.119186542084207758e-06,2.738040924072265625e+00,-5.436297506093978882e-02,-8.999066631076857448e-05,-2.465591579675674438e-02,-7.890588641166687012e-01,-2.732119560241699219e-01,1.000000000000000000e+00,-8.516554953530430794e-04,0.000000000000000000e+00
9.483780860900878906e-01,-2.883053588867187500e+02,2.507687988281250000e+02,2.507687988281250000e+02,7.550090551376342773e-02,-1.007690429687500000e-01,7.883742451667785645e-03,1.385962390899658203e+01,-2.435062825679779053e-02,-7.227842615975532681e-06,3.362833261489868164e+00,-3.881328925490379333e-02,-1.619731337996199727e-04,-8.149264380335807800e-03,-6.951905488967895508e-01,-1.922264099121093750e-01,1.000000000000000000e+00,-4.173404304310679436e-04,0.000000000000000000e+00
9.483780860900878906e-01,-2.883053588867187500e+02,2.507687988281250000e+02,2.507687988281250000e+02,7.550090551376342773e-02,-1.007690429687500000e-01,7.883742451667785645e-03,1.385962390899658203e+01,-2.435062825679779053e-02,-7.227842615975532681e-06,3.362833261489868164e+00,-3.881328925490379333e-02,-1.619731337996199727e-04,-8.149264380335807800e-03,-6.951905488967895508e-01,-1.922264099121093750e-01,1.000000000000000000e+00,-4.173404304310679436e-04,0.000000000000000000e+00
9.483780860900878906e-01,-2.883053588867187500e+02,2.507687988281250000e+02,2.507687988281250000e+02,7.550090551376342773e-02,-1.007690429687500000e-01,7.883742451667785645e-03,1.385962390899658203e+01,-2.435062825679779053e-02,-7.227842615975532681e-06,3.362833261489868164e+00,-3.881328925490379333e-02,-1.619731337996199727e-04,-8.149264380335807800e-03,-6.951905488967895508e-01,-1.922264099121093750e-01,1.000000000000000000e+00,-4.173404304310679436e-04,0.000000000000000000e+00
9.483780860900878906e-01,-2.883053588867187500e+02,2.507687988281250000e+02,2.507687988281250000e+02,7.550090551376342773e-02,-1.007690429687500000e-01,7.883742451667785645e-03,1.385962390899658203e+01,-2.435062825679779053e-02,-7.227842615975532681e-06,3.362833261489868164e+00,-3.881328925490379333e-02,-1.619731337996199727e-04,-8.149264380335807800e-03,-6.951905488967895508e-01,-1.922264099121093750e-01,1.000000000000000000e+00,-4.173404304310679436e-04,0.000000000000000000e+00
9.483780860900878906e-01,-2.873250122070312500e+02,2.507671051025390625e+02,2.507671051025390625e+02,1.208328679203987122e-01,-1.111144945025444031e-01,7.757232058793306351e-03,1.407639598846435547e+01,-2.614769153296947479e-02,-1.673463884799275547e-05,2.750949144363403320e+00,-2.280565723776817322e-02,-1.206461383844725788e-04,1.128274132497608662e-03,-6.118962764739990234e-01,-1.263504028320312500e-01,1.000000000000000000e+00,-1.477236219216138124e-04,0.000000000000000000e+00
1.027177095413208008e+00,-2.873250122070312500e+02,2.507671051025390625e+02,2.507671051025390625e+02,1.208328679203987122e-01,-1.111144945025444031e-01,7.757232058793306351e-03,1.407639598846435547e+01,-2.614769153296947479e-02,-1.673463884799275547e-05,2.750949144363403320e+00,-2.280565723776817322e-02,-1.206461383844725788e-04,1.128274132497608662e-03,-6.118962764739990234e-01,-1.263504028320312500e-01,1.000000000000000000e+00,-1.477236219216138124e-04,0.000000000000000000e+00
1.027177095413208008e+00,-2.873250122070312500e+02,2.507671051025390625e+02,2.507671051025390625e+02,1.208328679203987122e-01,-1.111144945025444031e-01,7.757232058793306351e-03,1.407639598846435547e+01,-2.614769153296947479e-02,-1.673463884799275547e-05,2.750949144363403320e+00,-2.280565723776817322e-02,-1.206461383844725788e-04,1.128274132497608662e-03,-6.118962764739990234e-01,-1.263504028320312500e-01,1.000000000000000000e+00,-1.477236219216138124e-04,0.000000000000000000e+00
1.095043420791625977e+00,-2.862042236328125000e+02,2.507650604248046875e+02,2.507650604248046875e+02,1.610421985387802124e-01,-1.173400655388832092e-01,6.957984529435634613e-03,1.430366325378417969e+01,-2.740949019789695740e-02,-2.303713881701696664e-05,3.348748683929443359e+00,-1.859241165220737457e-02,-9.286637941841036081e-05,9.342329576611518860e-03,-3.789576590061187744e-01,-5.541241168975830078e-02,5.000000000000000000e-01,7.524256216129288077e-05,0.000000000000000000e+00
1.095043420791625977e+00,-2.862042236328125000e+02,2.507650604248046875e+02,2.507650604248046875e+02,1.610421985387802124e-01,-1.173400655388832092e-01,6.957984529435634613e-03,1.430366325378417969e+01,-2.740949019789695740e-02,-2.303713881701696664e-05,3.348748683929443359e+00,-1.859241165220737457e-02,-9.286637941841036081e-05,9.342329576611518860e-03,-3.789576590061187744e-01,-5.541241168975830078e-02,5.000000000000000000e-01,7.524256216129288077e-05,0.000000000000000000e+00
1.095043420791625977e+00,-2.862042236328125000e+02,2.507650604248046875e+02,2.507650604248046875e+02,1.610421985387802124e-01,-1.173400655388832092e-01,6.957984529435634613e-03,1.430366325378417969e+01,-2.740949019789695740e-02,-2.303713881701696664e-05,3.348748683929443359e+00,-1.859241165220737457e-02,-9.286637941841036081e-05,9.342329576611518860e-03,-3.789576590061187744e-01,-5.541241168975830078e-02,5.000000000000000000e-01,7.524256216129288077e-05,0.000000000000000000e+00
1.095043420791625977e+00,-2.862042236328125000e+02,2.507650604248046875e+02,2.507650604248046875e+02,1.610421985387802124e-01,-1.173400655388832092e-01,6.957984529435634613e-03,1.430366325378417969e+01,-2.740949019789695740e-02,-2.303713881701696664e-05,3.348748683929443359e+00,-1.859241165220737457e-02,-9.286637941841036081e-05,9.342329576611518860e-03,-3.789576590061187744e-01,-5.541241168975830078e-02,5.000000000000000000e-01,7.524256216129288077e-05,0.000000000000000000e+00
1.168572425842285156e+00,-2.852283630371093750e+02,2.507632141113281250e+02,2.507632141113281250e+02,1.712328344583511353e-01,-1.186218112707138062e-01,5.953393876552581787e-03,1.441881561279296875e+01,-2.780329622328281403e-02,-1.889925806608516723e-05,1.566080689430236816e+00,-5.355791188776493073e-03,5.627548671327531338e-05,1.576857827603816986e-02,-1.374528091400861740e-02,2.993518719449639320e-04,5.000000000000000000e-01,2.163135650334879756e-04,0.000000000000000000e+00
1.168572425842285156e+00,-2.852283630371093750e+02,2.507632141113281250e+02,2.507632141113281250e+02,1.712328344583511353e-01,-1.186218112707138062e-01,5.953393876552581787e-03,1.441881561279296875e+01,-2.780329622328281403e-02,-1.889925806608516723e-05,1.566080689430236816e+00,-5.355791188776493073e-03,5.627548671327531338e-05,1.576857827603816986e-02,-1.374528091400861740e-02,2.993518719449639320e-04,5.000000000000000000e-01,2.163135650334879756e-04,0.000000000000000000e+00
1.168572425842285156e+00,-2.852283630371093750e+02,2.507632141113281250e+02,2.507632141113281250e+02,1.712328344583511353e-01,-1.186218112707138062e-01,5.953393876552581787e-03,1.441881561279296875e+01,-2.780329622328281403e-02,-1.889925806608516723e-05,1.566080689430236816e+00,-5.355791188776493073e-03,5.627548671327531338e-05,1.576857827603816986e-02,-1.374528091400861740e-02,2.993518719449639320e-04,5.000000000000000000e-01,2.163135650334879756e-04,0.000000000000000000e+00
1.168572425842285156e+00,-2.852283630371093750e+02,2.507632141113281250e+02,2.507632141113281250e+02,1.712328344583511353e-01,-1.186218112707138062e-01,5.953393876552581787e-03,1.441881561279296875e+01,-2.780329622328281403e-02,-1.889925806608516723e-05,1.566080689430236816e+00,-5.355791188776493073e-03,5.627548671327531338e-05,1.576857827603816986e-02,-1.374528091400861740e-02,2.993518719449639320e-04,5.000000000000000000e-01,2.163135650334879756e-04,0.000000000000000000e+00
1.168572425842285156e+00,-2.841654968261718750e+02,2.507611694335937500e+02,2.507611694335937500e+02,1.586584597826004028e-01,-1.166381761431694031e-01,4.613075405359268188e-03,1.447241687774658203e+01,-2.772528305649757385e-02,-1.051748040481470525e-05,7.142221927642822266e-01,1.039504073560237885e-03,1.116848943638615310e-04,1.923104748129844666e-02,2.768557965755462646e-01,4.088877514004707336e-02,5.000000000000000000e-01,2.644457854330539703e-04,0.000000000000000000e+00
1.243620872497558594e+00,-2.841654968261718750e+02,2.507611694335937500e+02,2.507611694335937500e+02,1.586584597826004028e-01,-1.166381761431694031e-01,4.613075405359268188e-03,1.447241687774658203e+01,-2.772528305649757385e-02,-1.051748040481470525e-05,7.142221927642822266e-01,1.039504073560237885e-03,1.116848943638615310e-04,1.923104748129844666e-02,2.768557965755462646e-01,4.088877514004707336e-02,5.000000000000000000e-01,2.644457854330539703e-04,0.000000000000000000e+00
1.243620872497558594e+00,-2.841654968261718750e+02,2.507611694335937500e+02,2.507611694335937500e+02,1.586584597826004028e-01,-1.166381761431694031e-01,4.613075405359268188e-03,1.447241687774658203e+01,-2.772528305649757385e-02,-1.051748040481470525e-05,7.142221927642822266e-01,1.039504073560237885e-03,1.116848943638615310e-04,1.923104748129844666e-02,2.768557965755462646e-01,4.088877514004707336e-02,5.000000000000000000e-01,2.644457854330539703e-04,0.000000000000000000e+00
1.243620872497558594e+00,-2.841654968261718750e+02,2.507611694335937500e+02,2.507611694335937500e+02,1.586584597826004028e-01,-1.166381761431694031e-01,4.613075405359268188e-03,1.447241687774658203e+01,-2.772528305649757385e-02,-1.051748040481470525e-05,7.142221927642822266e-01,1.039504073560237885e-03,1.116848943638615310e-04,1.923104748129844666e-02,2.768557965755462646e-01,4.088877514004707336e-02,5.000000000000000000e-01,2.644457854330539703e-04,0.000000000000000000e+00
1.312042951583862305e+00,-2.830794067382812500e+02,2.507590942382812500e+02,2.507590942382812500e+02,1.297940760850906372e-01,-1.123351678252220154e-01,3.103386610746383667e-03,1.447004032135009766e+01,-2.707129344344139099e-02,-2.212192384831723757e-06,-3.473376482725143433e-02,9.558166377246379852e-03,1.213831637869589031e-04,2.131589502096176147e-02,4.381110072135925293e-01,6.646256148815155029e-02,5.000000000000000000e-01,2.878321101889014244e-04,0.000000000000000000e+00
1.312042951583862305e+00,-2.830794067382812500e+02,2.507590942382812500e+02,2.507590942382812500e+02,1.297940760850906372e-01,-1.123351678252220154e-01,3.103386610746383667e-03,1.447004032135009766e+01,-2.707129344344139099e-02,-2.212192384831723757e-06,-3.473376482725143433e-02,9.558166377246379852e-03,1.213831637869589031e-04,2.131589502096176147e-02,4.381110072135925293e-01,6.646256148815155029e-02,5.000000000000000000e-01,2.878321101889014244e-04,0.000000000000000000e+00
1.312042951583862305e+00,-2.820909729003906250e+02,2.507572174072265625e+02,2.507572174072265625e+02,9.782196581363677979e-02,-1.079406663775444031e-01,1.971918623894453049e-03,1.443230819702148438e+01,-2.653942443430423737e-02,2.765277031357982196e-06,-5.307923555374145508e-01,7.482007145881652832e-03,7.001998892519623041e-05,1.698872074484825134e-02,4.848584532737731934e-01,6.367734819650650024e-02,5.000000000000000000e-01,1.999002415686845779e-04,0.000000000000000000e+00
1.383129358291625977e+00,-2.820909729003906250e+02,2.507572174072265625e+02,2.507572174072265625e+02,9.782196581363677979e-02,-1.079406663775444031e-01,1.971918623894453049e-03,1.443230819702148438e+01,-2.653942443430423737e-02,2.765277031357982196e-06,-5.307923555374145508e-01,7.482007145881652832e-03,7.001998892519623041e-05,1.698872074484825134e-02,4.848584532737731934e-01,6.367734819650650024e-02,5.000000000000000000e-01,1.999002415686845779e-04,0.000000000000000000e+00
1.383129358291625977e+00,-2.820909729003906250e+02,2.507572174072265625e+02,2.507572174072265625e+02,9.782196581363677979e-02,-1.079406663775444031e-01,1.971918623894453049e-03,1.443230819702148438e+01,-2.653942443430423737e-02,2.765277031357982196e-06,-5.307923555374145508e-01,7.482007145881652832e-03,7.001998892519623041e-05,1.698872074484825134e-02,4.848584532737731934e-01,6.367734819650650024e-02,5.000000000000000000e-01,1.999002415686845779e-04,0.000000000000000000e+00
1.450951814651489258e+00,-2.810678710937500000e+02,2.507553253173828125e+02,2.507553253173828125e+02,6.317241489887237549e-02,-1.036987230181694031e-01,9.396301466040313244e-04,1.436907196044921875e+01,-2.579757384955883026e-02,6.236143235582858324e-06,-9.323790669441223145e-01,1.093812659382820129e-02,5.117576802149415016e-05,1.499024964869022369e-02,4.787690341472625732e-01,5.779398232698440552e-02,5.000000000000000000e-01,1.586511789355427027e-04,0.000000000000000000e+00
1.450951814651489258e+00,-2.810678710937500000e+02,2.507553253173828125e+02,2.507553253173828125e+02,6.317241489887237549e-02,-1.036987230181694031e-01,9.396301466040313244e-04,1.436907196044921875e+01,-2.579757384955883026e-02,6.236143235582858324e-06,-9.323790669441223145e-01,1.093812659382820129e-02,5.117576802149415016e-05,1.499024964869022369e-02,4.787690341472625732e-01,5.779398232698440552e-02,5.000000000000000000e-01,1.586511789355427027e-04,0.000000000000000000e+00
1.450951814651489258e+00,-2.810678710937500000e+02,2.507553253173828125e+02,2.507553253173828125e+02,6.317241489887237549e-02,-1.036987230181694031e-01,9.396301466040313244e-04,1.436907196044921875e+01,-2.579757384955883026e-02,6.236143235582858324e-06,-9.323790669441223145e-01,1.093812659382820129e-02,5.117576802149415016e-05,1.499024964869022369e-02,4.787690341472625732e-01,5.779398232698440552e-02,5.000000000000000000e-01,1.586511789355427027e-04,0.000000000000000000e+00
1.527701377868652344e+00,-2.800965881347656250e+02,2.507535552978515625e+02,2.507535552978515625e+02,3.259366005659103394e-02,-1.005554199218750000e-01,2.727406972553580999e-04,1.429314517974853516e+01,-2.530248649418354034e-02,7.838139026716817170e-06,-9.892796874046325684e-01,6.450686603784561157e-03,2.087302891595754772e-05,9.736948646605014801e-03,4.339279830455780029e-01,4.159535095095634460e-02,5.000000000000000000e-01,6.658179336227476597e-05,0.000000000000000000e+00
1.527701377868652344e+00,-2.800965881347656250e+02,2.507535552978515625e+02,2.507535552978515625e+02,3.259366005659103394e-02,-1.005554199218750000e-01,2.727406972553580999e-04,1.429314517974853516e+01,-2.530248649418354034e-02,7.838139026716817170e-06,-9.892796874046325684e-01,6.450686603784561157e-03,2.087302891595754772e-05,9.736948646605014801e-03,4.339279830455780029e-01,4.159535095095634460e-02,5.000000000000000000e-01,6.658179336227476597e-05,0.000000000000000000e+00
1.527701377868652344e+00,-2.800965881347656250e+02,2.507535552978515625e+02,2.507535552978515625e+02,3.259366005659103394e-02,-1.005554199218750000e-01,2.727406972553580999e-04,1.429314517974853516e+01,-2.530248649418354034e-02,7.838139026716817170e-06,-9.892796874046325684e-01,6.450686603784561157e-03,2.087302891595754772e-05,9.736948646605014801e-03,4.339279830455780029e-01,4.159535095095634460e-02,5.000000000000000000e-01,6.658179336227476597e-05,0.000000000000000000e+00
1.600134611129760742e+00,-2.790043029785156250e+02,2.507516021728515625e+02,2.507516021728515625e+02,1.488981186412274837e-03,-9.808349609375000000e-02,-2.441406250000000000e-04,1.419527721405029297e+01,-2.474686503410339355e-02,7.351700332947075367e-06,-1.351147294044494629e+00,7.670808583498001099e-03,-6.715683866787003353e-06,6.759513169527053833e-03,3.737225234508514404e-01,2.763320505619049072e-02,5.000000000000000000e-01,2.232928272860590369e-05,0.000000000000000000e+00
1.600134611129760742e+00,-2.790043029785156250e+02,2.507516021728515625e+02,2.507516021728515625e+02,1.488981186412274837e-03,-9.808349609375000000e-02,-2.441406250000000000e-04,1.419527721405029297e+01,-2.474686503410339355e-02,7.351700332947075367e-06,-1.351147294044494629e+00,7.670808583498001099e-03,-6.715683866787003353e-06,6.759513169527053833e-03,3.737225234508514404e-01,2.763320505619049072e-02,5.000000000000000000e-01,2.232928272860590369e-05,0.000000000000000000e+00
1.600134611129760742e+00,-2.790043029785156250e+02,2.507516021728515625e+02,2.507516021728515625e+02,1.488981186412274837e-03,-9.808349609375000000e-02,-2.441406250000000000e-04,1.419527721405029297e+01,-2.474686503410339355e-02,7.351700332947075367e-06,-1.351147294044494629e+00,7.670808583498001099e-03,-6.715683866787003353e-06,6.759513169527053833e-03,3.737225234508514404e-01,2.763320505619049072e-02,5.000000000000000000e-01,2.232928272860590369e-05,0.000000000000000000e+00
1.600134611129760742e+00,-2.790043029785156250e+02,2.507516021728515625e+02,2.507516021728515625e+02,1.488981186412274837e-03,-9.808349609375000000e-02,-2.441406250000000000e-04,1.419527721405029297e+01,-2.474686503410339355e-02,7.351700332947075367e-06,-1.351147294044494629e+00,7.670808583498001099e-03,-6.715683866787003353e-06,6.759513169527053833e-03,3.737225234508514404e-01,2.763320505619049072e-02,5.000000000000000000e-01,2.232928272860590369e-05,0.000000000000000000e+00
1.600134611129760742e+00,-2.790043029785156250e+02,2.507516021728515625e+02,2.507516021728515625e+02,1.488981186412274837e-03,-9.808349609375000000e-02,-2.441406250000000000e-04,1.419527721405029297e+01,-2.474686503410339355e-02,7.351700332947075367e-06,-1.351147294044494629e+00,7.670808583498001099e-03,-6.715683866787003353e-06,6.759513169527053833e-03,3.737225234508514404e-01,2.763320505619049072e-02,5.000000000000000000e-01,2.232928272860590369e-05,0.000000000000000000e+00
1.600134611129760742e+00,-2.779805908203125000e+02,2.507498321533203125e+02,2.507498321533203125e+02,-2.236886881291866302e-02,-9.686279296875000000e-02,-4.577637009788304567e-04,1.409541130065917969e+01,-2.446513622999191284e-02,6.369621587509755045e-06,-8.655477762222290039e-01,2.441771328449249268e-03,-8.511773557984270155e-06,2.546700881794095039e-03,3.050657808780670166e-01,1.204537414014339447e-02,5.000000000000000000e-01,-4.353118856670334935e-05,0.000000000000000000e+00
1.715513467788696289e+00,-2.779805908203125000e+02,2.507498321533203125e+02,2.507498321533203125e+02,-2.236886881291866302e-02,-9.686279296875000000e-02,-4.577637009788304567e-04,1.409541130065917969e+01,-2.446513622999191284e-02,6.369621587509755045e-06,-8.655477762222290039e-01,2.441771328449249268e-03,-8.511773557984270155e-06,2.546700881794095039e-03,3.050657808780670166e-01,1.204537414014339447e-02,5.000000000000000000e-01,-4.353118856670334935e-05,0.000000000000000000e+00
1.715513467788696289e+00,-2.779805908203125000e+02,2.507498321533203125e+02,2.507498321533203125e+02,-2.236886881291866302e-02,-9.686279296875000000e-02,-4.577637009788304567e-04,1.409541130065917969e+01,-2.446513622999191284e-02,6.369621587509755045e-06,-8.655477762222290039e-01,2.441771328449249268e-03,-8.511773557984270155e-06,2.546700881794095039e-03,3.050657808780670166e-01,1.204537414014339447e-02,5.000000000000000000e-01,-4.353118856670334935e-05,0.000000000000000000e+00
1.715513467788696289e+00,-2.779805908203125000e+02,2.507498321533203125e+02,2.507498321533203125e+02,-2.236886881291866302e-02,-9.686279296875000000e-02,-4.577637009788304567e-04,1.409541130065917969e+01,-2.446513622999191284e-02,6.369621587509755045e-06,-8.655477762222290039e-01,2.441771328449249268e-03,-8.511773557984270155e-06,2.546700881794095039e-03,3.050657808780670166e-01,1.204537414014339447e-02,5.000000000000000000e-01,-4.353118856670334935e-05,0.000000000000000000e+00
1.813115119934082031e+00,-2.765795898437500000e+02,2.507473754882812500e+02,2.507473754882812500e+02,-4.865143448114395142e-02,-9.671018272638320923e-02,-4.272460355423390865e-04,1.395098590850830078e+01,-2.426464669406414032e-02,5.549459274334367365e-06,-1.479743361473083496e+00,2.054161392152309418e-03,-8.403160791203845292e-06,-1.631373743293806911e-04,2.254587411880493164e-01,-3.149862634018063545e-03,5.000000000000000000e-01,-8.588603668613359332e-05,0.000000000000000000e+00
1.813115119934082031e+00,-2.765795898437500000e+02,2.507473754882812500e+02,2.507473754882812500e+02,-4.865143448114395142e-02,-9.671018272638320923e-02,-4.272460355423390865e-04,1.395098590850830078e+01,-2.426464669406414032e-02,5.549459274334367365e-06,-1.479743361473083496e+00,2.054161392152309418e-03,-8.403160791203845292e-06,-1.631373743293806911e-04,2.254587411880493164e-01,-3.149862634018063545e-03,5.000000000000000000e-01,-8.588603668613359332e-05,0.000000000000000000e+00
1.813115119934082031e+00,-2.765795898437500000e+02,2.507473754882812500e+02,2.507473754882812500e+02,-4.865143448114395142e-02,-9.671018272638320923e-02,-4.272460355423390865e-04,1.395098590850830078e+01,-2.426464669406414032e-02,5.549459274334367365e-06,-1.479743361473083496e+00,2.054161392152309418e-03,-8.403160791203845292e-06,-1.631373743293806911e-04,2.254587411880493164e-01,-3.149862634018063545e-03,5.000000000000000000e-01,-8.588603668613359332e-05,0.000000000000000000e+00
1.813115119934082031e+00,-2.765795898437500000e+02,2.507473754882812500e+02,2.507473754882812500e+02,-4.865143448114395142e-02,-9.671018272638320923e-02,-4.272460355423390865e-04,1.395098590850830078e+01,-2.426464669406414032e-02,5.549459274334367365e-06,-1.479743361473083496e+00,2.054161392152309418e-03,-8.403160791203845292e-06,-1.631373743293806911e-04,2.254587411880493164e-01,-3.149862634018063545e-03,5.000000000000000000e-01,-8.588603668613359332e-05,0.000000000000000000e+00
1.896134853363037109e+00,-2.752263488769531250e+02,2.507450408935546875e+02,2.507450408935546875e+02,-6.658750772476196289e-02,-9.759519994258880615e-02,-2.441406104480847716e-04,1.380682182312011719e+01,-2.423639222979545593e-02,1.935643922479357570e-06,-1.736503839492797852e+00,3.403343143872916698e-04,-4.352959513198584318e-05,-1.729608164168894291e-03,1.577141582965850830e-01,-1.169640198349952698e-02,5.000000000000000000e-01,-1.108875221689231694e-04,0.000000000000000000e+00
1.896134853363037109e+00,-2.752263488769531250e+02,2.507450408935546875e+02,2.507450408935546875e+02,-6.658750772476196289e-02,-9.759519994258880615e-02,-2.441406104480847716e-04,1.380682182312011719e+01,-2.423639222979545593e-02,1.935643922479357570e-06,-1.736503839492797852e+00,3.403343143872916698e-04,-4.352959513198584318e-05,-1.729608164168894291e-03,1.577141582965850830e-01,-1.169640198349952698e-02,5.000000000000000000e-01,-1.108875221689231694e-04,0.000000000000000000e+00
1.896134853363037109e+00,-2.752263488769531250e+02,2.507450408935546875e+02,2.507450408935546875e+02,-6.658750772476196289e-02,-9.759519994258880615e-02,-2.441406104480847716e-04,1.380682182312011719e+01,-2.423639222979545593e-02,1.935643922479357570e-06,-1.736503839492797852e+00,3.403343143872916698e-04,-4.352959513198584318e-05,-1.729608164168894291e-03,1.577141582965850830e-01,-1.169640198349952698e-02,5.000000000000000000e-01,-1.108875221689231694e-04,0.000000000000000000e+00
1.896134853363037109e+00,-2.752263488769531250e+02,2.507450408935546875e+02,2.507450408935546875e+02,-6.658750772476196289e-02,-9.759519994258880615e-02,-2.441406104480847716e-04,1.380682182312011719e+01,-2.423639222979545593e-02,1.935643922479357570e-06,-1.736503839492797852e+00,3.403343143872916698e-04,-4.352959513198584318e-05,-1.729608164168894291e-03,1.577141582965850830e-01,-1.169640198349952698e-02,5.000000000000000000e-01,-1.108875221689231694e-04,0.000000000000000000e+00
1.896134853363037109e+00,-2.752263488769531250e+02,2.507450408935546875e+02,2.507450408935546875e+02,-6.658750772476196289e-02,-9.759519994258880615e-02,-2.441406104480847716e-04,1.380682182312011719e+01,-2.423639222979545593e-02,1.935643922479357570e-06,-1.736503839492797852e+00,3.403343143872916698e-04,-4.352959513198584318e-05,-1.729608164168894291e-03,1.577141582965850830e-01,-1.169640198349952698e-02,5.000000000000000000e-01,-1.108875221689231694e-04,0.000000000000000000e+00
1.896134853363037109e+00,-2.752263488769531250e+02,2.507450408935546875e+02,2.507450408935546875e+02,-6.658750772476196289e-02,-9.759519994258880615e-02,-2.441406104480847716e-04,1.380682182312011719e+01,-2.423639222979545593e-02,1.935643922479357570e-06,-1.736503839492797852e+00,3.403343143872916698e-04,-4.352959513198584318e-05,-1.729608164168894291e-03,1.577141582965850830e-01,-1.169640198349952698e-02,5.000000000000000000e-01,-1.108875221689231694e-04,0.000000000000000000e+00
1.896134853363037109e+00,-2.752263488769531250e+02,2.507450408935546875e+02,2.507450408935546875e+02,-6.658750772476196289e-02,-9.759519994258880615e-02,-2.441406104480847716e-04,1.380682182312011719e+01,-2.423639222979545593e-02,1.935643922479357570e-06,-1.736503839492797852e+00,3.403343143872916698e-04,-4.352959513198584318e-05,-1.729608164168894291e-03,1.577141582965850830e-01,-1.169640198349952698e-02,5.000000000000000000e-01,-1.108875221689231694e-04,0.000000000000000000e+00
2.195794820785522461e+00,-2.715008239746093750e+02,2.507383575439453125e+02,2.507383575439453125e+02,-3.298981115221977234e-03,-1.045837253332138062e-01,4.624259599950164557e-04,1.386800479888916016e+01,-2.524353191256523132e-02,3.833210485026938841e-06,2.156563758850097656e+00,-9.329281747341156006e-03,-7.042923243716359138e-05,-4.610984120517969131e-03,-4.309055507183074951e-01,-3.356757014989852905e-02,1.000000000000000000e+00,-5.721566776628606021e-05,0.000000000000000000e+00
2.195794820785522461e+00,-2.715008239746093750e+02,2.507383575439453125e+02,2.507383575439453125e+02,-3.298981115221977234e-03,-1.045837253332138062e-01,4.624259599950164557e-04,1.386800479888916016e+01,-2.524353191256523132e-02,3.833210485026938841e-06,2.156563758850097656e+00,-9.329281747341156006e-03,-7.042923243716359138e-05,-4.610984120517969131e-03,-4.309055507183074951e-01,-3.356757014989852905e-02,1.000000000000000000e+00,-5.721566776628606021e-05,0.000000000000000000e+00
2.195794820785522461e+00,-2.715008239746093750e+02,2.507383575439453125e+02,2.507383575439453125e+02,-3.298981115221977234e-03,-1.045837253332138062e-01,4.624259599950164557e-04,1.386800479888916016e+01,-2.524353191256523132e-02,3.833210485026938841e-06,2.156563758850097656e+00,-9.329281747341156006e-03,-7.042923243716359138e-05,-4.610984120517969131e-03,-4.309055507183074951e-01,-3.356757014989852905e-02,1.000000000000000000e+00,-5.721566776628606021e-05,0.000000000000000000e+00
2.195794820785522461e+00,-2.715008239746093750e+02,2.507383575439453125e+02,2.507383575439453125e+02,-3.298981115221977234e-03,-1.045837253332138062e-01,4.624259599950164557e-04,1.386800479888916016e+01,-2.524353191256523132e-02,3.833210485026938841e-06,2.156563758850097656e+00,-9.329281747341156006e-03,-7.042923243716359138e-05,-4.610984120517969131e-03,-4.309055507183074951e-01,-3.356757014989852905e-02,1.000000000000000000e+00,-5.721566776628606021e-05,0.000000000000000000e+00
2.195794820785522461e+00,-2.715008239746093750e+02,2.507383575439453125e+02,2.507383575439453125e+02,-3.298981115221977234e-03,-1.045837253332138062e-01,4.624259599950164557e-04,1.386800479888916016e+01,-2.524353191256523132e-02,3.833210485026938841e-06,2.156563758850097656e+00,-9.329281747341156006e-03,-7.042923243716359138e-05,-4.610984120517969131e-03,-4.309055507183074951e-01,-3.356757014989852905e-02,1.000000000000000000e+00,-5.721566776628606021e-05,0.000000000000000000e+00
2.195794820785522461e+00,-2.715008239746093750e+02,2.507383575439453125e+02,2.507383575439453125e+02,-3.298981115221977234e-03,-1.045837253332138062e-01,4.624259599950164557e-04,1.386800479888916016e+01,-2.524353191256523132e-02,3.833210485026938841e-06,2.156563758850097656e+00,-9.329281747341156006e-03,-7.042923243716359138e-05,-4.610984120517969131e-03,-4.309055507183074951e-01,-3.356757014989852905e-02,1.000000000000000000e+00,-5.721566776628606021e-05,0.000000000000000000e+00
2.195794820785522461e+00,-2.715008239746093750e+02,2.507383575439453125e+02,2.507383575439453125e+02,-3.298981115221977234e-03,-1.045837253332138062e-01,4.624259599950164557e-04,1.386800479888916016e+01,-2.524353191256523132e-02,3.833210485026938841e-06,2.156563758850097656e+00,-9.329281747341156006e-03,-7.042923243716359138e-05,-4.610984120517969131e-03,-4.309055507183074951e-01,-3.356757014989852905e-02,1.000000000000000000e+00,-5.721566776628606021e-05,0.000000000000000000e+00
2.195794820785522461e+00,-2.715008239746093750e+02,2.507383575439453125e+02,2.507383575439453125e+02,-3.298981115221977234e-03,-1.045837253332138062e-01,4.624259599950164557e-04,1.386800479888916016e+01,-2.524353191256523132e-02,3.833210485026938841e-06,2.156563758850097656e+00,-9.329281747341156006e-03,-7.042923243716359138e-05,-4.610984120517969131e-03,-4.309055507183074951e-01,-3.356757014989852905e-02,1.000000000000000000e+00,-5.721566776628606021e-05,0.000000000000000000e+00
2.195794820785522461e+00,-2.715008239746093750e+02,2.507383575439453125e+02,2.507383575439453125e+02,-3.298981115221977234e-03,-1.045837253332138062e-01,4.624259599950164557e-04,1.386800479888916016e+01,-2.524353191256523132e-02,3.833210485026938841e-06,2.156563758850097656e+00,-9.329281747341156006e-03,-7.042923243716359138e-05,-4.610984120517969131e-03,-4.309055507183074951e-01,-3.356757014989852905e-02,1.000000000000000000e+00,-5.721566776628606021e-05,0.000000000000000000e+00
2.195794820785522461e+00,-2.715008239746093750e+02,2.507383575439453125e+02,2.507383575439453125e+02,-3.298981115221977234e-03,-1.045837253332138062e-01,4.624259599950164557e-04,1.386800479888916016e+01,-2.524353191256523132e-02,3.833210485026938841e-06,2.156563758850097656e+00,-9.329281747341156006e-03,-7.042923243716359138e-05,-4.610984120517969131e-03,-4.309055507183074951e-01,-3.356757014989852905e-02,1.000000000000000000e+00,-5.721566776628606021e-05,0.000000000000000000e+00
2.374083757400512695e+00,-2.707652587890625000e+02,2.507370300292968750e+02,2.507370300292968750e+02,6.953132338821887970e-03,-1.055908203125000000e-01,5.214923294261097908e-04,1.385303592681884766e+01,-2.522683516144752502e-02,6.770188747395877726e-07,-8.395849913358688354e-02,9.364995639771223068e-05,-1.770267772371880710e-05,-6.738925585523247719e-04,-1.007108241319656372e-01,-1.262878440320491791e-02,1.000000000000000000e+00,1.878408511402085423e-05,0.000000000000000000e+00
2.374083757400512695e+00,-2.707652587890625000e+02,2.507370300292968750e+02,2.507370300292968750e+02,6.953132338821887970e-03,-1.055908203125000000e-01,5.214923294261097908e-04,1.385303592681884766e+01,-2.522683516144752502e-02,6.770188747395877726e-07,-8.395849913358688354e-02,9.364995639771223068e-05,-1.770267772371880710e-05,-6.738925585523247719e-04,-1.007108241319656372e-01,-1.262878440320491791e-02,1.000000000000000000e+00,1.878408511402085423e-05,0.000000000000000000e+00
2.374083757400512695e+00,-2.707652587890625000e+02,2.507370300292968750e+02,2.507370300292968750e+02,6.953132338821887970e-03,-1.055908203125000000e-01,5.214923294261097908e-04,1.385303592681884766e+01,-2.522683516144752502e-02,6.770188747395877726e-07,-8.395849913358688354e-02,9.364995639771223068e-05,-1.770267772371880710e-05,-6.738925585523247719e-04,-1.007108241319656372e-01,-1.262878440320491791e-02,1.000000000000000000e+00,1.878408511402085423e-05,0.000000000000000000e+00
2.447860002517700195e+00,-2.693815307617187500e+02,2.507345428466796875e+02,2.507345428466796875e+02,6.918981205672025681e-03,-1.054687425494194031e-01,3.958249872084707022e-04,1.382493209838867188e+01,-2.513644658029079437e-02,-2.231225835203076713e-06,-3.809333145618438721e-01,1.225171959958970547e-03,-3.941979957744479179e-05,1.691139070317149162e-03,3.541240468621253967e-02,7.331419736146926880e-03,1.000000000000000000e+00,4.519862704910337925e-05,0.000000000000000000e+00
2.447860002517700195e+00,-2.693815307617187500e+02,2.507345428466796875e+02,2.507345428466796875e+02,6.918981205672025681e-03,-1.054687425494194031e-01,3.958249872084707022e-04,1.382493209838867188e+01,-2.513644658029079437e-02,-2.231225835203076713e-06,-3.809333145618438721e-01,1.225171959958970547e-03,-3.941979957744479179e-05,1.691139070317149162e-03,3.541240468621253967e-02,7.331419736146926880e-03,1.000000000000000000e+00,4.519862704910337925e-05,0.000000000000000000e+00
2.500878810882568359e+00,-2.683625183105468750e+02,2.507326965332031250e+02,2.507326965332031250e+02,3.988830372691154480e-03,-1.047363132238388062e-01,2.634106203913688660e-04,1.380421638488769531e+01,-2.503285184502601624e-02,-1.973814505618065596e-06,-3.907238543033599854e-01,1.953924307599663734e-03,4.855094630329404026e-06,2.062509767711162567e-03,4.017968103289604187e-02,1.076733507215976715e-02,1.000000000000000000e+00,4.211376653984189034e-05,0.000000000000000000e+00
2.500878810882568359e+00,-2.683625183105468750e+02,2.507326965332031250e+02,2.507326965332031250e+02,3.988830372691154480e-03,-1.047363132238388062e-01,2.634106203913688660e-04,1.380421638488769531e+01,-2.503285184502601624e-02,-1.973814505618065596e-06,-3.907238543033599854e-01,1.953924307599663734e-03,4.855094630329404026e-06,2.062509767711162567e-03,4.017968103289604187e-02,1.076733507215976715e-02,1.000000000000000000e+00,4.211376653984189034e-05,0.000000000000000000e+00
2.500878810882568359e+00,-2.683625183105468750e+02,2.507326965332031250e+02,2.507326965332031250e+02,3.988830372691154480e-03,-1.047363132238388062e-01,2.634106203913688660e-04,1.380421638488769531e+01,-2.503285184502601624e-02,-1.973814505618065596e-06,-3.907238543033599854e-01,1.953924307599663734e-03,4.855094630329404026e-06,2.062509767711162567e-03,4.017968103289604187e-02,1.076733507215976715e-02,1.000000000000000000e+00,4.211376653984189034e-05,0.000000000000000000e+00
2.560195446014404297e+00,-2.676311340332031250e+02,2.507313690185546875e+02,2.507313690185546875e+02,2.042226493358612061e-03,-1.041870042681694031e-01,1.668209733907133341e-04,1.378935050964355469e+01,-2.495045773684978485e-02,-1.392179910908453166e-06,-2.506189942359924316e-01,1.389055629260838032e-03,9.805589797906577587e-06,1.945412135683000088e-03,3.511948138475418091e-02,1.036820933222770691e-02,1.000000000000000000e+00,3.274966729804873466e-05,0.000000000000000000e+00
2.560195446014404297e+00,-2.676311340332031250e+02,2.507313690185546875e+02,2.507313690185546875e+02,2.042226493358612061e-03,-1.041870042681694031e-01,1.668209733907133341e-04,1.378935050964355469e+01,-2.495045773684978485e-02,-1.392179910908453166e-06,-2.506189942359924316e-01,1.389055629260838032e-03,9.805589797906577587e-06,1.945412135683000088e-03,3.511948138475418091e-02,1.036820933222770691e-02,1.000000000000000000e+00,3.274966729804873466e-05,0.000000000000000000e+00
2.560195446014404297e+00,-2.668138427734375000e+02,2.507298736572265625e+02,2.507298736572265625e+02,1.434339646948501468e-04,-1.036682054400444031e-01,8.582106238463893533e-05,1.377274227142333984e+01,-2.488289773464202881e-02,-1.621005935703578871e-06,-2.837312817573547363e-01,1.154179335571825504e-03,-3.909210590791190043e-06,1.363404211588203907e-03,2.927766367793083191e-02,7.852619513869285583e-03,1.000000000000000000e+00,1.808788147172890604e-05,0.000000000000000000e+00
2.618730545043945312e+00,-2.668138427734375000e+02,2.507298736572265625e+02,2.507298736572265625e+02,1.434339646948501468e-04,-1.036682054400444031e-01,8.582106238463893533e-05,1.377274227142333984e+01,-2.488289773464202881e-02,-1.621005935703578871e-06,-2.837312817573547363e-01,1.154179335571825504e-03,-3.909210590791190043e-06,1.363404211588203907e-03,2.927766367793083191e-02,7.852619513869285583e-03,1.000000000000000000e+00,1.808788147172890604e-05,0.000000000000000000e+00
2.618730545043945312e+00,-2.660082702636718750e+02,2.507283935546875000e+02,2.507283935546875000e+02,-1.345547148957848549e-03,-1.033019945025444031e-01,1.579392119310796261e-05,1.375637626647949219e+01,-2.479538880288600922e-02,-1.191918499898747541e-06,-2.792665660381317139e-01,1.493236632086336613e-03,7.321870725718326867e-06,1.195816905237734318e-03,2.306000515818595886e-02,6.193589419126510620e-03,1.000000000000000000e+00,1.435716239939210936e-05,0.000000000000000000e+00
2.677334070205688477e+00,-2.660082702636718750e+02,2.507283935546875000e+02,2.507283935546875000e+02,-1.345547148957848549e-03,-1.033019945025444031e-01,1.579392119310796261e-05,1.375637626647949219e+01,-2.479538880288600922e-02,-1.191918499898747541e-06,-2.792665660381317139e-01,1.493236632086336613e-03,7.321870725718326867e-06,1.195816905237734318e-03,2.306000515818595886e-02,6.193589419126510620e-03,1.000000000000000000e+00,1.435716239939210936e-05,0.000000000000000000e+00
2.677334070205688477e+00,-2.660082702636718750e+02,2.507283935546875000e+02,2.507283935546875000e+02,-1.345547148957848549e-03,-1.033019945025444031e-01,1.579392119310796261e-05,1.375637626647949219e+01,-2.479538880288600922e-02,-1.191918499898747541e-06,-2.792665660381317139e-01,1.493236632086336613e-03,7.321870725718326867e-06,1.195816905237734318e-03,2.306000515818595886e-02,6.193589419126510620e-03,1.000000000000000000e+00,1.435716239939210936e-05,0.000000000000000000e+00
2.677334070205688477e+00,-2.660082702636718750e+02,2.507283935546875000e+02,2.507283935546875000e+02,-1.345547148957848549e-03,-1.033019945025444031e-01,1.579392119310796261e-05,1.375637626647949219e+01,-2.479538880288600922e-02,-1.191918499898747541e-06,-2.792665660381317139e-01,1.493236632086336613e-03,7.321870725718326867e-06,1.195816905237734318e-03,2.306000515818595886e-02,6.193589419126510620e-03,1.000000000000000000e+00,1.435716239939210936e-05,0.000000000000000000e+00
2.755024909973144531e+00,-2.652026977539062500e+02,2.507268829345703125e+02,2.507268829345703125e+02,-2.506679389625787735e-03,-1.029052659869194031e-01,-6.103515261202119291e-05,1.374001407623291016e+01,-2.466379851102828979e-02,-1.306342483076150529e-06,-2.106064260005950928e-01,1.693768426775932312e-03,-1.472811845815158449e-06,1.461280044168233871e-03,1.805939525365829468e-02,6.512018851935863495e-03,1.000000000000000000e+00,2.109110391756985337e-05,0.000000000000000000e+00
2.755024909973144531e+00,-2.652026977539062500e+02,2.507268829345703125e+02,2.507268829345703125e+02,-2.506679389625787735e-03,-1.029052659869194031e-01,-6.103515261202119291e-05,1.374001407623291016e+01,-2.466379851102828979e-02,-1.306342483076150529e-06,-2.106064260005950928e-01,1.693768426775932312e-03,-1.472811845815158449e-06,1.461280044168233871e-03,1.805939525365829468e-02,6.512018851935863495e-03,1.000000000000000000e+00,2.109110391756985337e-05,0.000000000000000000e+00
2.755024909973144531e+00,-2.652026977539062500e+02,2.507268829345703125e+02,2.507268829345703125e+02,-2.506679389625787735e-03,-1.029052659869194031e-01,-6.103515261202119291e-05,1.374001407623291016e+01,-2.466379851102828979e-02,-1.306342483076150529e-06,-2.106064260005950928e-01,1.693768426775932312e-03,-1.472811845815158449e-06,1.461280044168233871e-03,1.805939525365829468e-02,6.512018851935863495e-03,1.000000000000000000e+00,2.109110391756985337e-05,0.000000000000000000e+00
2.830169916152954102e+00,-2.641314697265625000e+02,2.507249298095703125e+02,2.507249298095703125e+02,1.674762368202209473e-02,-1.030578613281250000e-01,-1.525878906250000000e-04,1.386806869506835938e+01,-2.479675412178039551e-02,-1.077484512279625051e-06,1.704100131988525391e+00,-1.769320573657751083e-03,3.045551238756161183e-06,-9.530020761303603649e-04,-5.744030475616455078e-01,-1.272459700703620911e-02,1.000000000000000000e+00,1.843380050559062511e-05,0.000000000000000000e+00
2.830169916152954102e+00,-2.641314697265625000e+02,2.507249298095703125e+02,2.507249298095703125e+02,1.674762368202209473e-02,-1.030578613281250000e-01,-1.525878906250000000e-04,1.386806869506835938e+01,-2.479675412178039551e-02,-1.077484512279625051e-06,1.704100131988525391e+00,-1.769320573657751083e-03,3.045551238756161183e-06,-9.530020761303603649e-04,-5.744030475616455078e-01,-1.272459700703620911e-02,1.000000000000000000e+00,1.843380050559062511e-05,0.000000000000000000e+00
2.830169916152954102e+00,-2.641314697265625000e+02,2.507249298095703125e+02,2.507249298095703125e+02,1.674762368202209473e-02,-1.030578613281250000e-01,-1.525878906250000000e-04,1.386806869506835938e+01,-2.479675412178039551e-02,-1.077484512279625051e-06,1.704100131988525391e+00,-1.769320573657751083e-03,3.045551238756161183e-06,-9.530020761303603649e-04,-5.744030475616455078e-01,-1.272459700703620911e-02,1.000000000000000000e+00,1.843380050559062511e-05,0.000000000000000000e+00
2.830169916152954102e+00,-2.641314697265625000e+02,2.507249298095703125e+02,2.507249298095703125e+02,1.674762368202209473e-02,-1.030578613281250000e-01,-1.525878906250000000e-04,1.386806869506835938e+01,-2.479675412178039551e-02,-1.077484512279625051e-06,1.704100131988525391e+00,-1.769320573657751083e-03,3.045551238756161183e-06,-9.530020761303603649e-04,-5.744030475616455078e-01,-1.272459700703620911e-02,1.000000000000000000e+00,1.843380050559062511e-05,0.000000000000000000e+00
2.830169916152954102e+00,-2.641314697265625000e+02,2.507249298095703125e+02,2.507249298095703125e+02,1.674762368202209473e-02,-1.030578613281250000e-01,-1.525878906250000000e-04,1.386806869506835938e+01,-2.479675412178039551e-02,-1.077484512279625051e-06,1.704100131988525391e+00,-1.769320573657751083e-03,3.045551238756161183e-06,-9.530020761303603649e-04,-5.744030475616455078e-01,-1.272459700703620911e-02,1.000000000000000000e+00,1.843380050559062511e-05,0.000000000000000000e+00
2.917726278305053711e+00,-2.630783691406250000e+02,2.507230987548828125e+02,2.507230987548828125e+02,7.074709236621856689e-02,-1.046752855181694031e-01,-3.051757266803178936e-05,1.410369396209716797e+01,-2.522752247750759125e-02,-4.834402261622017249e-06,2.691126585006713867e+00,-4.919897764921188354e-03,-4.290856304578483105e-05,-4.205467179417610168e-03,-7.508639097213745117e-01,-2.602987550199031830e-02,1.000000000000000000e+00,3.318180097267031670e-05,0.000000000000000000e+00
