# Time,X,Y,Z,Roll,Pitch,Yaw,Vx,Vy,Vz,Ax,Ay,Az,Wx,Wy,Wz,Throttle,Steer,Brake
0.000000000000000000e+00,6.674874267578125000e+02,2.576674079895019531e+01,2.576674079895019531e+01,5.953056216239929199e-01,-1.048997955322265625e+02,1.917717903852462769e-01,-3.234845161437988281e+00,-1.184165859222412109e+01,-1.274882197321858257e-05,-1.696652054786682129e+00,-3.099533319473266602e+00,2.640975708345649764e-06,5.675248056650161743e-02,2.451603412628173828e-01,-4.518019199371337891e+00,1.000000000000000000e+00,-1.552886981517076492e-02,0.000000000000000000e+00
1.045818328857421875e-01,6.674874267578125000e+02,2.576674079895019531e+01,2.576674079895019531e+01,5.953056216239929199e-01,-1.048997955322265625e+02,1.917717903852462769e-01,-3.234845161437988281e+00,-1.184165859222412109e+01,-1.274882197321858257e-05,-1.696652054786682129e+00,-3.099533319473266602e+00,2.640975708345649764e-06,5.675248056650161743e-02,2.451603412628173828e-01,-4.518019199371337891e+00,1.000000000000000000e+00,-1.552886981517076492e-02,0.000000000000000000e+00
1.045818328857421875e-01,6.674874267578125000e+02,2.576674079895019531e+01,2.576674079895019531e+01,5.953056216239929199e-01,-1.048997955322265625e+02,1.917717903852462769e-01,-3.234845161437988281e+00,-1.184165859222412109e+01,-1.274882197321858257e-05,-1.696652054786682129e+00,-3.099533319473266602e+00,2.640975708345649764e-06,5.675248056650161743e-02,2.451603412628173828e-01,-4.518019199371337891e+00,1.000000000000000000e+00,-1.552886981517076492e-02,0.000000000000000000e+00
1.045818328857421875e-01,6.674874267578125000e+02,2.576674079895019531e+01,2.576674079895019531e+01,5.953056216239929199e-01,-1.048997955322265625e+02,1.917717903852462769e-01,-3.234845161437988281e+00,-1.184165859222412109e+01,-1.274882197321858257e-05,-1.696652054786682129e+00,-3.099533319473266602e+00,2.640975708345649764e-06,5.675248056650161743e-02,2.451603412628173828e-01,-4.518019199371337891e+00,1.000000000000000000e+00,-1.552886981517076492e-02,0.000000000000000000e+00
1.045818328857421875e-01,6.674874267578125000e+02,2.576674079895019531e+01,2.576674079895019531e+01,5.953056216239929199e-01,-1.048997955322265625e+02,1.917717903852462769e-01,-3.234845161437988281e+00,-1.184165859222412109e+01,-1.274882197321858257e-05,-1.696652054786682129e+00,-3.099533319473266602e+00,2.640975708345649764e-06,5.675248056650161743e-02,2.451603412628173828e-01,-4.518019199371337891e+00,1.000000000000000000e+00,-1.552886981517076492e-02,0.000000000000000000e+00
1.045818328857421875e-01,6.674874267578125000e+02,2.576674079895019531e+01,2.576674079895019531e+01,5.953056216239929199e-01,-1.048997955322265625e+02,1.917717903852462769e-01,-3.234845161437988281e+00,-1.184165859222412109e+01,-1.274882197321858257e-05,-1.696652054786682129e+00,-3.099533319473266602e+00,2.640975708345649764e-06,5.675248056650161743e-02,2.451603412628173828e-01,-4.518019199371337891e+00,1.000000000000000000e+00,-1.552886981517076492e-02,0.000000000000000000e+00
1.045818328857421875e-01,6.671600341796875000e+02,2.456736755371093750e+01,2.456736755371093750e+01,5.493247509002685547e-01,-1.053436965942382812e+02,1.985707879066467285e-01,-3.364621400833129883e+00,-1.201347255706787109e+01,1.943264396686572582e-05,-1.239400148391723633e+00,-1.640872359275817871e+00,3.073421830777078867e-04,1.081588745117187500e+00,-2.447516024112701416e-01,-4.466238021850585938e+00,0.000000000000000000e+00,-1.316556893289089203e-02,1.000000000000000000e+00
2.092907428741455078e-01,6.671600341796875000e+02,2.456736755371093750e+01,2.456736755371093750e+01,5.493247509002685547e-01,-1.053436965942382812e+02,1.985707879066467285e-01,-3.364621400833129883e+00,-1.201347255706787109e+01,1.943264396686572582e-05,-1.239400148391723633e+00,-1.640872359275817871e+00,3.073421830777078867e-04,1.081588745117187500e+00,-2.447516024112701416e-01,-4.466238021850585938e+00,0.000000000000000000e+00,-1.316556893289089203e-02,1.000000000000000000e+00
2.092907428741455078e-01,6.671600341796875000e+02,2.456736755371093750e+01,2.456736755371093750e+01,5.493247509002685547e-01,-1.053436965942382812e+02,1.985707879066467285e-01,-3.364621400833129883e+00,-1.201347255706787109e+01,1.943264396686572582e-05,-1.239400148391723633e+00,-1.640872359275817871e+00,3.073421830777078867e-04,1.081588745117187500e+00,-2.447516024112701416e-01,-4.466238021850585938e+00,0.000000000000000000e+00,-1.316556893289089203e-02,1.000000000000000000e+00
2.092907428741455078e-01,6.671600341796875000e+02,2.456736755371093750e+01,2.456736755371093750e+01,5.493247509002685547e-01,-1.053436965942382812e+02,1.985707879066467285e-01,-3.364621400833129883e+00,-1.201347255706787109e+01,1.943264396686572582e-05,-1.239400148391723633e+00,-1.640872359275817871e+00,3.073421830777078867e-04,1.081588745117187500e+00,-2.447516024112701416e-01,-4.466238021850585938e+00,0.000000000000000000e+00,-1.316556893289089203e-02,1.000000000000000000e+00
2.092907428741455078e-01,6.671600341796875000e+02,2.456736755371093750e+01,2.456736755371093750e+01,5.493247509002685547e-01,-1.053436965942382812e+02,1.985707879066467285e-01,-3.364621400833129883e+00,-1.201347255706787109e+01,1.943264396686572582e-05,-1.239400148391723633e+00,-1.640872359275817871e+00,3.073421830777078867e-04,1.081588745117187500e+00,-2.447516024112701416e-01,-4.466238021850585938e+00,0.000000000000000000e+00,-1.316556893289089203e-02,1.000000000000000000e+00
2.092907428741455078e-01,6.668292236328125000e+02,2.339107131958007812e+01,2.339107131958007812e+01,2.919632494449615479e-01,-1.058502655029296875e+02,2.219948768615722656e-01,-3.332628488540649414e+00,-1.149515628814697266e+01,1.374969142489135265e-04,4.287526309490203857e-01,6.946209430694580078e+00,1.582236960530281067e-03,3.545797109603881836e+00,-8.011348247528076172e-01,-5.443511486053466797e+00,0.000000000000000000e+00,-1.603651046752929688e-02,1.000000000000000000e+00
2.839093208312988281e-01,6.668292236328125000e+02,2.339107131958007812e+01,2.339107131958007812e+01,2.919632494449615479e-01,-1.058502655029296875e+02,2.219948768615722656e-01,-3.332628488540649414e+00,-1.149515628814697266e+01,1.374969142489135265e-04,4.287526309490203857e-01,6.946209430694580078e+00,1.582236960530281067e-03,3.545797109603881836e+00,-8.011348247528076172e-01,-5.443511486053466797e+00,0.000000000000000000e+00,-1.603651046752929688e-02,1.000000000000000000e+00
2.839093208312988281e-01,6.668292236328125000e+02,2.339107131958007812e+01,2.339107131958007812e+01,2.919632494449615479e-01,-1.058502655029296875e+02,2.219948768615722656e-01,-3.332628488540649414e+00,-1.149515628814697266e+01,1.374969142489135265e-04,4.287526309490203857e-01,6.946209430694580078e+00,1.582236960530281067e-03,3.545797109603881836e+00,-8.011348247528076172e-01,-5.443511486053466797e+00,0.000000000000000000e+00,-1.603651046752929688e-02,1.000000000000000000e+00
2.839093208312988281e-01,6.668292236328125000e+02,2.339107131958007812e+01,2.339107131958007812e+01,2.919632494449615479e-01,-1.058502655029296875e+02,2.219948768615722656e-01,-3.332628488540649414e+00,-1.149515628814697266e+01,1.374969142489135265e-04,4.287526309490203857e-01,6.946209430694580078e+00,1.582236960530281067e-03,3.545797109603881836e+00,-8.011348247528076172e-01,-5.443511486053466797e+00,0.000000000000000000e+00,-1.603651046752929688e-02,1.000000000000000000e+00
2.839093208312988281e-01,6.668292236328125000e+02,2.339107131958007812e+01,2.339107131958007812e+01,2.919632494449615479e-01,-1.058502655029296875e+02,2.219948768615722656e-01,-3.332628488540649414e+00,-1.149515628814697266e+01,1.374969142489135265e-04,4.287526309490203857e-01,6.946209430694580078e+00,1.582236960530281067e-03,3.545797109603881836e+00,-8.011348247528076172e-01,-5.443511486053466797e+00,0.000000000000000000e+00,-1.603651046752929688e-02,1.000000000000000000e+00
3.569011688232421875e-01,6.665916748046875000e+02,2.256438446044921875e+01,2.256438446044921875e+01,-1.803852804005146027e-02,-1.062541580200195312e+02,2.162552028894424438e-01,-3.188101053237915039e+00,-1.081082725524902344e+01,1.428390969522297382e-04,1.980049014091491699e+00,9.375417709350585938e+00,7.318875577766448259e-05,4.195272445678710938e+00,-1.330016016960144043e+00,-5.445045471191406250e+00,0.000000000000000000e+00,-1.256074942648410797e-02,1.000000000000000000e+00
3.569011688232421875e-01,6.665916748046875000e+02,2.256438446044921875e+01,2.256438446044921875e+01,-1.803852804005146027e-02,-1.062541580200195312e+02,2.162552028894424438e-01,-3.188101053237915039e+00,-1.081082725524902344e+01,1.428390969522297382e-04,1.980049014091491699e+00,9.375417709350585938e+00,7.318875577766448259e-05,4.195272445678710938e+00,-1.330016016960144043e+00,-5.445045471191406250e+00,0.000000000000000000e+00,-1.256074942648410797e-02,1.000000000000000000e+00
3.569011688232421875e-01,6.665916748046875000e+02,2.256438446044921875e+01,2.256438446044921875e+01,-1.803852804005146027e-02,-1.062541580200195312e+02,2.162552028894424438e-01,-3.188101053237915039e+00,-1.081082725524902344e+01,1.428390969522297382e-04,1.980049014091491699e+00,9.375417709350585938e+00,7.318875577766448259e-05,4.195272445678710938e+00,-1.330016016960144043e+00,-5.445045471191406250e+00,0.000000000000000000e+00,-1.256074942648410797e-02,1.000000000000000000e+00
3.569011688232421875e-01,6.665916748046875000e+02,2.256438446044921875e+01,2.256438446044921875e+01,-1.803852804005146027e-02,-1.062541580200195312e+02,2.162552028894424438e-01,-3.188101053237915039e+00,-1.081082725524902344e+01,1.428390969522297382e-04,1.980049014091491699e+00,9.375417709350585938e+00,7.318875577766448259e-05,4.195272445678710938e+00,-1.330016016960144043e+00,-5.445045471191406250e+00,0.000000000000000000e+00,-1.256074942648410797e-02,1.000000000000000000e+00
4.765405654907226562e-01,6.663695678710937500e+02,2.180759048461914062e+01,2.180759048461914062e+01,-3.221458494663238525e-01,-1.066735153198242188e+02,2.250228673219680786e-01,-3.070201396942138672e+00,-1.013229656219482422e+01,3.041776835743803531e-06,9.854584932327270508e-01,5.671465396881103516e+00,-1.168489106930792332e-03,3.622541427612304688e+00,-8.425250649452209473e-01,-5.844171524047851562e+00,1.000000000000000000e+00,-1.482295989990234375e-02,0.000000000000000000e+00
4.765405654907226562e-01,6.663695678710937500e+02,2.180759048461914062e+01,2.180759048461914062e+01,-3.221458494663238525e-01,-1.066735153198242188e+02,2.250228673219680786e-01,-3.070201396942138672e+00,-1.013229656219482422e+01,3.041776835743803531e-06,9.854584932327270508e-01,5.671465396881103516e+00,-1.168489106930792332e-03,3.622541427612304688e+00,-8.425250649452209473e-01,-5.844171524047851562e+00,1.000000000000000000e+00,-1.482295989990234375e-02,0.000000000000000000e+00
4.765405654907226562e-01,6.663695678710937500e+02,2.180759048461914062e+01,2.180759048461914062e+01,-3.221458494663238525e-01,-1.066735153198242188e+02,2.250228673219680786e-01,-3.070201396942138672e+00,-1.013229656219482422e+01,3.041776835743803531e-06,9.854584932327270508e-01,5.671465396881103516e+00,-1.168489106930792332e-03,3.622541427612304688e+00,-8.425250649452209473e-01,-5.844171524047851562e+00,1.000000000000000000e+00,-1.482295989990234375e-02,0.000000000000000000e+00
4.765405654907226562e-01,6.663695678710937500e+02,2.180759048461914062e+01,2.180759048461914062e+01,-3.221458494663238525e-01,-1.066735153198242188e+02,2.250228673219680786e-01,-3.070201396942138672e+00,-1.013229656219482422e+01,3.041776835743803531e-06,9.854584932327270508e-01,5.671465396881103516e+00,-1.168489106930792332e-03,3.622541427612304688e+00,-8.425250649452209473e-01,-5.844171524047851562e+00,1.000000000000000000e+00,-1.482295989990234375e-02,0.000000000000000000e+00
4.765405654907226562e-01,6.663695678710937500e+02,2.180759048461914062e+01,2.180759048461914062e+01,-3.221458494663238525e-01,-1.066735153198242188e+02,2.250228673219680786e-01,-3.070201396942138672e+00,-1.013229656219482422e+01,3.041776835743803531e-06,9.854584932327270508e-01,5.671465396881103516e+00,-1.168489106930792332e-03,3.622541427612304688e+00,-8.425250649452209473e-01,-5.844171524047851562e+00,1.000000000000000000e+00,-1.482295989990234375e-02,0.000000000000000000e+00
4.765405654907226562e-01,6.663695678710937500e+02,2.180759048461914062e+01,2.180759048461914062e+01,-3.221458494663238525e-01,-1.066735153198242188e+02,2.250228673219680786e-01,-3.070201396942138672e+00,-1.013229656219482422e+01,3.041776835743803531e-06,9.854584932327270508e-01,5.671465396881103516e+00,-1.168489106930792332e-03,3.622541427612304688e+00,-8.425250649452209473e-01,-5.844171524047851562e+00,1.000000000000000000e+00,-1.482295989990234375e-02,0.000000000000000000e+00
4.765405654907226562e-01,6.663695678710937500e+02,2.180759048461914062e+01,2.180759048461914062e+01,-3.221458494663238525e-01,-1.066735153198242188e+02,2.250228673219680786e-01,-3.070201396942138672e+00,-1.013229656219482422e+01,3.041776835743803531e-06,9.854584932327270508e-01,5.671465396881103516e+00,-1.168489106930792332e-03,3.622541427612304688e+00,-8.425250649452209473e-01,-5.844171524047851562e+00,1.000000000000000000e+00,-1.482295989990234375e-02,0.000000000000000000e+00
6.200885772705078125e-01,6.660686645507812500e+02,2.081493186950683594e+01,2.081493186950683594e+01,-4.923678338527679443e-01,-1.071403808593750000e+02,2.322755306959152222e-01,-3.075591325759887695e+00,-9.838397026062011719e+00,-8.255535794887691736e-05,-3.754791617393493652e-02,2.047395467758178711e+00,-5.962962168268859386e-04,3.425566852092742920e-01,-7.737096399068832397e-02,-4.014087677001953125e+00,1.000000000000000000e+00,-1.122045516967773438e-02,0.000000000000000000e+00
6.200885772705078125e-01,6.660686645507812500e+02,2.081493186950683594e+01,2.081493186950683594e+01,-4.923678338527679443e-01,-1.071403808593750000e+02,2.322755306959152222e-01,-3.075591325759887695e+00,-9.838397026062011719e+00,-8.255535794887691736e-05,-3.754791617393493652e-02,2.047395467758178711e+00,-5.962962168268859386e-04,3.425566852092742920e-01,-7.737096399068832397e-02,-4.014087677001953125e+00,1.000000000000000000e+00,-1.122045516967773438e-02,0.000000000000000000e+00
6.200885772705078125e-01,6.660686645507812500e+02,2.081493186950683594e+01,2.081493186950683594e+01,-4.923678338527679443e-01,-1.071403808593750000e+02,2.322755306959152222e-01,-3.075591325759887695e+00,-9.838397026062011719e+00,-8.255535794887691736e-05,-3.754791617393493652e-02,2.047395467758178711e+00,-5.962962168268859386e-04,3.425566852092742920e-01,-7.737096399068832397e-02,-4.014087677001953125e+00,1.000000000000000000e+00,-1.122045516967773438e-02,0.000000000000000000e+00
6.200885772705078125e-01,6.660686645507812500e+02,2.081493186950683594e+01,2.081493186950683594e+01,-4.923678338527679443e-01,-1.071403808593750000e+02,2.322755306959152222e-01,-3.075591325759887695e+00,-9.838397026062011719e+00,-8.255535794887691736e-05,-3.754791617393493652e-02,2.047395467758178711e+00,-5.962962168268859386e-04,3.425566852092742920e-01,-7.737096399068832397e-02,-4.014087677001953125e+00,1.000000000000000000e+00,-1.122045516967773438e-02,0.000000000000000000e+00
6.200885772705078125e-01,6.660686645507812500e+02,2.081493186950683594e+01,2.081493186950683594e+01,-4.923678338527679443e-01,-1.071403808593750000e+02,2.322755306959152222e-01,-3.075591325759887695e+00,-9.838397026062011719e+00,-8.255535794887691736e-05,-3.754791617393493652e-02,2.047395467758178711e+00,-5.962962168268859386e-04,3.425566852092742920e-01,-7.737096399068832397e-02,-4.014087677001953125e+00,1.000000000000000000e+00,-1.122045516967773438e-02,0.000000000000000000e+00
6.200885772705078125e-01,6.660686645507812500e+02,2.081493186950683594e+01,2.081493186950683594e+01,-4.923678338527679443e-01,-1.071403808593750000e+02,2.322755306959152222e-01,-3.075591325759887695e+00,-9.838397026062011719e+00,-8.255535794887691736e-05,-3.754791617393493652e-02,2.047395467758178711e+00,-5.962962168268859386e-04,3.425566852092742920e-01,-7.737096399068832397e-02,-4.014087677001953125e+00,1.000000000000000000e+00,-1.122045516967773438e-02,0.000000000000000000e+00
7.946169376373291016e-01,6.657625122070312500e+02,1.983184814453125000e+01,1.983184814453125000e+01,-4.158628880977630615e-01,-1.074351577758789062e+02,1.966697871685028076e-01,-3.109796047210693359e+00,-9.800989151000976562e+00,4.767576683661900461e-05,-1.959837377071380615e-01,2.143369466066360474e-01,7.461889181286096573e-04,-1.272009491920471191e+00,-1.137479906901717186e-03,-2.448341846466064453e+00,1.000000000000000000e+00,-6.613826844841241837e-03,0.000000000000000000e+00
7.946169376373291016e-01,6.657625122070312500e+02,1.983184814453125000e+01,1.983184814453125000e+01,-4.158628880977630615e-01,-1.074351577758789062e+02,1.966697871685028076e-01,-3.109796047210693359e+00,-9.800989151000976562e+00,4.767576683661900461e-05,-1.959837377071380615e-01,2.143369466066360474e-01,7.461889181286096573e-04,-1.272009491920471191e+00,-1.137479906901717186e-03,-2.448341846466064453e+00,1.000000000000000000e+00,-6.613826844841241837e-03,0.000000000000000000e+00
7.946169376373291016e-01,6.657625122070312500e+02,1.983184814453125000e+01,1.983184814453125000e+01,-4.158628880977630615e-01,-1.074351577758789062e+02,1.966697871685028076e-01,-3.109796047210693359e+00,-9.800989151000976562e+00,4.767576683661900461e-05,-1.959837377071380615e-01,2.143369466066360474e-01,7.461889181286096573e-04,-1.272009491920471191e+00,-1.137479906901717186e-03,-2.448341846466064453e+00,1.000000000000000000e+00,-6.613826844841241837e-03,0.000000000000000000e+00
7.946169376373291016e-01,6.657625122070312500e+02,1.983184814453125000e+01,1.983184814453125000e+01,-4.158628880977630615e-01,-1.074351577758789062e+02,1.966697871685028076e-01,-3.109796047210693359e+00,-9.800989151000976562e+00,4.767576683661900461e-05,-1.959837377071380615e-01,2.143369466066360474e-01,7.461889181286096573e-04,-1.272009491920471191e+00,-1.137479906901717186e-03,-2.448341846466064453e+00,1.000000000000000000e+00,-6.613826844841241837e-03,0.000000000000000000e+00
8.783230781555175781e-01,6.654498291015625000e+02,1.885242271423339844e+01,1.885242271423339844e+01,-2.873528599739074707e-01,-1.077047271728515625e+02,1.858819723129272461e-01,-3.175503253936767578e+00,-9.758926391601562500e+00,8.953509677667170763e-05,-7.849747538566589355e-01,5.025050640106201172e-01,5.000748205929994583e-04,-1.222924113273620605e+00,2.465141266584396362e-01,-2.813528060913085938e+00,1.000000000000000000e+00,-1.072177849709987640e-02,0.000000000000000000e+00
8.783230781555175781e-01,6.654498291015625000e+02,1.885242271423339844e+01,1.885242271423339844e+01,-2.873528599739074707e-01,-1.077047271728515625e+02,1.858819723129272461e-01,-3.175503253936767578e+00,-9.758926391601562500e+00,8.953509677667170763e-05,-7.849747538566589355e-01,5.025050640106201172e-01,5.000748205929994583e-04,-1.222924113273620605e+00,2.465141266584396362e-01,-2.813528060913085938e+00,1.000000000000000000e+00,-1.072177849709987640e-02,0.000000000000000000e+00
9.483780860900878906e-01,6.651848144531250000e+02,1.803536796569824219e+01,1.803536796569824219e+01,-1.980003416538238525e-01,-1.079301223754882812e+02,1.632094085216522217e-01,-3.205439567565917969e+00,-9.732016563415527344e+00,6.664299871772527695e-05,-4.273258149623870850e-01,3.841242492198944092e-01,-3.267731808591634035e-04,-1.009030818939208984e+00,2.621733024716377258e-02,-2.633328676223754883e+00,1.000000000000000000e+00,-9.194374084472656250e-03,0.000000000000000000e+00
9.483780860900878906e-01,6.651848144531250000e+02,1.803536796569824219e+01,1.803536796569824219e+01,-1.980003416538238525e-01,-1.079301223754882812e+02,1.632094085216522217e-01,-3.205439567565917969e+00,-9.732016563415527344e+00,6.664299871772527695e-05,-4.273258149623870850e-01,3.841242492198944092e-01,-3.267731808591634035e-04,-1.009030818939208984e+00,2.621733024716377258e-02,-2.633328676223754883e+00,1.000000000000000000e+00,-9.194374084472656250e-03,0.000000000000000000e+00
9.483780860900878906e-01,6.651848144531250000e+02,1.803536796569824219e+01,1.803536796569824219e+01,-1.980003416538238525e-01,-1.079301223754882812e+02,1.632094085216522217e-01,-3.205439567565917969e+00,-9.732016563415527344e+00,6.664299871772527695e-05,-4.273258149623870850e-01,3.841242492198944092e-01,-3.267731808591634035e-04,-1.009030818939208984e+00,2.621733024716377258e-02,-2.633328676223754883e+00,1.000000000000000000e+00,-9.194374084472656250e-03,0.000000000000000000e+00
9.483780860900878906e-01,6.651848144531250000e+02,1.803536796569824219e+01,1.803536796569824219e+01,-1.980003416538238525e-01,-1.079301223754882812e+02,1.632094085216522217e-01,-3.205439567565917969e+00,-9.732016563415527344e+00,6.664299871772527695e-05,-4.273258149623870850e-01,3.841242492198944092e-01,-3.267731808591634035e-04,-1.009030818939208984e+00,2.621733024716377258e-02,-2.633328676223754883e+00,1.000000000000000000e+00,-9.194374084472656250e-03,0.000000000000000000e+00
9.483780860900878906e-01,6.649599609375000000e+02,1.735387229919433594e+01,1.735387229919433594e+01,-1.393426805734634399e-01,-1.081496963500976562e+02,1.665586680173873901e-01,-3.260564804077148438e+00,-9.698928833007812500e+00,3.736926009878516197e-05,-6.995676159858703613e-01,4.199003279209136963e-01,-3.714988124556839466e-04,-6.892948150634765625e-01,3.101273179054260254e-01,-3.383670091629028320e+00,1.000000000000000000e+00,-1.424121856689453125e-02,0.000000000000000000e+00
1.027177095413208008e+00,6.649599609375000000e+02,1.735387229919433594e+01,1.735387229919433594e+01,-1.393426805734634399e-01,-1.081496963500976562e+02,1.665586680173873901e-01,-3.260564804077148438e+00,-9.698928833007812500e+00,3.736926009878516197e-05,-6.995676159858703613e-01,4.199003279209136963e-01,-3.714988124556839466e-04,-6.892948150634765625e-01,3.101273179054260254e-01,-3.383670091629028320e+00,1.000000000000000000e+00,-1.424121856689453125e-02,0.000000000000000000e+00
1.027177095413208008e+00,6.649599609375000000e+02,1.735387229919433594e+01,1.735387229919433594e+01,-1.393426805734634399e-01,-1.081496963500976562e+02,1.665586680173873901e-01,-3.260564804077148438e+00,-9.698928833007812500e+00,3.736926009878516197e-05,-6.995676159858703613e-01,4.199003279209136963e-01,-3.714988124556839466e-04,-6.892948150634765625e-01,3.101273179054260254e-01,-3.383670091629028320e+00,1.000000000000000000e+00,-1.424121856689453125e-02,0.000000000000000000e+00
1.095043420791625977e+00,6.647039184570312500e+02,1.658972167968750000e+01,1.658972167968750000e+01,-8.950279653072357178e-02,-1.084240570068359375e+02,1.627389788627624512e-01,-3.301119327545166016e+00,-9.668945312500000000e+00,1.570454151078592986e-05,-5.975647568702697754e-01,4.418026208877563477e-01,-3.192263247910887003e-04,-5.439326763153076172e-01,9.666484594345092773e-02,-3.528320312500000000e+00,1.000000000000000000e+00,-1.311931572854518890e-02,0.000000000000000000e+00
1.095043420791625977e+00,6.647039184570312500e+02,1.658972167968750000e+01,1.658972167968750000e+01,-8.950279653072357178e-02,-1.084240570068359375e+02,1.627389788627624512e-01,-3.301119327545166016e+00,-9.668945312500000000e+00,1.570454151078592986e-05,-5.975647568702697754e-01,4.418026208877563477e-01,-3.192263247910887003e-04,-5.439326763153076172e-01,9.666484594345092773e-02,-3.528320312500000000e+00,1.000000000000000000e+00,-1.311931572854518890e-02,0.000000000000000000e+00
1.095043420791625977e+00,6.647039184570312500e+02,1.658972167968750000e+01,1.658972167968750000e+01,-8.950279653072357178e-02,-1.084240570068359375e+02,1.627389788627624512e-01,-3.301119327545166016e+00,-9.668945312500000000e+00,1.570454151078592986e-05,-5.975647568702697754e-01,4.418026208877563477e-01,-3.192263247910887003e-04,-5.439326763153076172e-01,9.666484594345092773e-02,-3.528320312500000000e+00,1.000000000000000000e+00,-1.311931572854518890e-02,0.000000000000000000e+00
1.095043420791625977e+00,6.647039184570312500e+02,1.658972167968750000e+01,1.658972167968750000e+01,-8.950279653072357178e-02,-1.084240570068359375e+02,1.627389788627624512e-01,-3.301119327545166016e+00,-9.668945312500000000e+00,1.570454151078592986e-05,-5.975647568702697754e-01,4.418026208877563477e-01,-3.192263247910887003e-04,-5.439326763153076172e-01,9.666484594345092773e-02,-3.528320312500000000e+00,1.000000000000000000e+00,-1.311931572854518890e-02,0.000000000000000000e+00
1.168572425842285156e+00,6.644799804687500000e+02,1.593383884429931641e+01,1.593383884429931641e+01,-5.951143428683280945e-02,-1.086915893554687500e+02,1.725274920463562012e-01,-3.357342720031738281e+00,-9.635208129882812500e+00,1.182395635623834096e-06,-7.646423578262329102e-01,4.588282108306884766e-01,-1.975022605620324612e-04,-3.180599510669708252e-01,2.773616313934326172e-01,-4.149052619934082031e+00,1.000000000000000000e+00,-1.681184768676757812e-02,0.000000000000000000e+00
1.168572425842285156e+00,6.644799804687500000e+02,1.593383884429931641e+01,1.593383884429931641e+01,-5.951143428683280945e-02,-1.086915893554687500e+02,1.725274920463562012e-01,-3.357342720031738281e+00,-9.635208129882812500e+00,1.182395635623834096e-06,-7.646423578262329102e-01,4.588282108306884766e-01,-1.975022605620324612e-04,-3.180599510669708252e-01,2.773616313934326172e-01,-4.149052619934082031e+00,1.000000000000000000e+00,-1.681184768676757812e-02,0.000000000000000000e+00
1.168572425842285156e+00,6.644799804687500000e+02,1.593383884429931641e+01,1.593383884429931641e+01,-5.951143428683280945e-02,-1.086915893554687500e+02,1.725274920463562012e-01,-3.357342720031738281e+00,-9.635208129882812500e+00,1.182395635623834096e-06,-7.646423578262329102e-01,4.588282108306884766e-01,-1.975022605620324612e-04,-3.180599510669708252e-01,2.773616313934326172e-01,-4.149052619934082031e+00,1.000000000000000000e+00,-1.681184768676757812e-02,0.000000000000000000e+00
1.168572425842285156e+00,6.644799804687500000e+02,1.593383884429931641e+01,1.593383884429931641e+01,-5.951143428683280945e-02,-1.086915893554687500e+02,1.725274920463562012e-01,-3.357342720031738281e+00,-9.635208129882812500e+00,1.182395635623834096e-06,-7.646423578262329102e-01,4.588282108306884766e-01,-1.975022605620324612e-04,-3.180599510669708252e-01,2.773616313934326172e-01,-4.149052619934082031e+00,1.000000000000000000e+00,-1.681184768676757812e-02,0.000000000000000000e+00
1.168572425842285156e+00,6.642359008789062500e+02,1.522939872741699219e+01,1.522939872741699219e+01,-5.947728455066680908e-02,-1.089925460815429688e+02,1.696730107069015503e-01,-3.334873914718627930e+00,-9.437246322631835938e+00,-6.417284566850867122e-06,2.993906736373901367e-01,2.637786865234375000e+00,-1.012636566883884370e-04,6.594876050949096680e-01,-3.598591387271881104e-01,-4.022747516632080078e+00,1.000000000000000000e+00,-1.481285132467746735e-02,0.000000000000000000e+00
1.243620872497558594e+00,6.642359008789062500e+02,1.522939872741699219e+01,1.522939872741699219e+01,-5.947728455066680908e-02,-1.089925460815429688e+02,1.696730107069015503e-01,-3.334873914718627930e+00,-9.437246322631835938e+00,-6.417284566850867122e-06,2.993906736373901367e-01,2.637786865234375000e+00,-1.012636566883884370e-04,6.594876050949096680e-01,-3.598591387271881104e-01,-4.022747516632080078e+00,1.000000000000000000e+00,-1.481285132467746735e-02,0.000000000000000000e+00
1.243620872497558594e+00,6.642359008789062500e+02,1.522939872741699219e+01,1.522939872741699219e+01,-5.947728455066680908e-02,-1.089925460815429688e+02,1.696730107069015503e-01,-3.334873914718627930e+00,-9.437246322631835938e+00,-6.417284566850867122e-06,2.993906736373901367e-01,2.637786865234375000e+00,-1.012636566883884370e-04,6.594876050949096680e-01,-3.598591387271881104e-01,-4.022747516632080078e+00,1.000000000000000000e+00,-1.481285132467746735e-02,0.000000000000000000e+00
1.243620872497558594e+00,6.642359008789062500e+02,1.522939872741699219e+01,1.522939872741699219e+01,-5.947728455066680908e-02,-1.089925460815429688e+02,1.696730107069015503e-01,-3.334873914718627930e+00,-9.437246322631835938e+00,-6.417284566850867122e-06,2.993906736373901367e-01,2.637786865234375000e+00,-1.012636566883884370e-04,6.594876050949096680e-01,-3.598591387271881104e-01,-4.022747516632080078e+00,1.000000000000000000e+00,-1.481285132467746735e-02,0.000000000000000000e+00
1.312042951583862305e+00,6.639933471679687500e+02,1.453785514831542969e+01,1.453785514831542969e+01,-1.577500402927398682e-01,-1.092659606933593750e+02,1.505493074655532837e-01,-3.243634223937988281e+00,-9.078804016113281250e+00,-1.426482685928931460e-05,1.333483219146728516e+00,5.238693714141845703e+00,-1.146931317634880543e-04,1.250344276428222656e+00,-6.783871650695800781e-01,-3.452232599258422852e+00,1.000000000000000000e+00,-1.206283550709486008e-02,0.000000000000000000e+00
1.312042951583862305e+00,6.639933471679687500e+02,1.453785514831542969e+01,1.453785514831542969e+01,-1.577500402927398682e-01,-1.092659606933593750e+02,1.505493074655532837e-01,-3.243634223937988281e+00,-9.078804016113281250e+00,-1.426482685928931460e-05,1.333483219146728516e+00,5.238693714141845703e+00,-1.146931317634880543e-04,1.250344276428222656e+00,-6.783871650695800781e-01,-3.452232599258422852e+00,1.000000000000000000e+00,-1.206283550709486008e-02,0.000000000000000000e+00
1.312042951583862305e+00,6.637748413085937500e+02,1.392605590820312500e+01,1.392605590820312500e+01,-2.336402684450149536e-01,-1.095202636718750000e+02,1.559008806943893433e-01,-3.229141473770141602e+00,-8.858048439025878906e+00,-3.166718670399859548e-05,2.038751244544982910e-01,3.105453968048095703e+00,-2.448057057335972786e-04,8.548015356063842773e-01,-1.718348860740661621e-01,-3.848373413085937500e+00,1.000000000000000000e+00,-1.630506478250026703e-02,0.000000000000000000e+00
1.383129358291625977e+00,6.637748413085937500e+02,1.392605590820312500e+01,1.392605590820312500e+01,-2.336402684450149536e-01,-1.095202636718750000e+02,1.559008806943893433e-01,-3.229141473770141602e+00,-8.858048439025878906e+00,-3.166718670399859548e-05,2.038751244544982910e-01,3.105453968048095703e+00,-2.448057057335972786e-04,8.548015356063842773e-01,-1.718348860740661621e-01,-3.848373413085937500e+00,1.000000000000000000e+00,-1.630506478250026703e-02,0.000000000000000000e+00
1.383129358291625977e+00,6.637748413085937500e+02,1.392605590820312500e+01,1.392605590820312500e+01,-2.336402684450149536e-01,-1.095202636718750000e+02,1.559008806943893433e-01,-3.229141473770141602e+00,-8.858048439025878906e+00,-3.166718670399859548e-05,2.038751244544982910e-01,3.105453968048095703e+00,-2.448057057335972786e-04,8.548015356063842773e-01,-1.718348860740661621e-01,-3.848373413085937500e+00,1.000000000000000000e+00,-1.630506478250026703e-02,0.000000000000000000e+00
1.450951814651489258e+00,6.635482788085937500e+02,1.330119991302490234e+01,1.330119991302490234e+01,-2.616850137710571289e-01,-1.097872543334960938e+02,1.535826325416564941e-01,-3.229881763458251953e+00,-8.740500450134277344e+00,-2.394335751887410879e-05,-1.091511175036430359e-02,1.733172059059143066e+00,1.138830630225129426e-04,4.862041771411895752e-02,-8.548563718795776367e-02,-3.711279153823852539e+00,1.000000000000000000e+00,-1.431551016867160797e-02,0.000000000000000000e+00
1.450951814651489258e+00,6.635482788085937500e+02,1.330119991302490234e+01,1.330119991302490234e+01,-2.616850137710571289e-01,-1.097872543334960938e+02,1.535826325416564941e-01,-3.229881763458251953e+00,-8.740500450134277344e+00,-2.394335751887410879e-05,-1.091511175036430359e-02,1.733172059059143066e+00,1.138830630225129426e-04,4.862041771411895752e-02,-8.548563718795776367e-02,-3.711279153823852539e+00,1.000000000000000000e+00,-1.431551016867160797e-02,0.000000000000000000e+00
1.450951814651489258e+00,6.635482788085937500e+02,1.330119991302490234e+01,1.330119991302490234e+01,-2.616850137710571289e-01,-1.097872543334960938e+02,1.535826325416564941e-01,-3.229881763458251953e+00,-8.740500450134277344e+00,-2.394335751887410879e-05,-1.091511175036430359e-02,1.733172059059143066e+00,1.138830630225129426e-04,4.862041771411895752e-02,-8.548563718795776367e-02,-3.711279153823852539e+00,1.000000000000000000e+00,-1.431551016867160797e-02,0.000000000000000000e+00
1.527701377868652344e+00,6.633310546875000000e+02,1.270866870880126953e+01,1.270866870880126953e+01,-2.387355864048004150e-01,-1.100186843872070312e+02,1.393162161111831665e-01,-3.249895811080932617e+00,-8.717252731323242188e+00,-1.144253900520197931e-07,-2.607708275318145752e-01,3.029035925865173340e-01,3.104764618910849094e-04,-6.252927780151367188e-01,3.015961963683366776e-03,-3.268056154251098633e+00,1.000000000000000000e+00,-1.174049358814954758e-02,0.000000000000000000e+00
1.527701377868652344e+00,6.633310546875000000e+02,1.270866870880126953e+01,1.270866870880126953e+01,-2.387355864048004150e-01,-1.100186843872070312e+02,1.393162161111831665e-01,-3.249895811080932617e+00,-8.717252731323242188e+00,-1.144253900520197931e-07,-2.607708275318145752e-01,3.029035925865173340e-01,3.104764618910849094e-04,-6.252927780151367188e-01,3.015961963683366776e-03,-3.268056154251098633e+00,1.000000000000000000e+00,-1.174049358814954758e-02,0.000000000000000000e+00
1.527701377868652344e+00,6.633310546875000000e+02,1.270866870880126953e+01,1.270866870880126953e+01,-2.387355864048004150e-01,-1.100186843872070312e+02,1.393162161111831665e-01,-3.249895811080932617e+00,-8.717252731323242188e+00,-1.144253900520197931e-07,-2.607708275318145752e-01,3.029035925865173340e-01,3.104764618910849094e-04,-6.252927780151367188e-01,3.015961963683366776e-03,-3.268056154251098633e+00,1.000000000000000000e+00,-1.174049358814954758e-02,0.000000000000000000e+00
1.600134611129760742e+00,6.630821533203125000e+02,1.203633499145507812e+01,1.203633499145507812e+01,-1.690949797630310059e-01,-1.102388229370117188e+02,1.159859597682952881e-01,-3.292397737503051758e+00,-8.765845298767089844e+00,2.711833440116606653e-05,-5.867738723754882812e-01,-6.708601117134094238e-01,3.759704995900392532e-04,-1.090414166450500488e+00,1.211313456296920776e-01,-2.686054229736328125e+00,1.000000000000000000e+00,-9.381199255585670471e-03,0.000000000000000000e+00
1.600134611129760742e+00,6.630821533203125000e+02,1.203633499145507812e+01,1.203633499145507812e+01,-1.690949797630310059e-01,-1.102388229370117188e+02,1.159859597682952881e-01,-3.292397737503051758e+00,-8.765845298767089844e+00,2.711833440116606653e-05,-5.867738723754882812e-01,-6.708601117134094238e-01,3.759704995900392532e-04,-1.090414166450500488e+00,1.211313456296920776e-01,-2.686054229736328125e+00,1.000000000000000000e+00,-9.381199255585670471e-03,0.000000000000000000e+00
1.600134611129760742e+00,6.630821533203125000e+02,1.203633499145507812e+01,1.203633499145507812e+01,-1.690949797630310059e-01,-1.102388229370117188e+02,1.159859597682952881e-01,-3.292397737503051758e+00,-8.765845298767089844e+00,2.711833440116606653e-05,-5.867738723754882812e-01,-6.708601117134094238e-01,3.759704995900392532e-04,-1.090414166450500488e+00,1.211313456296920776e-01,-2.686054229736328125e+00,1.000000000000000000e+00,-9.381199255585670471e-03,0.000000000000000000e+00
1.600134611129760742e+00,6.630821533203125000e+02,1.203633499145507812e+01,1.203633499145507812e+01,-1.690949797630310059e-01,-1.102388229370117188e+02,1.159859597682952881e-01,-3.292397737503051758e+00,-8.765845298767089844e+00,2.711833440116606653e-05,-5.867738723754882812e-01,-6.708601117134094238e-01,3.759704995900392532e-04,-1.090414166450500488e+00,1.211313456296920776e-01,-2.686054229736328125e+00,1.000000000000000000e+00,-9.381199255585670471e-03,0.000000000000000000e+00
1.600134611129760742e+00,6.630821533203125000e+02,1.203633499145507812e+01,1.203633499145507812e+01,-1.690949797630310059e-01,-1.102388229370117188e+02,1.159859597682952881e-01,-3.292397737503051758e+00,-8.765845298767089844e+00,2.711833440116606653e-05,-5.867738723754882812e-01,-6.708601117134094238e-01,3.759704995900392532e-04,-1.090414166450500488e+00,1.211313456296920776e-01,-2.686054229736328125e+00,1.000000000000000000e+00,-9.381199255585670471e-03,0.000000000000000000e+00
1.600134611129760742e+00,6.628390502929687500e+02,1.139788818359375000e+01,1.139788818359375000e+01,-8.502902090549468994e-02,-1.105510940551757812e+02,1.715009659528732300e-01,-3.446443080902099609e+00,-8.819087982177734375e+00,1.697294464975129813e-05,-1.335126280784606934e+00,-4.614596068859100342e-01,-8.793109736870974302e-05,-8.525237441062927246e-01,1.177517890930175781e+00,-5.102906227111816406e+00,1.000000000000000000e+00,-2.567157708108425140e-02,0.000000000000000000e+00
1.715513467788696289e+00,6.628390502929687500e+02,1.139788818359375000e+01,1.139788818359375000e+01,-8.502902090549468994e-02,-1.105510940551757812e+02,1.715009659528732300e-01,-3.446443080902099609e+00,-8.819087982177734375e+00,1.697294464975129813e-05,-1.335126280784606934e+00,-4.614596068859100342e-01,-8.793109736870974302e-05,-8.525237441062927246e-01,1.177517890930175781e+00,-5.102906227111816406e+00,1.000000000000000000e+00,-2.567157708108425140e-02,0.000000000000000000e+00
1.715513467788696289e+00,6.628390502929687500e+02,1.139788818359375000e+01,1.139788818359375000e+01,-8.502902090549468994e-02,-1.105510940551757812e+02,1.715009659528732300e-01,-3.446443080902099609e+00,-8.819087982177734375e+00,1.697294464975129813e-05,-1.335126280784606934e+00,-4.614596068859100342e-01,-8.793109736870974302e-05,-8.525237441062927246e-01,1.177517890930175781e+00,-5.102906227111816406e+00,1.000000000000000000e+00,-2.567157708108425140e-02,0.000000000000000000e+00
1.715513467788696289e+00,6.628390502929687500e+02,1.139788818359375000e+01,1.139788818359375000e+01,-8.502902090549468994e-02,-1.105510940551757812e+02,1.715009659528732300e-01,-3.446443080902099609e+00,-8.819087982177734375e+00,1.697294464975129813e-05,-1.335126280784606934e+00,-4.614596068859100342e-01,-8.793109736870974302e-05,-8.525237441062927246e-01,1.177517890930175781e+00,-5.102906227111816406e+00,1.000000000000000000e+00,-2.567157708108425140e-02,0.000000000000000000e+00
1.813115119934082031e+00,6.624897460937500000e+02,1.050471019744873047e+01,1.050471019744873047e+01,3.829003870487213135e-02,-1.111247787475585938e+02,2.149035036563873291e-01,-3.615284919738769531e+00,-8.967796325683593750e+00,-5.206193691265070811e-06,-1.729907631874084473e+00,-1.523625254631042480e+00,-2.272414276376366615e-04,-1.010809659957885742e+00,6.820337772369384766e-01,-6.034951686859130859e+00,1.000000000000000000e+00,-2.440719678997993469e-02,0.000000000000000000e+00
1.813115119934082031e+00,6.624897460937500000e+02,1.050471019744873047e+01,1.050471019744873047e+01,3.829003870487213135e-02,-1.111247787475585938e+02,2.149035036563873291e-01,-3.615284919738769531e+00,-8.967796325683593750e+00,-5.206193691265070811e-06,-1.729907631874084473e+00,-1.523625254631042480e+00,-2.272414276376366615e-04,-1.010809659957885742e+00,6.820337772369384766e-01,-6.034951686859130859e+00,1.000000000000000000e+00,-2.440719678997993469e-02,0.000000000000000000e+00
1.813115119934082031e+00,6.624897460937500000e+02,1.050471019744873047e+01,1.050471019744873047e+01,3.829003870487213135e-02,-1.111247787475585938e+02,2.149035036563873291e-01,-3.615284919738769531e+00,-8.967796325683593750e+00,-5.206193691265070811e-06,-1.729907631874084473e+00,-1.523625254631042480e+00,-2.272414276376366615e-04,-1.010809659957885742e+00,6.820337772369384766e-01,-6.034951686859130859e+00,1.000000000000000000e+00,-2.440719678997993469e-02,0.000000000000000000e+00
1.813115119934082031e+00,6.624897460937500000e+02,1.050471019744873047e+01,1.050471019744873047e+01,3.829003870487213135e-02,-1.111247787475585938e+02,2.149035036563873291e-01,-3.615284919738769531e+00,-8.967796325683593750e+00,-5.206193691265070811e-06,-1.729907631874084473e+00,-1.523625254631042480e+00,-2.272414276376366615e-04,-1.010809659957885742e+00,6.820337772369384766e-01,-6.034951686859130859e+00,1.000000000000000000e+00,-2.440719678997993469e-02,0.000000000000000000e+00
1.896134853363037109e+00,6.621342163085937500e+02,9.615912437438964844e+00,9.615912437438964844e+00,1.420337706804275513e-01,-1.116719894409179688e+02,2.078769505023956299e-01,-3.761033296585083008e+00,-9.150920867919921875e+00,-1.794523086573462933e-05,-1.755587220191955566e+00,-2.205795288085937500e+00,-1.534459006506949663e-04,-8.945818543434143066e-01,3.020976185798645020e-01,-5.421825885772705078e+00,1.000000000000000000e+00,-1.956052705645561218e-02,0.000000000000000000e+00
1.896134853363037109e+00,6.621342163085937500e+02,9.615912437438964844e+00,9.615912437438964844e+00,1.420337706804275513e-01,-1.116719894409179688e+02,2.078769505023956299e-01,-3.761033296585083008e+00,-9.150920867919921875e+00,-1.794523086573462933e-05,-1.755587220191955566e+00,-2.205795288085937500e+00,-1.534459006506949663e-04,-8.945818543434143066e-01,3.020976185798645020e-01,-5.421825885772705078e+00,1.000000000000000000e+00,-1.956052705645561218e-02,0.000000000000000000e+00
1.896134853363037109e+00,6.621342163085937500e+02,9.615912437438964844e+00,9.615912437438964844e+00,1.420337706804275513e-01,-1.116719894409179688e+02,2.078769505023956299e-01,-3.761033296585083008e+00,-9.150920867919921875e+00,-1.794523086573462933e-05,-1.755587220191955566e+00,-2.205795288085937500e+00,-1.534459006506949663e-04,-8.945818543434143066e-01,3.020976185798645020e-01,-5.421825885772705078e+00,1.000000000000000000e+00,-1.956052705645561218e-02,0.000000000000000000e+00
1.896134853363037109e+00,6.621342163085937500e+02,9.615912437438964844e+00,9.615912437438964844e+00,1.420337706804275513e-01,-1.116719894409179688e+02,2.078769505023956299e-01,-3.761033296585083008e+00,-9.150920867919921875e+00,-1.794523086573462933e-05,-1.755587220191955566e+00,-2.205795288085937500e+00,-1.534459006506949663e-04,-8.945818543434143066e-01,3.020976185798645020e-01,-5.421825885772705078e+00,1.000000000000000000e+00,-1.956052705645561218e-02,0.000000000000000000e+00
1.896134853363037109e+00,6.621342163085937500e+02,9.615912437438964844e+00,9.615912437438964844e+00,1.420337706804275513e-01,-1.116719894409179688e+02,2.078769505023956299e-01,-3.761033296585083008e+00,-9.150920867919921875e+00,-1.794523086573462933e-05,-1.755587220191955566e+00,-2.205795288085937500e+00,-1.534459006506949663e-04,-8.945818543434143066e-01,3.020976185798645020e-01,-5.421825885772705078e+00,1.000000000000000000e+00,-1.956052705645561218e-02,0.000000000000000000e+00
1.896134853363037109e+00,6.621342163085937500e+02,9.615912437438964844e+00,9.615912437438964844e+00,1.420337706804275513e-01,-1.116719894409179688e+02,2.078769505023956299e-01,-3.761033296585083008e+00,-9.150920867919921875e+00,-1.794523086573462933e-05,-1.755587220191955566e+00,-2.205795288085937500e+00,-1.534459006506949663e-04,-8.945818543434143066e-01,3.020976185798645020e-01,-5.421825885772705078e+00,1.000000000000000000e+00,-1.956052705645561218e-02,0.000000000000000000e+00
1.896134853363037109e+00,6.621342163085937500e+02,9.615912437438964844e+00,9.615912437438964844e+00,1.420337706804275513e-01,-1.116719894409179688e+02,2.078769505023956299e-01,-3.761033296585083008e+00,-9.150920867919921875e+00,-1.794523086573462933e-05,-1.755587220191955566e+00,-2.205795288085937500e+00,-1.534459006506949663e-04,-8.945818543434143066e-01,3.020976185798645020e-01,-5.421825885772705078e+00,1.000000000000000000e+00,-1.956052705645561218e-02,0.000000000000000000e+00
2.195794820785522461e+00,6.610382690429687500e+02,7.087437629699707031e+00,7.087437629699707031e+00,2.650796175003051758e-01,-1.139805603027343750e+02,3.558266758918762207e-01,-4.381346702575683594e+00,-9.453195571899414062e+00,-2.569776734162587672e-05,-2.836378335952758789e+00,-1.976144790649414062e+00,6.282967515289783478e-04,-1.492154002189636230e-01,2.353830495849251747e-04,-8.279543876647949219e+00,1.000000000000000000e+00,-2.772388420999050140e-02,0.000000000000000000e+00
2.195794820785522461e+00,6.610382690429687500e+02,7.087437629699707031e+00,7.087437629699707031e+00,2.650796175003051758e-01,-1.139805603027343750e+02,3.558266758918762207e-01,-4.381346702575683594e+00,-9.453195571899414062e+00,-2.569776734162587672e-05,-2.836378335952758789e+00,-1.976144790649414062e+00,6.282967515289783478e-04,-1.492154002189636230e-01,2.353830495849251747e-04,-8.279543876647949219e+00,1.000000000000000000e+00,-2.772388420999050140e-02,0.000000000000000000e+00
2.195794820785522461e+00,6.610382690429687500e+02,7.087437629699707031e+00,7.087437629699707031e+00,2.650796175003051758e-01,-1.139805603027343750e+02,3.558266758918762207e-01,-4.381346702575683594e+00,-9.453195571899414062e+00,-2.569776734162587672e-05,-2.836378335952758789e+00,-1.976144790649414062e+00,6.282967515289783478e-04,-1.492154002189636230e-01,2.353830495849251747e-04,-8.279543876647949219e+00,1.000000000000000000e+00,-2.772388420999050140e-02,0.000000000000000000e+00
2.195794820785522461e+00,6.610382690429687500e+02,7.087437629699707031e+00,7.087437629699707031e+00,2.650796175003051758e-01,-1.139805603027343750e+02,3.558266758918762207e-01,-4.381346702575683594e+00,-9.453195571899414062e+00,-2.569776734162587672e-05,-2.836378335952758789e+00,-1.976144790649414062e+00,6.282967515289783478e-04,-1.492154002189636230e-01,2.353830495849251747e-04,-8.279543876647949219e+00,1.000000000000000000e+00,-2.772388420999050140e-02,0.000000000000000000e+00
2.195794820785522461e+00,6.610382690429687500e+02,7.087437629699707031e+00,7.087437629699707031e+00,2.650796175003051758e-01,-1.139805603027343750e+02,3.558266758918762207e-01,-4.381346702575683594e+00,-9.453195571899414062e+00,-2.569776734162587672e-05,-2.836378335952758789e+00,-1.976144790649414062e+00,6.282967515289783478e-04,-1.492154002189636230e-01,2.353830495849251747e-04,-8.279543876647949219e+00,1.000000000000000000e+00,-2.772388420999050140e-02,0.000000000000000000e+00
2.195794820785522461e+00,6.610382690429687500e+02,7.087437629699707031e+00,7.087437629699707031e+00,2.650796175003051758e-01,-1.139805603027343750e+02,3.558266758918762207e-01,-4.381346702575683594e+00,-9.453195571899414062e+00,-2.569776734162587672e-05,-2.836378335952758789e+00,-1.976144790649414062e+00,6.282967515289783478e-04,-1.492154002189636230e-01,2.353830495849251747e-04,-8.279543876647949219e+00,1.000000000000000000e+00,-2.772388420999050140e-02,0.000000000000000000e+00
2.195794820785522461e+00,6.610382690429687500e+02,7.087437629699707031e+00,7.087437629699707031e+00,2.650796175003051758e-01,-1.139805603027343750e+02,3.558266758918762207e-01,-4.381346702575683594e+00,-9.453195571899414062e+00,-2.569776734162587672e-05,-2.836378335952758789e+00,-1.976144790649414062e+00,6.282967515289783478e-04,-1.492154002189636230e-01,2.353830495849251747e-04,-8.279543876647949219e+00,1.000000000000000000e+00,-2.772388420999050140e-02,0.000000000000000000e+00
2.195794820785522461e+00,6.610382690429687500e+02,7.087437629699707031e+00,7.087437629699707031e+00,2.650796175003051758e-01,-1.139805603027343750e+02,3.558266758918762207e-01,-4.381346702575683594e+00,-9.453195571899414062e+00,-2.569776734162587672e-05,-2.836378335952758789e+00,-1.976144790649414062e+00,6.282967515289783478e-04,-1.492154002189636230e-01,2.353830495849251747e-04,-8.279543876647949219e+00,1.000000000000000000e+00,-2.772388420999050140e-02,0.000000000000000000e+00
2.195794820785522461e+00,6.610382690429687500e+02,7.087437629699707031e+00,7.087437629699707031e+00,2.650796175003051758e-01,-1.139805603027343750e+02,3.558266758918762207e-01,-4.381346702575683594e+00,-9.453195571899414062e+00,-2.569776734162587672e-05,-2.836378335952758789e+00,-1.976144790649414062e+00,6.282967515289783478e-04,-1.492154002189636230e-01,2.353830495849251747e-04,-8.279543876647949219e+00,1.000000000000000000e+00,-2.772388420999050140e-02,0.000000000000000000e+00
2.195794820785522461e+00,6.610382690429687500e+02,7.087437629699707031e+00,7.087437629699707031e+00,2.650796175003051758e-01,-1.139805603027343750e+02,3.558266758918762207e-01,-4.381346702575683594e+00,-9.453195571899414062e+00,-2.569776734162587672e-05,-2.836378335952758789e+00,-1.976144790649414062e+00,6.282967515289783478e-04,-1.492154002189636230e-01,2.353830495849251747e-04,-8.279543876647949219e+00,1.000000000000000000e+00,-2.772388420999050140e-02,0.000000000000000000e+00
2.374083757400512695e+00,6.608040771484375000e+02,6.583608150482177734e+00,6.583608150482177734e+00,2.681395411491394043e-01,-1.144959182739257812e+02,4.120254516601562500e-01,-4.562911987304687500e+00,-9.459423065185546875e+00,-3.815144737018272281e-05,-1.018376588821411133e+00,-3.492921963334083557e-02,-6.985110667301341891e-05,5.036939382553100586e-01,1.165285468101501465e+00,-1.042342853546142578e+01,1.000000000000000000e+00,-4.631672054529190063e-02,0.000000000000000000e+00
2.374083757400512695e+00,6.608040771484375000e+02,6.583608150482177734e+00,6.583608150482177734e+00,2.681395411491394043e-01,-1.144959182739257812e+02,4.120254516601562500e-01,-4.562911987304687500e+00,-9.459423065185546875e+00,-3.815144737018272281e-05,-1.018376588821411133e+00,-3.492921963334083557e-02,-6.985110667301341891e-05,5.036939382553100586e-01,1.165285468101501465e+00,-1.042342853546142578e+01,1.000000000000000000e+00,-4.631672054529190063e-02,0.000000000000000000e+00
2.374083757400512695e+00,6.608040771484375000e+02,6.583608150482177734e+00,6.583608150482177734e+00,2.681395411491394043e-01,-1.144959182739257812e+02,4.120254516601562500e-01,-4.562911987304687500e+00,-9.459423065185546875e+00,-3.815144737018272281e-05,-1.018376588821411133e+00,-3.492921963334083557e-02,-6.985110667301341891e-05,5.036939382553100586e-01,1.165285468101501465e+00,-1.042342853546142578e+01,1.000000000000000000e+00,-4.631672054529190063e-02,0.000000000000000000e+00
2.447860002517700195e+00,6.603427734375000000e+02,5.630469799041748047e+00,5.630469799041748047e+00,2.653323411941528320e-01,-1.156278152465820312e+02,4.996486306190490723e-01,-4.826480388641357422e+00,-9.500802040100097656e+00,-6.148267129901796579e-05,-3.572537660598754883e+00,-5.608712434768676758e-01,-3.162430366501212120e-04,3.289287984371185303e-01,5.527631044387817383e-01,-1.176816463470458984e+01,1.000000000000000000e+00,-4.372482374310493469e-02,0.000000000000000000e+00
2.447860002517700195e+00,6.603427734375000000e+02,5.630469799041748047e+00,5.630469799041748047e+00,2.653323411941528320e-01,-1.156278152465820312e+02,4.996486306190490723e-01,-4.826480388641357422e+00,-9.500802040100097656e+00,-6.148267129901796579e-05,-3.572537660598754883e+00,-5.608712434768676758e-01,-3.162430366501212120e-04,3.289287984371185303e-01,5.527631044387817383e-01,-1.176816463470458984e+01,1.000000000000000000e+00,-4.372482374310493469e-02,0.000000000000000000e+00
2.500878810882568359e+00,6.599885253906250000e+02,4.923630237579345703e+00,4.923630237579345703e+00,2.599228322505950928e-01,-1.164446411132812500e+02,4.999560117721557617e-01,-4.972119331359863281e+00,-9.546269416809082031e+00,-2.465837860654573888e-05,-2.746929645538330078e+00,-8.575707077980041504e-01,6.945514469407498837e-04,5.767235904932022095e-02,-8.147371560335159302e-02,-1.073609256744384766e+01,1.000000000000000000e+00,-3.498201444745063782e-02,0.000000000000000000e+00
2.500878810882568359e+00,6.599885253906250000e+02,4.923630237579345703e+00,4.923630237579345703e+00,2.599228322505950928e-01,-1.164446411132812500e+02,4.999560117721557617e-01,-4.972119331359863281e+00,-9.546269416809082031e+00,-2.465837860654573888e-05,-2.746929645538330078e+00,-8.575707077980041504e-01,6.945514469407498837e-04,5.767235904932022095e-02,-8.147371560335159302e-02,-1.073609256744384766e+01,1.000000000000000000e+00,-3.498201444745063782e-02,0.000000000000000000e+00
2.500878810882568359e+00,6.599885253906250000e+02,4.923630237579345703e+00,4.923630237579345703e+00,2.599228322505950928e-01,-1.164446411132812500e+02,4.999560117721557617e-01,-4.972119331359863281e+00,-9.546269416809082031e+00,-2.465837860654573888e-05,-2.746929645538330078e+00,-8.575707077980041504e-01,6.945514469407498837e-04,5.767235904932022095e-02,-8.147371560335159302e-02,-1.073609256744384766e+01,1.000000000000000000e+00,-3.498201444745063782e-02,0.000000000000000000e+00
2.560195446014404297e+00,6.597243652343750000e+02,4.415579795837402344e+00,4.415579795837402344e+00,2.533590197563171387e-01,-1.170735855102539062e+02,5.478733777999877930e-01,-5.154635429382324219e+00,-9.524448394775390625e+00,-3.859961725538596511e-05,-3.076979875564575195e+00,3.678735494613647461e-01,-2.350308350287377834e-04,6.206600666046142578e-01,9.137217402458190918e-01,-1.242663669586181641e+01,1.000000000000000000e+00,-5.067310482263565063e-02,0.000000000000000000e+00
2.560195446014404297e+00,6.597243652343750000e+02,4.415579795837402344e+00,4.415579795837402344e+00,2.533590197563171387e-01,-1.170735855102539062e+02,5.478733777999877930e-01,-5.154635429382324219e+00,-9.524448394775390625e+00,-3.859961725538596511e-05,-3.076979875564575195e+00,3.678735494613647461e-01,-2.350308350287377834e-04,6.206600666046142578e-01,9.137217402458190918e-01,-1.242663669586181641e+01,1.000000000000000000e+00,-5.067310482263565063e-02,0.000000000000000000e+00
2.560195446014404297e+00,6.594196777343750000e+02,3.847324371337890625e+00,3.847324371337890625e+00,2.448076307773590088e-01,-1.178308258056640625e+02,5.939276218414306641e-01,-5.315099239349365234e+00,-9.520984649658203125e+00,-5.283525388222187757e-05,-2.741326332092285156e+00,5.917381495237350464e-02,-2.431983011774718761e-04,4.232536256313323975e-01,4.934832751750946045e-01,-1.293838500976562500e+01,1.000000000000000000e+00,-4.670066758990287781e-02,0.000000000000000000e+00
2.618730545043945312e+00,6.594196777343750000e+02,3.847324371337890625e+00,3.847324371337890625e+00,2.448076307773590088e-01,-1.178308258056640625e+02,5.939276218414306641e-01,-5.315099239349365234e+00,-9.520984649658203125e+00,-5.283525388222187757e-05,-2.741326332092285156e+00,5.917381495237350464e-02,-2.431983011774718761e-04,4.232536256313323975e-01,4.934832751750946045e-01,-1.293838500976562500e+01,1.000000000000000000e+00,-4.670066758990287781e-02,0.000000000000000000e+00
2.618730545043945312e+00,6.591107788085937500e+02,3.286161184310913086e+00,3.286161184310913086e+00,2.367001920938491821e-01,-1.185661773681640625e+02,6.039880514144897461e-01,-5.447902679443359375e+00,-9.527694702148437500e+00,-3.131408084300346673e-05,-2.266134023666381836e+00,-1.144991293549537659e-01,3.672334132716059685e-04,1.627264767885208130e-01,1.002757903188467026e-02,-1.238883590698242188e+01,1.000000000000000000e+00,-4.068813472986221313e-02,0.000000000000000000e+00
2.677334070205688477e+00,6.591107788085937500e+02,3.286161184310913086e+00,3.286161184310913086e+00,2.367001920938491821e-01,-1.185661773681640625e+02,6.039880514144897461e-01,-5.447902679443359375e+00,-9.527694702148437500e+00,-3.131408084300346673e-05,-2.266134023666381836e+00,-1.144991293549537659e-01,3.672334132716059685e-04,1.627264767885208130e-01,1.002757903188467026e-02,-1.238883590698242188e+01,1.000000000000000000e+00,-4.068813472986221313e-02,0.000000000000000000e+00
2.677334070205688477e+00,6.591107788085937500e+02,3.286161184310913086e+00,3.286161184310913086e+00,2.367001920938491821e-01,-1.185661773681640625e+02,6.039880514144897461e-01,-5.447902679443359375e+00,-9.527694702148437500e+00,-3.131408084300346673e-05,-2.266134023666381836e+00,-1.144991293549537659e-01,3.672334132716059685e-04,1.627264767885208130e-01,1.002757903188467026e-02,-1.238883590698242188e+01,1.000000000000000000e+00,-4.068813472986221313e-02,0.000000000000000000e+00
2.677334070205688477e+00,6.591107788085937500e+02,3.286161184310913086e+00,3.286161184310913086e+00,2.367001920938491821e-01,-1.185661773681640625e+02,6.039880514144897461e-01,-5.447902679443359375e+00,-9.527694702148437500e+00,-3.131408084300346673e-05,-2.266134023666381836e+00,-1.144991293549537659e-01,3.672334132716059685e-04,1.627264767885208130e-01,1.002757903188467026e-02,-1.238883590698242188e+01,1.000000000000000000e+00,-4.068813472986221313e-02,0.000000000000000000e+00
2.755024909973144531e+00,6.587938842773437500e+02,2.723867177963256836e+00,2.723867177963256836e+00,2.289069443941116333e-01,-1.192482833862304688e+02,5.899586677551269531e-01,-5.565098762512207031e+00,-9.538749694824218750e+00,2.984563025165698491e-06,-1.508492946624755859e+00,-1.422946751117706299e-01,4.414760333020240068e-04,-7.383364252746105194e-03,-2.852463424205780029e-01,-1.128539085388183594e+01,1.000000000000000000e+00,-3.468437120318412781e-02,0.000000000000000000e+00
2.755024909973144531e+00,6.587938842773437500e+02,2.723867177963256836e+00,2.723867177963256836e+00,2.289069443941116333e-01,-1.192482833862304688e+02,5.899586677551269531e-01,-5.565098762512207031e+00,-9.538749694824218750e+00,2.984563025165698491e-06,-1.508492946624755859e+00,-1.422946751117706299e-01,4.414760333020240068e-04,-7.383364252746105194e-03,-2.852463424205780029e-01,-1.128539085388183594e+01,1.000000000000000000e+00,-3.468437120318412781e-02,0.000000000000000000e+00
2.755024909973144531e+00,6.587938842773437500e+02,2.723867177963256836e+00,2.723867177963256836e+00,2.289069443941116333e-01,-1.192482833862304688e+02,5.899586677551269531e-01,-5.565098762512207031e+00,-9.538749694824218750e+00,2.984563025165698491e-06,-1.508492946624755859e+00,-1.422946751117706299e-01,4.414760333020240068e-04,-7.383364252746105194e-03,-2.852463424205780029e-01,-1.128539085388183594e+01,1.000000000000000000e+00,-3.468437120318412781e-02,0.000000000000000000e+00
2.830169916152954102e+00,6.583579711914062500e+02,1.981219768524169922e+00,1.981219768524169922e+00,2.165716290473937988e-01,-1.202291870117187500e+02,6.542884111404418945e-01,-5.821731567382812500e+00,-9.475815773010253906e+00,-3.891340020345523953e-05,-3.415167808532714844e+00,8.374996781349182129e-01,-5.575614632107317448e-04,6.004571914672851562e-01,7.130681872367858887e-01,-1.330944633483886719e+01,1.000000000000000000e+00,-5.058193206787109375e-02,0.000000000000000000e+00
2.830169916152954102e+00,6.583579711914062500e+02,1.981219768524169922e+00,1.981219768524169922e+00,2.165716290473937988e-01,-1.202291870117187500e+02,6.542884111404418945e-01,-5.821731567382812500e+00,-9.475815773010253906e+00,-3.891340020345523953e-05,-3.415167808532714844e+00,8.374996781349182129e-01,-5.575614632107317448e-04,6.004571914672851562e-01,7.130681872367858887e-01,-1.330944633483886719e+01,1.000000000000000000e+00,-5.058193206787109375e-02,0.000000000000000000e+00
2.830169916152954102e+00,6.583579711914062500e+02,1.981219768524169922e+00,1.981219768524169922e+00,2.165716290473937988e-01,-1.202291870117187500e+02,6.542884111404418945e-01,-5.821731567382812500e+00,-9.475815773010253906e+00,-3.891340020345523953e-05,-3.415167808532714844e+00,8.374996781349182129e-01,-5.575614632107317448e-04,6.004571914672851562e-01,7.130681872367858887e-01,-1.330944633483886719e+01,1.000000000000000000e+00,-5.058193206787109375e-02,0.000000000000000000e+00
2.830169916152954102e+00,6.583579711914062500e+02,1.981219768524169922e+00,1.981219768524169922e+00,2.165716290473937988e-01,-1.202291870117187500e+02,6.542884111404418945e-01,-5.821731567382812500e+00,-9.475815773010253906e+00,-3.891340020345523953e-05,-3.415167808532714844e+00,8.374996781349182129e-01,-5.575614632107317448e-04,6.004571914672851562e-01,7.130681872367858887e-01,-1.330944633483886719e+01,1.000000000000000000e+00,-5.058193206787109375e-02,0.000000000000000000e+00
2.830169916152954102e+00,6.583579711914062500e+02,1.981219768524169922e+00,1.981219768524169922e+00,2.165716290473937988e-01,-1.202291870117187500e+02,6.542884111404418945e-01,-5.821731567382812500e+00,-9.475815773010253906e+00,-3.891340020345523953e-05,-3.415167808532714844e+00,8.374996781349182129e-01,-5.575614632107317448e-04,6.004571914672851562e-01,7.130681872367858887e-01,-1.330944633483886719e+01,1.000000000000000000e+00,-5.058193206787109375e-02,0.000000000000000000e+00
