# Time,X,Y,Z,Roll,Pitch,Yaw,Vx,Vy,Vz,Ax,Ay,Az,Wx,Wy,Wz,Throttle,Steer,Brake
0.000000000000000000e+00,6.647578125000000000e+02,4.819823455810546875e+01,4.819823455810546875e+01,2.380594015121459961e-01,-9.675780487060546875e+01,-1.619567722082138062e-01,-1.070360183715820312e+00,-8.382349967956542969e+00,-1.175714169221464545e-05,5.226628482341766357e-02,3.075486660003662109e+00,-4.075766628375276923e-05,-6.248496770858764648e-01,2.595877051353454590e-01,-3.239516496658325195e+00,5.000000000000000000e-01,-1.813060231506824493e-02,0.000000000000000000e+00
1.045818328857421875e-01,6.647578125000000000e+02,4.819823455810546875e+01,4.819823455810546875e+01,2.380594015121459961e-01,-9.675780487060546875e+01,-1.619567722082138062e-01,-1.070360183715820312e+00,-8.382349967956542969e+00,-1.175714169221464545e-05,5.226628482341766357e-02,3.075486660003662109e+00,-4.075766628375276923e-05,-6.248496770858764648e-01,2.595877051353454590e-01,-3.239516496658325195e+00,5.000000000000000000e-01,-1.813060231506824493e-02,0.000000000000000000e+00
1.045818328857421875e-01,6.647578125000000000e+02,4.819823455810546875e+01,4.819823455810546875e+01,2.380594015121459961e-01,-9.675780487060546875e+01,-1.619567722082138062e-01,-1.070360183715820312e+00,-8.382349967956542969e+00,-1.175714169221464545e-05,5.226628482341766357e-02,3.075486660003662109e+00,-4.075766628375276923e-05,-6.248496770858764648e-01,2.595877051353454590e-01,-3.239516496658325195e+00,5.000000000000000000e-01,-1.813060231506824493e-02,0.000000000000000000e+00
1.045818328857421875e-01,6.647578125000000000e+02,4.819823455810546875e+01,4.819823455810546875e+01,2.380594015121459961e-01,-9.675780487060546875e+01,-1.619567722082138062e-01,-1.070360183715820312e+00,-8.382349967956542969e+00,-1.175714169221464545e-05,5.226628482341766357e-02,3.075486660003662109e+00,-4.075766628375276923e-05,-6.248496770858764648e-01,2.595877051353454590e-01,-3.239516496658325195e+00,5.000000000000000000e-01,-1.813060231506824493e-02,0.000000000000000000e+00
1.045818328857421875e-01,6.647578125000000000e+02,4.819823455810546875e+01,4.819823455810546875e+01,2.380594015121459961e-01,-9.675780487060546875e+01,-1.619567722082138062e-01,-1.070360183715820312e+00,-8.382349967956542969e+00,-1.175714169221464545e-05,5.226628482341766357e-02,3.075486660003662109e+00,-4.075766628375276923e-05,-6.248496770858764648e-01,2.595877051353454590e-01,-3.239516496658325195e+00,5.000000000000000000e-01,-1.813060231506824493e-02,0.000000000000000000e+00
1.045818328857421875e-01,6.647578125000000000e+02,4.819823455810546875e+01,4.819823455810546875e+01,2.380594015121459961e-01,-9.675780487060546875e+01,-1.619567722082138062e-01,-1.070360183715820312e+00,-8.382349967956542969e+00,-1.175714169221464545e-05,5.226628482341766357e-02,3.075486660003662109e+00,-4.075766628375276923e-05,-6.248496770858764648e-01,2.595877051353454590e-01,-3.239516496658325195e+00,5.000000000000000000e-01,-1.813060231506824493e-02,0.000000000000000000e+00
1.045818328857421875e-01,6.646541137695312500e+02,4.737914276123046875e+01,4.737914276123046875e+01,2.808437049388885498e-01,-9.703736114501953125e+01,-1.346130222082138062e-01,-1.057092189788818359e+00,-8.052705764770507812e+00,-8.905833965400233865e-06,1.267131268978118896e-01,3.148196220397949219e+00,2.723080251598730683e-05,-2.375682741403579712e-01,2.374946027994155884e-01,-2.611035823822021484e+00,5.000000000000000000e-01,-1.499459426850080490e-02,0.000000000000000000e+00
2.092907428741455078e-01,6.646541137695312500e+02,4.737914276123046875e+01,4.737914276123046875e+01,2.808437049388885498e-01,-9.703736114501953125e+01,-1.346130222082138062e-01,-1.057092189788818359e+00,-8.052705764770507812e+00,-8.905833965400233865e-06,1.267131268978118896e-01,3.148196220397949219e+00,2.723080251598730683e-05,-2.375682741403579712e-01,2.374946027994155884e-01,-2.611035823822021484e+00,5.000000000000000000e-01,-1.499459426850080490e-02,0.000000000000000000e+00
2.092907428741455078e-01,6.646541137695312500e+02,4.737914276123046875e+01,4.737914276123046875e+01,2.808437049388885498e-01,-9.703736114501953125e+01,-1.346130222082138062e-01,-1.057092189788818359e+00,-8.052705764770507812e+00,-8.905833965400233865e-06,1.267131268978118896e-01,3.148196220397949219e+00,2.723080251598730683e-05,-2.375682741403579712e-01,2.374946027994155884e-01,-2.611035823822021484e+00,5.000000000000000000e-01,-1.499459426850080490e-02,0.000000000000000000e+00
2.092907428741455078e-01,6.646541137695312500e+02,4.737914276123046875e+01,4.737914276123046875e+01,2.808437049388885498e-01,-9.703736114501953125e+01,-1.346130222082138062e-01,-1.057092189788818359e+00,-8.052705764770507812e+00,-8.905833965400233865e-06,1.267131268978118896e-01,3.148196220397949219e+00,2.723080251598730683e-05,-2.375682741403579712e-01,2.374946027994155884e-01,-2.611035823822021484e+00,5.000000000000000000e-01,-1.499459426850080490e-02,0.000000000000000000e+00
2.092907428741455078e-01,6.646541137695312500e+02,4.737914276123046875e+01,4.737914276123046875e+01,2.808437049388885498e-01,-9.703736114501953125e+01,-1.346130222082138062e-01,-1.057092189788818359e+00,-8.052705764770507812e+00,-8.905833965400233865e-06,1.267131268978118896e-01,3.148196220397949219e+00,2.723080251598730683e-05,-2.375682741403579712e-01,2.374946027994155884e-01,-2.611035823822021484e+00,5.000000000000000000e-01,-1.499459426850080490e-02,0.000000000000000000e+00
2.092907428741455078e-01,6.645491943359375000e+02,4.658998489379882812e+01,4.658998489379882812e+01,2.872094511985778809e-01,-9.733910369873046875e+01,-1.423950046300888062e-01,-1.085484266281127930e+00,-7.785542488098144531e+00,-6.617396593355806544e-06,-3.804960846900939941e-01,3.580385446548461914e+00,3.066846693400293589e-05,8.965230733156204224e-02,-5.770143494009971619e-02,-3.164711713790893555e+00,1.000000000000000000e+00,-2.002301812171936035e-02,0.000000000000000000e+00
2.839093208312988281e-01,6.645491943359375000e+02,4.658998489379882812e+01,4.658998489379882812e+01,2.872094511985778809e-01,-9.733910369873046875e+01,-1.423950046300888062e-01,-1.085484266281127930e+00,-7.785542488098144531e+00,-6.617396593355806544e-06,-3.804960846900939941e-01,3.580385446548461914e+00,3.066846693400293589e-05,8.965230733156204224e-02,-5.770143494009971619e-02,-3.164711713790893555e+00,1.000000000000000000e+00,-2.002301812171936035e-02,0.000000000000000000e+00
2.839093208312988281e-01,6.645491943359375000e+02,4.658998489379882812e+01,4.658998489379882812e+01,2.872094511985778809e-01,-9.733910369873046875e+01,-1.423950046300888062e-01,-1.085484266281127930e+00,-7.785542488098144531e+00,-6.617396593355806544e-06,-3.804960846900939941e-01,3.580385446548461914e+00,3.066846693400293589e-05,8.965230733156204224e-02,-5.770143494009971619e-02,-3.164711713790893555e+00,1.000000000000000000e+00,-2.002301812171936035e-02,0.000000000000000000e+00
2.839093208312988281e-01,6.645491943359375000e+02,4.658998489379882812e+01,4.658998489379882812e+01,2.872094511985778809e-01,-9.733910369873046875e+01,-1.423950046300888062e-01,-1.085484266281127930e+00,-7.785542488098144531e+00,-6.617396593355806544e-06,-3.804960846900939941e-01,3.580385446548461914e+00,3.066846693400293589e-05,8.965230733156204224e-02,-5.770143494009971619e-02,-3.164711713790893555e+00,1.000000000000000000e+00,-2.002301812171936035e-02,0.000000000000000000e+00
2.839093208312988281e-01,6.645491943359375000e+02,4.658998489379882812e+01,4.658998489379882812e+01,2.872094511985778809e-01,-9.733910369873046875e+01,-1.423950046300888062e-01,-1.085484266281127930e+00,-7.785542488098144531e+00,-6.617396593355806544e-06,-3.804960846900939941e-01,3.580385446548461914e+00,3.066846693400293589e-05,8.965230733156204224e-02,-5.770143494009971619e-02,-3.164711713790893555e+00,1.000000000000000000e+00,-2.002301812171936035e-02,0.000000000000000000e+00
3.569011688232421875e-01,6.644699707031250000e+02,4.601422882080078125e+01,4.601422882080078125e+01,2.655167579650878906e-01,-9.756088256835937500e+01,-1.321410834789276123e-01,-1.093335509300231934e+00,-7.675814628601074219e+00,2.545930328778922558e-06,-1.075632870197296143e-01,1.503289222717285156e+00,1.255390379810705781e-04,4.338442683219909668e-01,9.333620965480804443e-02,-2.894883871078491211e+00,1.000000000000000000e+00,-1.729125902056694031e-02,0.000000000000000000e+00
3.569011688232421875e-01,6.644699707031250000e+02,4.601422882080078125e+01,4.601422882080078125e+01,2.655167579650878906e-01,-9.756088256835937500e+01,-1.321410834789276123e-01,-1.093335509300231934e+00,-7.675814628601074219e+00,2.545930328778922558e-06,-1.075632870197296143e-01,1.503289222717285156e+00,1.255390379810705781e-04,4.338442683219909668e-01,9.333620965480804443e-02,-2.894883871078491211e+00,1.000000000000000000e+00,-1.729125902056694031e-02,0.000000000000000000e+00
3.569011688232421875e-01,6.644699707031250000e+02,4.601422882080078125e+01,4.601422882080078125e+01,2.655167579650878906e-01,-9.756088256835937500e+01,-1.321410834789276123e-01,-1.093335509300231934e+00,-7.675814628601074219e+00,2.545930328778922558e-06,-1.075632870197296143e-01,1.503289222717285156e+00,1.255390379810705781e-04,4.338442683219909668e-01,9.333620965480804443e-02,-2.894883871078491211e+00,1.000000000000000000e+00,-1.729125902056694031e-02,0.000000000000000000e+00
3.569011688232421875e-01,6.644699707031250000e+02,4.601422882080078125e+01,4.601422882080078125e+01,2.655167579650878906e-01,-9.756088256835937500e+01,-1.321410834789276123e-01,-1.093335509300231934e+00,-7.675814628601074219e+00,2.545930328778922558e-06,-1.075632870197296143e-01,1.503289222717285156e+00,1.255390379810705781e-04,4.338442683219909668e-01,9.333620965480804443e-02,-2.894883871078491211e+00,1.000000000000000000e+00,-1.729125902056694031e-02,0.000000000000000000e+00
4.765405654907226562e-01,6.643915405273437500e+02,4.545587921142578125e+01,4.545587921142578125e+01,2.237091809511184692e-01,-9.775317382812500000e+01,-1.160888522863388062e-01,-1.104468941688537598e+00,-7.638318538665771484e+00,7.799917511874809861e-06,-9.305825084447860718e-02,3.134092390537261963e-01,4.391519541968591511e-05,6.834814548492431641e-01,9.308923035860061646e-02,-2.533787012100219727e+00,1.000000000000000000e+00,-1.482358667999505997e-02,0.000000000000000000e+00
4.765405654907226562e-01,6.643915405273437500e+02,4.545587921142578125e+01,4.545587921142578125e+01,2.237091809511184692e-01,-9.775317382812500000e+01,-1.160888522863388062e-01,-1.104468941688537598e+00,-7.638318538665771484e+00,7.799917511874809861e-06,-9.305825084447860718e-02,3.134092390537261963e-01,4.391519541968591511e-05,6.834814548492431641e-01,9.308923035860061646e-02,-2.533787012100219727e+00,1.000000000000000000e+00,-1.482358667999505997e-02,0.000000000000000000e+00
4.765405654907226562e-01,6.643915405273437500e+02,4.545587921142578125e+01,4.545587921142578125e+01,2.237091809511184692e-01,-9.775317382812500000e+01,-1.160888522863388062e-01,-1.104468941688537598e+00,-7.638318538665771484e+00,7.799917511874809861e-06,-9.305825084447860718e-02,3.134092390537261963e-01,4.391519541968591511e-05,6.834814548492431641e-01,9.308923035860061646e-02,-2.533787012100219727e+00,1.000000000000000000e+00,-1.482358667999505997e-02,0.000000000000000000e+00
4.765405654907226562e-01,6.643915405273437500e+02,4.545587921142578125e+01,4.545587921142578125e+01,2.237091809511184692e-01,-9.775317382812500000e+01,-1.160888522863388062e-01,-1.104468941688537598e+00,-7.638318538665771484e+00,7.799917511874809861e-06,-9.305825084447860718e-02,3.134092390537261963e-01,4.391519541968591511e-05,6.834814548492431641e-01,9.308923035860061646e-02,-2.533787012100219727e+00,1.000000000000000000e+00,-1.482358667999505997e-02,0.000000000000000000e+00
4.765405654907226562e-01,6.643915405273437500e+02,4.545587921142578125e+01,4.545587921142578125e+01,2.237091809511184692e-01,-9.775317382812500000e+01,-1.160888522863388062e-01,-1.104468941688537598e+00,-7.638318538665771484e+00,7.799917511874809861e-06,-9.305825084447860718e-02,3.134092390537261963e-01,4.391519541968591511e-05,6.834814548492431641e-01,9.308923035860061646e-02,-2.533787012100219727e+00,1.000000000000000000e+00,-1.482358667999505997e-02,0.000000000000000000e+00
4.765405654907226562e-01,6.643915405273437500e+02,4.545587921142578125e+01,4.545587921142578125e+01,2.237091809511184692e-01,-9.775317382812500000e+01,-1.160888522863388062e-01,-1.104468941688537598e+00,-7.638318538665771484e+00,7.799917511874809861e-06,-9.305825084447860718e-02,3.134092390537261963e-01,4.391519541968591511e-05,6.834814548492431641e-01,9.308923035860061646e-02,-2.533787012100219727e+00,1.000000000000000000e+00,-1.482358667999505997e-02,0.000000000000000000e+00
4.765405654907226562e-01,6.643915405273437500e+02,4.545587921142578125e+01,4.545587921142578125e+01,2.237091809511184692e-01,-9.775317382812500000e+01,-1.160888522863388062e-01,-1.104468941688537598e+00,-7.638318538665771484e+00,7.799917511874809861e-06,-9.305825084447860718e-02,3.134092390537261963e-01,4.391519541968591511e-05,6.834814548492431641e-01,9.308923035860061646e-02,-2.533787012100219727e+00,1.000000000000000000e+00,-1.482358667999505997e-02,0.000000000000000000e+00
6.200885772705078125e-01,6.642796020507812500e+02,4.469097137451171875e+01,4.469097137451171875e+01,1.449980735778808594e-01,-9.806397247314453125e+01,-1.323547214269638062e-01,-1.175223469734191895e+00,-7.667694568634033203e+00,9.611435416445601732e-06,-4.928980171680450439e-01,-2.046425491571426392e-01,1.261959641851717606e-05,8.051833510398864746e-01,-2.330264002084732056e-01,-3.316674470901489258e+00,1.000000000000000000e+00,-2.075718529522418976e-02,0.000000000000000000e+00
6.200885772705078125e-01,6.642796020507812500e+02,4.469097137451171875e+01,4.469097137451171875e+01,1.449980735778808594e-01,-9.806397247314453125e+01,-1.323547214269638062e-01,-1.175223469734191895e+00,-7.667694568634033203e+00,9.611435416445601732e-06,-4.928980171680450439e-01,-2.046425491571426392e-01,1.261959641851717606e-05,8.051833510398864746e-01,-2.330264002084732056e-01,-3.316674470901489258e+00,1.000000000000000000e+00,-2.075718529522418976e-02,0.000000000000000000e+00
6.200885772705078125e-01,6.642796020507812500e+02,4.469097137451171875e+01,4.469097137451171875e+01,1.449980735778808594e-01,-9.806397247314453125e+01,-1.323547214269638062e-01,-1.175223469734191895e+00,-7.667694568634033203e+00,9.611435416445601732e-06,-4.928980171680450439e-01,-2.046425491571426392e-01,1.261959641851717606e-05,8.051833510398864746e-01,-2.330264002084732056e-01,-3.316674470901489258e+00,1.000000000000000000e+00,-2.075718529522418976e-02,0.000000000000000000e+00
6.200885772705078125e-01,6.642796020507812500e+02,4.469097137451171875e+01,4.469097137451171875e+01,1.449980735778808594e-01,-9.806397247314453125e+01,-1.323547214269638062e-01,-1.175223469734191895e+00,-7.667694568634033203e+00,9.611435416445601732e-06,-4.928980171680450439e-01,-2.046425491571426392e-01,1.261959641851717606e-05,8.051833510398864746e-01,-2.330264002084732056e-01,-3.316674470901489258e+00,1.000000000000000000e+00,-2.075718529522418976e-02,0.000000000000000000e+00
6.200885772705078125e-01,6.642796020507812500e+02,4.469097137451171875e+01,4.469097137451171875e+01,1.449980735778808594e-01,-9.806397247314453125e+01,-1.323547214269638062e-01,-1.175223469734191895e+00,-7.667694568634033203e+00,9.611435416445601732e-06,-4.928980171680450439e-01,-2.046425491571426392e-01,1.261959641851717606e-05,8.051833510398864746e-01,-2.330264002084732056e-01,-3.316674470901489258e+00,1.000000000000000000e+00,-2.075718529522418976e-02,0.000000000000000000e+00
6.200885772705078125e-01,6.642796020507812500e+02,4.469097137451171875e+01,4.469097137451171875e+01,1.449980735778808594e-01,-9.806397247314453125e+01,-1.323547214269638062e-01,-1.175223469734191895e+00,-7.667694568634033203e+00,9.611435416445601732e-06,-4.928980171680450439e-01,-2.046425491571426392e-01,1.261959641851717606e-05,8.051833510398864746e-01,-2.330264002084732056e-01,-3.316674470901489258e+00,1.000000000000000000e+00,-2.075718529522418976e-02,0.000000000000000000e+00
7.946169376373291016e-01,6.641622314453125000e+02,4.391840362548828125e+01,4.391840362548828125e+01,6.231181323528289795e-02,-9.837246704101562500e+01,-1.223754659295082092e-01,-1.221879243850708008e+00,-7.772563934326171875e+00,9.649575986259151250e-06,-2.673248946666717529e-01,-6.008729338645935059e-01,2.185350780337103060e-07,8.093147277832031250e-01,-3.750800341367721558e-02,-3.012689352035522461e+00,1.000000000000000000e+00,-1.765866950154304504e-02,0.000000000000000000e+00
7.946169376373291016e-01,6.641622314453125000e+02,4.391840362548828125e+01,4.391840362548828125e+01,6.231181323528289795e-02,-9.837246704101562500e+01,-1.223754659295082092e-01,-1.221879243850708008e+00,-7.772563934326171875e+00,9.649575986259151250e-06,-2.673248946666717529e-01,-6.008729338645935059e-01,2.185350780337103060e-07,8.093147277832031250e-01,-3.750800341367721558e-02,-3.012689352035522461e+00,1.000000000000000000e+00,-1.765866950154304504e-02,0.000000000000000000e+00
7.946169376373291016e-01,6.641622314453125000e+02,4.391840362548828125e+01,4.391840362548828125e+01,6.231181323528289795e-02,-9.837246704101562500e+01,-1.223754659295082092e-01,-1.221879243850708008e+00,-7.772563934326171875e+00,9.649575986259151250e-06,-2.673248946666717529e-01,-6.008729338645935059e-01,2.185350780337103060e-07,8.093147277832031250e-01,-3.750800341367721558e-02,-3.012689352035522461e+00,1.000000000000000000e+00,-1.765866950154304504e-02,0.000000000000000000e+00
8.783230781555175781e-01,6.640401611328125000e+02,4.313240814208984375e+01,4.313240814208984375e+01,-1.229433994740247726e-02,-9.863246154785156250e+01,-1.025695800781250000e-01,-1.264991164207458496e+00,-7.925579071044921875e+00,6.598326763196382672e-06,-5.150389075279235840e-01,-1.828003764152526855e+00,-3.645191827672533691e-05,7.063741087913513184e-01,1.150478236377239227e-02,-2.459604024887084961e+00,1.000000000000000000e+00,-1.383122056722640991e-02,0.000000000000000000e+00
8.783230781555175781e-01,6.640401611328125000e+02,4.313240814208984375e+01,4.313240814208984375e+01,-1.229433994740247726e-02,-9.863246154785156250e+01,-1.025695800781250000e-01,-1.264991164207458496e+00,-7.925579071044921875e+00,6.598326763196382672e-06,-5.150389075279235840e-01,-1.828003764152526855e+00,-3.645191827672533691e-05,7.063741087913513184e-01,1.150478236377239227e-02,-2.459604024887084961e+00,1.000000000000000000e+00,-1.383122056722640991e-02,0.000000000000000000e+00
8.783230781555175781e-01,6.640401611328125000e+02,4.313240814208984375e+01,4.313240814208984375e+01,-1.229433994740247726e-02,-9.863246154785156250e+01,-1.025695800781250000e-01,-1.264991164207458496e+00,-7.925579071044921875e+00,6.598326763196382672e-06,-5.150389075279235840e-01,-1.828003764152526855e+00,-3.645191827672533691e-05,7.063741087913513184e-01,1.150478236377239227e-02,-2.459604024887084961e+00,1.000000000000000000e+00,-1.383122056722640991e-02,0.000000000000000000e+00
9.483780860900878906e-01,6.639324340820312500e+02,4.246186828613281250e+01,4.246186828613281250e+01,-6.369151175022125244e-02,-9.888465881347656250e+01,-1.221618205308914185e-01,-1.347704410552978516e+00,-8.071267127990722656e+00,1.268209871341241524e-06,-1.180689930915832520e+00,-2.079623699188232422e+00,-7.608473970321938396e-05,5.353394150733947754e-01,-3.107621073722839355e-01,-3.252840518951416016e+00,1.000000000000000000e+00,-1.977702602744102478e-02,0.000000000000000000e+00
9.483780860900878906e-01,6.639324340820312500e+02,4.246186828613281250e+01,4.246186828613281250e+01,-6.369151175022125244e-02,-9.888465881347656250e+01,-1.221618205308914185e-01,-1.347704410552978516e+00,-8.071267127990722656e+00,1.268209871341241524e-06,-1.180689930915832520e+00,-2.079623699188232422e+00,-7.608473970321938396e-05,5.353394150733947754e-01,-3.107621073722839355e-01,-3.252840518951416016e+00,1.000000000000000000e+00,-1.977702602744102478e-02,0.000000000000000000e+00
9.483780860900878906e-01,6.639324340820312500e+02,4.246186828613281250e+01,4.246186828613281250e+01,-6.369151175022125244e-02,-9.888465881347656250e+01,-1.221618205308914185e-01,-1.347704410552978516e+00,-8.071267127990722656e+00,1.268209871341241524e-06,-1.180689930915832520e+00,-2.079623699188232422e+00,-7.608473970321938396e-05,5.353394150733947754e-01,-3.107621073722839355e-01,-3.252840518951416016e+00,1.000000000000000000e+00,-1.977702602744102478e-02,0.000000000000000000e+00
9.483780860900878906e-01,6.639324340820312500e+02,4.246186828613281250e+01,4.246186828613281250e+01,-6.369151175022125244e-02,-9.888465881347656250e+01,-1.221618205308914185e-01,-1.347704410552978516e+00,-8.071267127990722656e+00,1.268209871341241524e-06,-1.180689930915832520e+00,-2.079623699188232422e+00,-7.608473970321938396e-05,5.353394150733947754e-01,-3.107621073722839355e-01,-3.252840518951416016e+00,1.000000000000000000e+00,-1.977702602744102478e-02,0.000000000000000000e+00
9.483780860900878906e-01,6.638379516601562500e+02,4.189047241210937500e+01,4.189047241210937500e+01,-1.007111370563507080e-01,-9.910849761962890625e+01,-1.248474195599555969e-01,-1.397406578063964844e+00,-8.210044860839843750e+00,9.249343975170631893e-07,-6.307460665702819824e-01,-1.761160850524902344e+00,-4.356342287792358547e-06,4.896539449691772461e-01,-7.608306407928466797e-02,-3.177467823028564453e+00,1.000000000000000000e+00,-1.766934990882873535e-02,0.000000000000000000e+00
1.027177095413208008e+00,6.638379516601562500e+02,4.189047241210937500e+01,4.189047241210937500e+01,-1.007111370563507080e-01,-9.910849761962890625e+01,-1.248474195599555969e-01,-1.397406578063964844e+00,-8.210044860839843750e+00,9.249343975170631893e-07,-6.307460665702819824e-01,-1.761160850524902344e+00,-4.356342287792358547e-06,4.896539449691772461e-01,-7.608306407928466797e-02,-3.177467823028564453e+00,1.000000000000000000e+00,-1.766934990882873535e-02,0.000000000000000000e+00
1.027177095413208008e+00,6.638379516601562500e+02,4.189047241210937500e+01,4.189047241210937500e+01,-1.007111370563507080e-01,-9.910849761962890625e+01,-1.248474195599555969e-01,-1.397406578063964844e+00,-8.210044860839843750e+00,9.249343975170631893e-07,-6.307460665702819824e-01,-1.761160850524902344e+00,-4.356342287792358547e-06,4.896539449691772461e-01,-7.608306407928466797e-02,-3.177467823028564453e+00,1.000000000000000000e+00,-1.766934990882873535e-02,0.000000000000000000e+00
1.095043420791625977e+00,6.637275390625000000e+02,4.123542785644531250e+01,4.123542785644531250e+01,-1.361051648855209351e-01,-9.934061431884765625e+01,-1.163024827837944031e-01,-1.448484301567077637e+00,-8.378060340881347656e+00,1.296792561333859339e-06,-7.526224851608276367e-01,-2.475682497024536133e+00,5.479273568198550493e-06,4.176053404808044434e-01,1.489615440368652344e-02,-2.861610651016235352e+00,1.000000000000000000e+00,-1.522227656096220016e-02,0.000000000000000000e+00
1.095043420791625977e+00,6.637275390625000000e+02,4.123542785644531250e+01,4.123542785644531250e+01,-1.361051648855209351e-01,-9.934061431884765625e+01,-1.163024827837944031e-01,-1.448484301567077637e+00,-8.378060340881347656e+00,1.296792561333859339e-06,-7.526224851608276367e-01,-2.475682497024536133e+00,5.479273568198550493e-06,4.176053404808044434e-01,1.489615440368652344e-02,-2.861610651016235352e+00,1.000000000000000000e+00,-1.522227656096220016e-02,0.000000000000000000e+00
1.095043420791625977e+00,6.637275390625000000e+02,4.123542785644531250e+01,4.123542785644531250e+01,-1.361051648855209351e-01,-9.934061431884765625e+01,-1.163024827837944031e-01,-1.448484301567077637e+00,-8.378060340881347656e+00,1.296792561333859339e-06,-7.526224851608276367e-01,-2.475682497024536133e+00,5.479273568198550493e-06,4.176053404808044434e-01,1.489615440368652344e-02,-2.861610651016235352e+00,1.000000000000000000e+00,-1.522227656096220016e-02,0.000000000000000000e+00
1.095043420791625977e+00,6.637275390625000000e+02,4.123542785644531250e+01,4.123542785644531250e+01,-1.361051648855209351e-01,-9.934061431884765625e+01,-1.163024827837944031e-01,-1.448484301567077637e+00,-8.378060340881347656e+00,1.296792561333859339e-06,-7.526224851608276367e-01,-2.475682497024536133e+00,5.479273568198550493e-06,4.176053404808044434e-01,1.489615440368652344e-02,-2.861610651016235352e+00,1.000000000000000000e+00,-1.522227656096220016e-02,0.000000000000000000e+00
1.168572425842285156e+00,6.636280517578125000e+02,4.066092300415039062e+01,4.066092300415039062e+01,-1.592048704624176025e-01,-9.956789398193359375e+01,-1.334839016199111938e-01,-1.526855111122131348e+00,-8.514608383178710938e+00,-1.010757500807812903e-06,-1.065848827362060547e+00,-1.857063531875610352e+00,-3.138285319437272847e-05,2.407251149415969849e-01,-3.267650008201599121e-01,-3.569591999053955078e+00,5.000000000000000000e-01,-2.101385965943336487e-02,0.000000000000000000e+00
1.168572425842285156e+00,6.636280517578125000e+02,4.066092300415039062e+01,4.066092300415039062e+01,-1.592048704624176025e-01,-9.956789398193359375e+01,-1.334839016199111938e-01,-1.526855111122131348e+00,-8.514608383178710938e+00,-1.010757500807812903e-06,-1.065848827362060547e+00,-1.857063531875610352e+00,-3.138285319437272847e-05,2.407251149415969849e-01,-3.267650008201599121e-01,-3.569591999053955078e+00,5.000000000000000000e-01,-2.101385965943336487e-02,0.000000000000000000e+00
1.168572425842285156e+00,6.636280517578125000e+02,4.066092300415039062e+01,4.066092300415039062e+01,-1.592048704624176025e-01,-9.956789398193359375e+01,-1.334839016199111938e-01,-1.526855111122131348e+00,-8.514608383178710938e+00,-1.010757500807812903e-06,-1.065848827362060547e+00,-1.857063531875610352e+00,-3.138285319437272847e-05,2.407251149415969849e-01,-3.267650008201599121e-01,-3.569591999053955078e+00,5.000000000000000000e-01,-2.101385965943336487e-02,0.000000000000000000e+00
1.168572425842285156e+00,6.636280517578125000e+02,4.066092300415039062e+01,4.066092300415039062e+01,-1.592048704624176025e-01,-9.956789398193359375e+01,-1.334839016199111938e-01,-1.526855111122131348e+00,-8.514608383178710938e+00,-1.010757500807812903e-06,-1.065848827362060547e+00,-1.857063531875610352e+00,-3.138285319437272847e-05,2.407251149415969849e-01,-3.267650008201599121e-01,-3.569591999053955078e+00,5.000000000000000000e-01,-2.101385965943336487e-02,0.000000000000000000e+00
1.168572425842285156e+00,6.635155029296875000e+02,4.002907943725585938e+01,4.002907943725585938e+01,-1.721139252185821533e-01,-9.983007049560546875e+01,-1.411437690258026123e-01,-1.584233999252319336e+00,-8.631934165954589844e+00,-1.039352127918391488e-06,-7.645579576492309570e-01,-1.563333868980407715e+00,-3.810155817518534604e-07,7.917781919240951538e-02,-6.499028205871582031e-02,-3.570350885391235352e+00,5.000000000000000000e-01,-1.913681067526340485e-02,0.000000000000000000e+00
1.243620872497558594e+00,6.635155029296875000e+02,4.002907943725585938e+01,4.002907943725585938e+01,-1.721139252185821533e-01,-9.983007049560546875e+01,-1.411437690258026123e-01,-1.584233999252319336e+00,-8.631934165954589844e+00,-1.039352127918391488e-06,-7.645579576492309570e-01,-1.563333868980407715e+00,-3.810155817518534604e-07,7.917781919240951538e-02,-6.499028205871582031e-02,-3.570350885391235352e+00,5.000000000000000000e-01,-1.913681067526340485e-02,0.000000000000000000e+00
1.243620872497558594e+00,6.635155029296875000e+02,4.002907943725585938e+01,4.002907943725585938e+01,-1.721139252185821533e-01,-9.983007049560546875e+01,-1.411437690258026123e-01,-1.584233999252319336e+00,-8.631934165954589844e+00,-1.039352127918391488e-06,-7.645579576492309570e-01,-1.563333868980407715e+00,-3.810155817518534604e-07,7.917781919240951538e-02,-6.499028205871582031e-02,-3.570350885391235352e+00,5.000000000000000000e-01,-1.913681067526340485e-02,0.000000000000000000e+00
1.243620872497558594e+00,6.635155029296875000e+02,4.002907943725585938e+01,4.002907943725585938e+01,-1.721139252185821533e-01,-9.983007049560546875e+01,-1.411437690258026123e-01,-1.584233999252319336e+00,-8.631934165954589844e+00,-1.039352127918391488e-06,-7.645579576492309570e-01,-1.563333868980407715e+00,-3.810155817518534604e-07,7.917781919240951538e-02,-6.499028205871582031e-02,-3.570350885391235352e+00,5.000000000000000000e-01,-1.913681067526340485e-02,0.000000000000000000e+00
1.312042951583862305e+00,6.633970336914062500e+02,3.937691497802734375e+01,3.937691497802734375e+01,-1.694023460149765015e-01,-1.000784225463867188e+02,-1.338195800781250000e-01,-1.625072598457336426e+00,-8.714274406433105469e+00,1.802173869691614527e-06,-5.968629121780395508e-01,-1.203416228294372559e+00,4.152937617618590593e-05,-9.768991917371749878e-02,1.075368747115135193e-01,-3.200711965560913086e+00,5.000000000000000000e-01,-1.632189005613327026e-02,0.000000000000000000e+00
1.312042951583862305e+00,6.633970336914062500e+02,3.937691497802734375e+01,3.937691497802734375e+01,-1.694023460149765015e-01,-1.000784225463867188e+02,-1.338195800781250000e-01,-1.625072598457336426e+00,-8.714274406433105469e+00,1.802173869691614527e-06,-5.968629121780395508e-01,-1.203416228294372559e+00,4.152937617618590593e-05,-9.768991917371749878e-02,1.075368747115135193e-01,-3.200711965560913086e+00,5.000000000000000000e-01,-1.632189005613327026e-02,0.000000000000000000e+00
1.312042951583862305e+00,6.632852783203125000e+02,3.877859497070312500e+01,3.877859497070312500e+01,-1.554550975561141968e-01,-1.003253173828125000e+02,-1.487121284008026123e-01,-1.688614964485168457e+00,-8.750442504882812500e+00,2.155009042326128110e-06,-8.938750028610229492e-01,-5.087906122207641602e-01,4.963468654750613496e-06,-2.967625856399536133e-01,-1.964485496282577515e-01,-3.790921211242675781e+00,5.000000000000000000e-01,-2.152535505592823029e-02,0.000000000000000000e+00
1.383129358291625977e+00,6.632852783203125000e+02,3.877859497070312500e+01,3.877859497070312500e+01,-1.554550975561141968e-01,-1.003253173828125000e+02,-1.487121284008026123e-01,-1.688614964485168457e+00,-8.750442504882812500e+00,2.155009042326128110e-06,-8.938750028610229492e-01,-5.087906122207641602e-01,4.963468654750613496e-06,-2.967625856399536133e-01,-1.964485496282577515e-01,-3.790921211242675781e+00,5.000000000000000000e-01,-2.152535505592823029e-02,0.000000000000000000e+00
1.383129358291625977e+00,6.632852783203125000e+02,3.877859497070312500e+01,3.877859497070312500e+01,-1.554550975561141968e-01,-1.003253173828125000e+02,-1.487121284008026123e-01,-1.688614964485168457e+00,-8.750442504882812500e+00,2.155009042326128110e-06,-8.938750028610229492e-01,-5.087906122207641602e-01,4.963468654750613496e-06,-2.967625856399536133e-01,-1.964485496282577515e-01,-3.790921211242675781e+00,5.000000000000000000e-01,-2.152535505592823029e-02,0.000000000000000000e+00
1.450951814651489258e+00,6.631658935546875000e+02,3.815530395507812500e+01,3.815530395507812500e+01,-1.327515542507171631e-01,-1.005895004272460938e+02,-1.531677246093750000e-01,-1.727728128433227539e+00,-8.763839721679687500e+00,3.547163942130282521e-06,-5.766993165016174316e-01,-1.975336372852325439e-01,2.052645868388935924e-05,-3.500639498233795166e-01,5.040383711457252502e-02,-3.683517456054687500e+00,5.000000000000000000e-01,-1.933855377137660980e-02,0.000000000000000000e+00
1.450951814651489258e+00,6.631658935546875000e+02,3.815530395507812500e+01,3.815530395507812500e+01,-1.327515542507171631e-01,-1.005895004272460938e+02,-1.531677246093750000e-01,-1.727728128433227539e+00,-8.763839721679687500e+00,3.547163942130282521e-06,-5.766993165016174316e-01,-1.975336372852325439e-01,2.052645868388935924e-05,-3.500639498233795166e-01,5.040383711457252502e-02,-3.683517456054687500e+00,5.000000000000000000e-01,-1.933855377137660980e-02,0.000000000000000000e+00
1.450951814651489258e+00,6.631658935546875000e+02,3.815530395507812500e+01,3.815530395507812500e+01,-1.327515542507171631e-01,-1.005895004272460938e+02,-1.531677246093750000e-01,-1.727728128433227539e+00,-8.763839721679687500e+00,3.547163942130282521e-06,-5.766993165016174316e-01,-1.975336372852325439e-01,2.052645868388935924e-05,-3.500639498233795166e-01,5.040383711457252502e-02,-3.683517456054687500e+00,5.000000000000000000e-01,-1.933855377137660980e-02,0.000000000000000000e+00
1.527701377868652344e+00,6.630498046875000000e+02,3.756068038940429688e+01,3.756068038940429688e+01,-1.067763417959213257e-01,-1.008199386596679688e+02,-1.443481594324111938e-01,-1.749856472015380859e+00,-8.754782676696777344e+00,5.025181962992064655e-06,-2.883188128471374512e-01,1.180077716708183289e-01,1.925767355714924634e-05,-3.699996173381805420e-01,2.027892172336578369e-01,-3.268831729888916016e+00,5.000000000000000000e-01,-1.642706803977489471e-02,0.000000000000000000e+00
1.527701377868652344e+00,6.630498046875000000e+02,3.756068038940429688e+01,3.756068038940429688e+01,-1.067763417959213257e-01,-1.008199386596679688e+02,-1.443481594324111938e-01,-1.749856472015380859e+00,-8.754782676696777344e+00,5.025181962992064655e-06,-2.883188128471374512e-01,1.180077716708183289e-01,1.925767355714924634e-05,-3.699996173381805420e-01,2.027892172336578369e-01,-3.268831729888916016e+00,5.000000000000000000e-01,-1.642706803977489471e-02,0.000000000000000000e+00
1.527701377868652344e+00,6.630498046875000000e+02,3.756068038940429688e+01,3.756068038940429688e+01,-1.067763417959213257e-01,-1.008199386596679688e+02,-1.443481594324111938e-01,-1.749856472015380859e+00,-8.754782676696777344e+00,5.025181962992064655e-06,-2.883188128471374512e-01,1.180077716708183289e-01,1.925767355714924634e-05,-3.699996173381805420e-01,2.027892172336578369e-01,-3.268831729888916016e+00,5.000000000000000000e-01,-1.642706803977489471e-02,0.000000000000000000e+00
1.600134611129760742e+00,6.629163208007812500e+02,3.688935852050781250e+01,3.688935852050781250e+01,-7.577411085367202759e-02,-1.010544204711914062e+02,-1.344604343175888062e-01,-1.775417566299438477e+00,-8.732039451599121094e+00,4.529257694230182096e-06,-3.528918027877807617e-01,3.139888048171997070e-01,-6.846640189905883744e-06,-3.496278524398803711e-01,1.577588766813278198e-01,-2.965511798858642578e+00,1.000000000000000000e+00,-1.527971494942903519e-02,0.000000000000000000e+00
1.600134611129760742e+00,6.629163208007812500e+02,3.688935852050781250e+01,3.688935852050781250e+01,-7.577411085367202759e-02,-1.010544204711914062e+02,-1.344604343175888062e-01,-1.775417566299438477e+00,-8.732039451599121094e+00,4.529257694230182096e-06,-3.528918027877807617e-01,3.139888048171997070e-01,-6.846640189905883744e-06,-3.496278524398803711e-01,1.577588766813278198e-01,-2.965511798858642578e+00,1.000000000000000000e+00,-1.527971494942903519e-02,0.000000000000000000e+00
1.600134611129760742e+00,6.629163208007812500e+02,3.688935852050781250e+01,3.688935852050781250e+01,-7.577411085367202759e-02,-1.010544204711914062e+02,-1.344604343175888062e-01,-1.775417566299438477e+00,-8.732039451599121094e+00,4.529257694230182096e-06,-3.528918027877807617e-01,3.139888048171997070e-01,-6.846640189905883744e-06,-3.496278524398803711e-01,1.577588766813278198e-01,-2.965511798858642578e+00,1.000000000000000000e+00,-1.527971494942903519e-02,0.000000000000000000e+00
1.600134611129760742e+00,6.629163208007812500e+02,3.688935852050781250e+01,3.688935852050781250e+01,-7.577411085367202759e-02,-1.010544204711914062e+02,-1.344604343175888062e-01,-1.775417566299438477e+00,-8.732039451599121094e+00,4.529257694230182096e-06,-3.528918027877807617e-01,3.139888048171997070e-01,-6.846640189905883744e-06,-3.496278524398803711e-01,1.577588766813278198e-01,-2.965511798858642578e+00,1.000000000000000000e+00,-1.527971494942903519e-02,0.000000000000000000e+00
1.600134611129760742e+00,6.629163208007812500e+02,3.688935852050781250e+01,3.688935852050781250e+01,-7.577411085367202759e-02,-1.010544204711914062e+02,-1.344604343175888062e-01,-1.775417566299438477e+00,-8.732039451599121094e+00,4.529257694230182096e-06,-3.528918027877807617e-01,3.139888048171997070e-01,-6.846640189905883744e-06,-3.496278524398803711e-01,1.577588766813278198e-01,-2.965511798858642578e+00,1.000000000000000000e+00,-1.527971494942903519e-02,0.000000000000000000e+00
1.600134611129760742e+00,6.627872314453125000e+02,3.625708007812500000e+01,3.625708007812500000e+01,-5.401313304901123047e-02,-1.013070144653320312e+02,-1.531067043542861938e-01,-1.835306644439697266e+00,-8.712883949279785156e+00,-1.811718703947917675e-07,-5.190645456314086914e-01,1.660226285457611084e-01,-4.082575833308510482e-05,-3.197244107723236084e-01,-2.070438563823699951e-01,-3.712550401687622070e+00,1.000000000000000000e+00,-2.143304049968719482e-02,0.000000000000000000e+00
1.715513467788696289e+00,6.627872314453125000e+02,3.625708007812500000e+01,3.625708007812500000e+01,-5.401313304901123047e-02,-1.013070144653320312e+02,-1.531067043542861938e-01,-1.835306644439697266e+00,-8.712883949279785156e+00,-1.811718703947917675e-07,-5.190645456314086914e-01,1.660226285457611084e-01,-4.082575833308510482e-05,-3.197244107723236084e-01,-2.070438563823699951e-01,-3.712550401687622070e+00,1.000000000000000000e+00,-2.143304049968719482e-02,0.000000000000000000e+00
1.715513467788696289e+00,6.627872314453125000e+02,3.625708007812500000e+01,3.625708007812500000e+01,-5.401313304901123047e-02,-1.013070144653320312e+02,-1.531067043542861938e-01,-1.835306644439697266e+00,-8.712883949279785156e+00,-1.811718703947917675e-07,-5.190645456314086914e-01,1.660226285457611084e-01,-4.082575833308510482e-05,-3.197244107723236084e-01,-2.070438563823699951e-01,-3.712550401687622070e+00,1.000000000000000000e+00,-2.143304049968719482e-02,0.000000000000000000e+00
1.715513467788696289e+00,6.627872314453125000e+02,3.625708007812500000e+01,3.625708007812500000e+01,-5.401313304901123047e-02,-1.013070144653320312e+02,-1.531067043542861938e-01,-1.835306644439697266e+00,-8.712883949279785156e+00,-1.811718703947917675e-07,-5.190645456314086914e-01,1.660226285457611084e-01,-4.082575833308510482e-05,-3.197244107723236084e-01,-2.070438563823699951e-01,-3.712550401687622070e+00,1.000000000000000000e+00,-2.143304049968719482e-02,0.000000000000000000e+00
1.813115119934082031e+00,6.626041870117187500e+02,3.538645553588867188e+01,3.538645553588867188e+01,-3.195845335721969604e-02,-1.016730804443359375e+02,-1.574706733226776123e-01,-1.883609294891357422e+00,-8.687927246093750000e+00,-1.010726350614277180e-06,-4.948958456516265869e-01,2.556996047496795654e-01,-8.499389878124929965e-06,-1.778203248977661133e-01,4.100241884589195251e-02,-3.640272140502929688e+00,1.000000000000000000e+00,-1.940896175801753998e-02,0.000000000000000000e+00
1.813115119934082031e+00,6.626041870117187500e+02,3.538645553588867188e+01,3.538645553588867188e+01,-3.195845335721969604e-02,-1.016730804443359375e+02,-1.574706733226776123e-01,-1.883609294891357422e+00,-8.687927246093750000e+00,-1.010726350614277180e-06,-4.948958456516265869e-01,2.556996047496795654e-01,-8.499389878124929965e-06,-1.778203248977661133e-01,4.100241884589195251e-02,-3.640272140502929688e+00,1.000000000000000000e+00,-1.940896175801753998e-02,0.000000000000000000e+00
1.813115119934082031e+00,6.626041870117187500e+02,3.538645553588867188e+01,3.538645553588867188e+01,-3.195845335721969604e-02,-1.016730804443359375e+02,-1.574706733226776123e-01,-1.883609294891357422e+00,-8.687927246093750000e+00,-1.010726350614277180e-06,-4.948958456516265869e-01,2.556996047496795654e-01,-8.499389878124929965e-06,-1.778203248977661133e-01,4.100241884589195251e-02,-3.640272140502929688e+00,1.000000000000000000e+00,-1.940896175801753998e-02,0.000000000000000000e+00
1.813115119934082031e+00,6.624216918945312500e+02,3.453896713256835938e+01,3.453896713256835938e+01,-1.837320812046527863e-02,-1.019842758178710938e+02,-1.390685886144638062e-01,-1.910561680793762207e+00,-8.667865753173828125e+00,5.053651648267987184e-07,-3.246503472328186035e-01,2.416472882032394409e-01,1.826182051445357502e-05,-8.327481895685195923e-02,1.568694263696670532e-01,-3.011340141296386719e+00,1.000000000000000000e+00,-1.542293000966310501e-02,0.000000000000000000e+00
1.896134853363037109e+00,6.624216918945312500e+02,3.453896713256835938e+01,3.453896713256835938e+01,-1.837320812046527863e-02,-1.019842758178710938e+02,-1.390685886144638062e-01,-1.910561680793762207e+00,-8.667865753173828125e+00,5.053651648267987184e-07,-3.246503472328186035e-01,2.416472882032394409e-01,1.826182051445357502e-05,-8.327481895685195923e-02,1.568694263696670532e-01,-3.011340141296386719e+00,1.000000000000000000e+00,-1.542293000966310501e-02,0.000000000000000000e+00
1.896134853363037109e+00,6.624216918945312500e+02,3.453896713256835938e+01,3.453896713256835938e+01,-1.837320812046527863e-02,-1.019842758178710938e+02,-1.390685886144638062e-01,-1.910561680793762207e+00,-8.667865753173828125e+00,5.053651648267987184e-07,-3.246503472328186035e-01,2.416472882032394409e-01,1.826182051445357502e-05,-8.327481895685195923e-02,1.568694263696670532e-01,-3.011340141296386719e+00,1.000000000000000000e+00,-1.542293000966310501e-02,0.000000000000000000e+00
1.896134853363037109e+00,6.624216918945312500e+02,3.453896713256835938e+01,3.453896713256835938e+01,-1.837320812046527863e-02,-1.019842758178710938e+02,-1.390685886144638062e-01,-1.910561680793762207e+00,-8.667865753173828125e+00,5.053651648267987184e-07,-3.246503472328186035e-01,2.416472882032394409e-01,1.826182051445357502e-05,-8.327481895685195923e-02,1.568694263696670532e-01,-3.011340141296386719e+00,1.000000000000000000e+00,-1.542293000966310501e-02,0.000000000000000000e+00
1.896134853363037109e+00,6.624216918945312500e+02,3.453896713256835938e+01,3.453896713256835938e+01,-1.837320812046527863e-02,-1.019842758178710938e+02,-1.390685886144638062e-01,-1.910561680793762207e+00,-8.667865753173828125e+00,5.053651648267987184e-07,-3.246503472328186035e-01,2.416472882032394409e-01,1.826182051445357502e-05,-8.327481895685195923e-02,1.568694263696670532e-01,-3.011340141296386719e+00,1.000000000000000000e+00,-1.542293000966310501e-02,0.000000000000000000e+00
1.896134853363037109e+00,6.624216918945312500e+02,3.453896713256835938e+01,3.453896713256835938e+01,-1.837320812046527863e-02,-1.019842758178710938e+02,-1.390685886144638062e-01,-1.910561680793762207e+00,-8.667865753173828125e+00,5.053651648267987184e-07,-3.246503472328186035e-01,2.416472882032394409e-01,1.826182051445357502e-05,-8.327481895685195923e-02,1.568694263696670532e-01,-3.011340141296386719e+00,1.000000000000000000e+00,-1.542293000966310501e-02,0.000000000000000000e+00
1.896134853363037109e+00,6.624216918945312500e+02,3.453896713256835938e+01,3.453896713256835938e+01,-1.837320812046527863e-02,-1.019842758178710938e+02,-1.390685886144638062e-01,-1.910561680793762207e+00,-8.667865753173828125e+00,5.053651648267987184e-07,-3.246503472328186035e-01,2.416472882032394409e-01,1.826182051445357502e-05,-8.327481895685195923e-02,1.568694263696670532e-01,-3.011340141296386719e+00,1.000000000000000000e+00,-1.542293000966310501e-02,0.000000000000000000e+00
1.896134853363037109e+00,6.624216918945312500e+02,3.453896713256835938e+01,3.453896713256835938e+01,-1.837320812046527863e-02,-1.019842758178710938e+02,-1.390685886144638062e-01,-1.910561680793762207e+00,-8.667865753173828125e+00,5.053651648267987184e-07,-3.246503472328186035e-01,2.416472882032394409e-01,1.826182051445357502e-05,-8.327481895685195923e-02,1.568694263696670532e-01,-3.011340141296386719e+00,1.000000000000000000e+00,-1.542293000966310501e-02,0.000000000000000000e+00
2.195794820785522461e+00,6.618896484375000000e+02,3.220208358764648438e+01,3.220208358764648438e+01,-1.741698128171265125e-03,-1.029465484619140625e+02,-1.647033691406250000e-01,-2.072877645492553711e+00,-8.589786529541015625e+00,-2.612685648273327388e-06,-1.159200787544250488e+00,5.258206725120544434e-01,-3.521636972436681390e-05,-6.193841993808746338e-02,-1.318946480751037598e-01,-3.920033216476440430e+00,1.000000000000000000e+00,-2.188273891806602478e-02,0.000000000000000000e+00
2.195794820785522461e+00,6.618896484375000000e+02,3.220208358764648438e+01,3.220208358764648438e+01,-1.741698128171265125e-03,-1.029465484619140625e+02,-1.647033691406250000e-01,-2.072877645492553711e+00,-8.589786529541015625e+00,-2.612685648273327388e-06,-1.159200787544250488e+00,5.258206725120544434e-01,-3.521636972436681390e-05,-6.193841993808746338e-02,-1.318946480751037598e-01,-3.920033216476440430e+00,1.000000000000000000e+00,-2.188273891806602478e-02,0.000000000000000000e+00
2.195794820785522461e+00,6.618896484375000000e+02,3.220208358764648438e+01,3.220208358764648438e+01,-1.741698128171265125e-03,-1.029465484619140625e+02,-1.647033691406250000e-01,-2.072877645492553711e+00,-8.589786529541015625e+00,-2.612685648273327388e-06,-1.159200787544250488e+00,5.258206725120544434e-01,-3.521636972436681390e-05,-6.193841993808746338e-02,-1.318946480751037598e-01,-3.920033216476440430e+00,1.000000000000000000e+00,-2.188273891806602478e-02,0.000000000000000000e+00
2.195794820785522461e+00,6.618896484375000000e+02,3.220208358764648438e+01,3.220208358764648438e+01,-1.741698128171265125e-03,-1.029465484619140625e+02,-1.647033691406250000e-01,-2.072877645492553711e+00,-8.589786529541015625e+00,-2.612685648273327388e-06,-1.159200787544250488e+00,5.258206725120544434e-01,-3.521636972436681390e-05,-6.193841993808746338e-02,-1.318946480751037598e-01,-3.920033216476440430e+00,1.000000000000000000e+00,-2.188273891806602478e-02,0.000000000000000000e+00
2.195794820785522461e+00,6.618896484375000000e+02,3.220208358764648438e+01,3.220208358764648438e+01,-1.741698128171265125e-03,-1.029465484619140625e+02,-1.647033691406250000e-01,-2.072877645492553711e+00,-8.589786529541015625e+00,-2.612685648273327388e-06,-1.159200787544250488e+00,5.258206725120544434e-01,-3.521636972436681390e-05,-6.193841993808746338e-02,-1.318946480751037598e-01,-3.920033216476440430e+00,1.000000000000000000e+00,-2.188273891806602478e-02,0.000000000000000000e+00
2.195794820785522461e+00,6.618896484375000000e+02,3.220208358764648438e+01,3.220208358764648438e+01,-1.741698128171265125e-03,-1.029465484619140625e+02,-1.647033691406250000e-01,-2.072877645492553711e+00,-8.589786529541015625e+00,-2.612685648273327388e-06,-1.159200787544250488e+00,5.258206725120544434e-01,-3.521636972436681390e-05,-6.193841993808746338e-02,-1.318946480751037598e-01,-3.920033216476440430e+00,1.000000000000000000e+00,-2.188273891806602478e-02,0.000000000000000000e+00
2.195794820785522461e+00,6.618896484375000000e+02,3.220208358764648438e+01,3.220208358764648438e+01,-1.741698128171265125e-03,-1.029465484619140625e+02,-1.647033691406250000e-01,-2.072877645492553711e+00,-8.589786529541015625e+00,-2.612685648273327388e-06,-1.159200787544250488e+00,5.258206725120544434e-01,-3.521636972436681390e-05,-6.193841993808746338e-02,-1.318946480751037598e-01,-3.920033216476440430e+00,1.000000000000000000e+00,-2.188273891806602478e-02,0.000000000000000000e+00
2.195794820785522461e+00,6.618896484375000000e+02,3.220208358764648438e+01,3.220208358764648438e+01,-1.741698128171265125e-03,-1.029465484619140625e+02,-1.647033691406250000e-01,-2.072877645492553711e+00,-8.589786529541015625e+00,-2.612685648273327388e-06,-1.159200787544250488e+00,5.258206725120544434e-01,-3.521636972436681390e-05,-6.193841993808746338e-02,-1.318946480751037598e-01,-3.920033216476440430e+00,1.000000000000000000e+00,-2.188273891806602478e-02,0.000000000000000000e+00
2.195794820785522461e+00,6.618896484375000000e+02,3.220208358764648438e+01,3.220208358764648438e+01,-1.741698128171265125e-03,-1.029465484619140625e+02,-1.647033691406250000e-01,-2.072877645492553711e+00,-8.589786529541015625e+00,-2.612685648273327388e-06,-1.159200787544250488e+00,5.258206725120544434e-01,-3.521636972436681390e-05,-6.193841993808746338e-02,-1.318946480751037598e-01,-3.920033216476440430e+00,1.000000000000000000e+00,-2.188273891806602478e-02,0.000000000000000000e+00
2.195794820785522461e+00,6.618896484375000000e+02,3.220208358764648438e+01,3.220208358764648438e+01,-1.741698128171265125e-03,-1.029465484619140625e+02,-1.647033691406250000e-01,-2.072877645492553711e+00,-8.589786529541015625e+00,-2.612685648273327388e-06,-1.159200787544250488e+00,5.258206725120544434e-01,-3.521636972436681390e-05,-6.193841993808746338e-02,-1.318946480751037598e-01,-3.920033216476440430e+00,1.000000000000000000e+00,-2.188273891806602478e-02,0.000000000000000000e+00
2.374083757400512695e+00,6.617792968750000000e+02,3.174039459228515625e+01,3.174039459228515625e+01,-2.636452950537204742e-02,-1.031470718383789062e+02,-1.631164550781250000e-01,-2.135846853256225586e+00,-8.755572319030761719e+00,-9.058703653863631189e-07,-3.531862795352935791e-01,-9.298714399337768555e-01,9.573310308041982353e-06,6.700434684753417969e-01,-8.931074291467666626e-02,-3.726065635681152344e+00,1.000000000000000000e+00,-1.871305145323276520e-02,0.000000000000000000e+00
2.374083757400512695e+00,6.617792968750000000e+02,3.174039459228515625e+01,3.174039459228515625e+01,-2.636452950537204742e-02,-1.031470718383789062e+02,-1.631164550781250000e-01,-2.135846853256225586e+00,-8.755572319030761719e+00,-9.058703653863631189e-07,-3.531862795352935791e-01,-9.298714399337768555e-01,9.573310308041982353e-06,6.700434684753417969e-01,-8.931074291467666626e-02,-3.726065635681152344e+00,1.000000000000000000e+00,-1.871305145323276520e-02,0.000000000000000000e+00
2.374083757400512695e+00,6.617792968750000000e+02,3.174039459228515625e+01,3.174039459228515625e+01,-2.636452950537204742e-02,-1.031470718383789062e+02,-1.631164550781250000e-01,-2.135846853256225586e+00,-8.755572319030761719e+00,-9.058703653863631189e-07,-3.531862795352935791e-01,-9.298714399337768555e-01,9.573310308041982353e-06,6.700434684753417969e-01,-8.931074291467666626e-02,-3.726065635681152344e+00,1.000000000000000000e+00,-1.871305145323276520e-02,0.000000000000000000e+00
2.447860002517700195e+00,6.615620727539062500e+02,3.084614944458007812e+01,3.084614944458007812e+01,-1.145354360342025757e-01,-1.034910888671875000e+02,-1.496887356042861938e-01,-2.253321170806884766e+00,-9.068025588989257812e+00,-3.356374236318515614e-06,-1.592305421829223633e+00,-4.235147476196289062e+00,-3.321535041322931647e-05,8.752761483192443848e-01,-1.390832513570785522e-01,-3.345938205718994141e+00,1.000000000000000000e+00,-1.644298061728477478e-02,0.000000000000000000e+00
2.447860002517700195e+00,6.615620727539062500e+02,3.084614944458007812e+01,3.084614944458007812e+01,-1.145354360342025757e-01,-1.034910888671875000e+02,-1.496887356042861938e-01,-2.253321170806884766e+00,-9.068025588989257812e+00,-3.356374236318515614e-06,-1.592305421829223633e+00,-4.235147476196289062e+00,-3.321535041322931647e-05,8.752761483192443848e-01,-1.390832513570785522e-01,-3.345938205718994141e+00,1.000000000000000000e+00,-1.644298061728477478e-02,0.000000000000000000e+00
2.500878810882568359e+00,6.613931884765625000e+02,3.016694259643554688e+01,3.016694259643554688e+01,-1.717246025800704956e-01,-1.037664718627929688e+02,-1.642150878906250000e-01,-2.370038509368896484e+00,-9.289928436279296875e+00,-6.255180323933018371e-06,-2.201432704925537109e+00,-4.185360908508300781e+00,-5.467505252454429865e-05,6.397767663002014160e-01,-3.840408623218536377e-01,-3.917410850524902344e+00,1.000000000000000000e+00,-2.054312638938426971e-02,0.000000000000000000e+00
2.500878810882568359e+00,6.613931884765625000e+02,3.016694259643554688e+01,3.016694259643554688e+01,-1.717246025800704956e-01,-1.037664718627929688e+02,-1.642150878906250000e-01,-2.370038509368896484e+00,-9.289928436279296875e+00,-6.255180323933018371e-06,-2.201432704925537109e+00,-4.185360908508300781e+00,-5.467505252454429865e-05,6.397767663002014160e-01,-3.840408623218536377e-01,-3.917410850524902344e+00,1.000000000000000000e+00,-2.054312638938426971e-02,0.000000000000000000e+00
2.500878810882568359e+00,6.612670288085937500e+02,2.966867065429687500e+01,2.966867065429687500e+01,-2.047417461872100830e-01,-1.039705429077148438e+02,-1.672363281250000000e-01,-2.439954757690429688e+00,-9.452757835388183594e+00,-5.082410098111722618e-06,-1.178695440292358398e+00,-2.745088338851928711e+00,1.977135434572119266e-05,5.577172040939331055e-01,-1.573232114315032959e-01,-3.824924945831298828e+00,1.000000000000000000e+00,-1.810488104820251465e-02,0.000000000000000000e+00
2.560195446014404297e+00,6.612670288085937500e+02,2.966867065429687500e+01,2.966867065429687500e+01,-2.047417461872100830e-01,-1.039705429077148438e+02,-1.672363281250000000e-01,-2.439954757690429688e+00,-9.452757835388183594e+00,-5.082410098111722618e-06,-1.178695440292358398e+00,-2.745088338851928711e+00,1.977135434572119266e-05,5.577172040939331055e-01,-1.573232114315032959e-01,-3.824924945831298828e+00,1.000000000000000000e+00,-1.810488104820251465e-02,0.000000000000000000e+00
2.560195446014404297e+00,6.612670288085937500e+02,2.966867065429687500e+01,2.966867065429687500e+01,-2.047417461872100830e-01,-1.039705429077148438e+02,-1.672363281250000000e-01,-2.439954757690429688e+00,-9.452757835388183594e+00,-5.082410098111722618e-06,-1.178695440292358398e+00,-2.745088338851928711e+00,1.977135434572119266e-05,5.577172040939331055e-01,-1.573232114315032959e-01,-3.824924945831298828e+00,1.000000000000000000e+00,-1.810488104820251465e-02,0.000000000000000000e+00
2.618730545043945312e+00,6.611215209960937500e+02,2.910080718994140625e+01,2.910080718994140625e+01,-2.349243462085723877e-01,-1.041858596801757812e+02,-1.621703803539276123e-01,-2.513694524765014648e+00,-9.635597229003906250e+00,-4.309968517191009596e-06,-1.259752988815307617e+00,-3.123585700988769531e+00,1.319621151196770370e-05,4.656855762004852295e-01,-2.993216924369335175e-02,-3.551250457763671875e+00,1.000000000000000000e+00,-1.596984826028347015e-02,0.000000000000000000e+00
2.618730545043945312e+00,6.611215209960937500e+02,2.910080718994140625e+01,2.910080718994140625e+01,-2.349243462085723877e-01,-1.041858596801757812e+02,-1.621703803539276123e-01,-2.513694524765014648e+00,-9.635597229003906250e+00,-4.309968517191009596e-06,-1.259752988815307617e+00,-3.123585700988769531e+00,1.319621151196770370e-05,4.656855762004852295e-01,-2.993216924369335175e-02,-3.551250457763671875e+00,1.000000000000000000e+00,-1.596984826028347015e-02,0.000000000000000000e+00
2.677334070205688477e+00,6.609727172851562500e+02,2.853008460998535156e+01,2.853008460998535156e+01,-2.573546767234802246e-01,-1.044179077148437500e+02,-1.763915419578552246e-01,-2.616625308990478516e+00,-9.806725502014160156e+00,-3.966704298363765702e-06,-1.756392359733581543e+00,-2.920102119445800781e+00,5.857398718944750726e-06,2.570974230766296387e-01,-3.770072162151336670e-01,-4.153993129730224609e+00,1.000000000000000000e+00,-2.142737247049808502e-02,0.000000000000000000e+00
2.677334070205688477e+00,6.609727172851562500e+02,2.853008460998535156e+01,2.853008460998535156e+01,-2.573546767234802246e-01,-1.044179077148437500e+02,-1.763915419578552246e-01,-2.616625308990478516e+00,-9.806725502014160156e+00,-3.966704298363765702e-06,-1.756392359733581543e+00,-2.920102119445800781e+00,5.857398718944750726e-06,2.570974230766296387e-01,-3.770072162151336670e-01,-4.153993129730224609e+00,1.000000000000000000e+00,-2.142737247049808502e-02,0.000000000000000000e+00
2.677334070205688477e+00,6.609727172851562500e+02,2.853008460998535156e+01,2.853008460998535156e+01,-2.573546767234802246e-01,-1.044179077148437500e+02,-1.763915419578552246e-01,-2.616625308990478516e+00,-9.806725502014160156e+00,-3.966704298363765702e-06,-1.756392359733581543e+00,-2.920102119445800781e+00,5.857398718944750726e-06,2.570974230766296387e-01,-3.770072162151336670e-01,-4.153993129730224609e+00,1.000000000000000000e+00,-2.142737247049808502e-02,0.000000000000000000e+00
2.677334070205688477e+00,6.609727172851562500e+02,2.853008460998535156e+01,2.853008460998535156e+01,-2.573546767234802246e-01,-1.044179077148437500e+02,-1.763915419578552246e-01,-2.616625308990478516e+00,-9.806725502014160156e+00,-3.966704298363765702e-06,-1.756392359733581543e+00,-2.920102119445800781e+00,5.857398718944750726e-06,2.570974230766296387e-01,-3.770072162151336670e-01,-4.153993129730224609e+00,1.000000000000000000e+00,-2.142737247049808502e-02,0.000000000000000000e+00
2.755024909973144531e+00,6.608183593750000000e+02,2.794846153259277344e+01,2.794846153259277344e+01,-2.741432785987854004e-01,-1.046630706787109375e+02,-1.857910007238388062e-01,-2.704945087432861328e+00,-9.981569290161132812e+00,-3.251552925576106645e-06,-1.136810779571533203e+00,-2.250507116317749023e+00,9.205092283082194626e-06,2.170654237270355225e-01,-1.773629039525985718e-01,-4.204835891723632812e+00,1.000000000000000000e+00,-1.949016004800796509e-02,0.000000000000000000e+00
2.755024909973144531e+00,6.608183593750000000e+02,2.794846153259277344e+01,2.794846153259277344e+01,-2.741432785987854004e-01,-1.046630706787109375e+02,-1.857910007238388062e-01,-2.704945087432861328e+00,-9.981569290161132812e+00,-3.251552925576106645e-06,-1.136810779571533203e+00,-2.250507116317749023e+00,9.205092283082194626e-06,2.170654237270355225e-01,-1.773629039525985718e-01,-4.204835891723632812e+00,1.000000000000000000e+00,-1.949016004800796509e-02,0.000000000000000000e+00
2.755024909973144531e+00,6.608183593750000000e+02,2.794846153259277344e+01,2.794846153259277344e+01,-2.741432785987854004e-01,-1.046630706787109375e+02,-1.857910007238388062e-01,-2.704945087432861328e+00,-9.981569290161132812e+00,-3.251552925576106645e-06,-1.136810779571533203e+00,-2.250507116317749023e+00,9.205092283082194626e-06,2.170654237270355225e-01,-1.773629039525985718e-01,-4.204835891723632812e+00,1.000000000000000000e+00,-1.949016004800796509e-02,0.000000000000000000e+00
2.830169916152954102e+00,6.606058959960937500e+02,2.716142272949218750e+01,2.716142272949218750e+01,-2.898868620395660400e-01,-1.049739379882812500e+02,-1.838378757238388062e-01,-2.813279867172241211e+00,-1.021463203430175781e+01,-2.860578440788685839e-08,-1.441676378250122070e+00,-3.101506710052490234e+00,4.288970376364886761e-05,1.693854033946990967e-01,-2.054908499121665955e-02,-3.920379877090454102e+00,1.000000000000000000e+00,-1.704308576881885529e-02,0.000000000000000000e+00
2.830169916152954102e+00,6.606058959960937500e+02,2.716142272949218750e+01,2.716142272949218750e+01,-2.898868620395660400e-01,-1.049739379882812500e+02,-1.838378757238388062e-01,-2.813279867172241211e+00,-1.021463203430175781e+01,-2.860578440788685839e-08,-1.441676378250122070e+00,-3.101506710052490234e+00,4.288970376364886761e-05,1.693854033946990967e-01,-2.054908499121665955e-02,-3.920379877090454102e+00,1.000000000000000000e+00,-1.704308576881885529e-02,0.000000000000000000e+00
2.830169916152954102e+00,6.606058959960937500e+02,2.716142272949218750e+01,2.716142272949218750e+01,-2.898868620395660400e-01,-1.049739379882812500e+02,-1.838378757238388062e-01,-2.813279867172241211e+00,-1.021463203430175781e+01,-2.860578440788685839e-08,-1.441676378250122070e+00,-3.101506710052490234e+00,4.288970376364886761e-05,1.693854033946990967e-01,-2.054908499121665955e-02,-3.920379877090454102e+00,1.000000000000000000e+00,-1.704308576881885529e-02,0.000000000000000000e+00
2.830169916152954102e+00,6.606058959960937500e+02,2.716142272949218750e+01,2.716142272949218750e+01,-2.898868620395660400e-01,-1.049739379882812500e+02,-1.838378757238388062e-01,-2.813279867172241211e+00,-1.021463203430175781e+01,-2.860578440788685839e-08,-1.441676378250122070e+00,-3.101506710052490234e+00,4.288970376364886761e-05,1.693854033946990967e-01,-2.054908499121665955e-02,-3.920379877090454102e+00,1.000000000000000000e+00,-1.704308576881885529e-02,0.000000000000000000e+00
2.830169916152954102e+00,6.606058959960937500e+02,2.716142272949218750e+01,2.716142272949218750e+01,-2.898868620395660400e-01,-1.049739379882812500e+02,-1.838378757238388062e-01,-2.813279867172241211e+00,-1.021463203430175781e+01,-2.860578440788685839e-08,-1.441676378250122070e+00,-3.101506710052490234e+00,4.288970376364886761e-05,1.693854033946990967e-01,-2.054908499121665955e-02,-3.920379877090454102e+00,1.000000000000000000e+00,-1.704308576881885529e-02,0.000000000000000000e+00
