# Time,X,Y,Z,Roll,Pitch,Yaw,Vx,Vy,Vz,Ax,Ay,Az,Wx,Wy,Wz,Throttle,Steer,Brake
0.000000000000000000e+00,-2.776838073730468750e+02,-9.567264556884765625e+00,-9.567264556884765625e+00,2.572249062359333038e-02,1.702896728515625000e+02,3.470717072486877441e-01,-1.387765312194824219e+01,2.399110317230224609e+00,3.423206635488895699e-06,5.015411297790706158e-04,1.084215641021728516e+00,-1.176063142338534817e-05,-1.151293441653251648e-01,5.434930324554443359e-02,-5.732691287994384766e+00,5.000000000000000000e-01,-1.612796820700168610e-02,0.000000000000000000e+00
1.045818328857421875e-01,-2.776838073730468750e+02,-9.567264556884765625e+00,-9.567264556884765625e+00,2.572249062359333038e-02,1.702896728515625000e+02,3.470717072486877441e-01,-1.387765312194824219e+01,2.399110317230224609e+00,3.423206635488895699e-06,5.015411297790706158e-04,1.084215641021728516e+00,-1.176063142338534817e-05,-1.151293441653251648e-01,5.434930324554443359e-02,-5.732691287994384766e+00,5.000000000000000000e-01,-1.612796820700168610e-02,0.000000000000000000e+00
1.045818328857421875e-01,-2.776838073730468750e+02,-9.567264556884765625e+00,-9.567264556884765625e+00,2.572249062359333038e-02,1.702896728515625000e+02,3.470717072486877441e-01,-1.387765312194824219e+01,2.399110317230224609e+00,3.423206635488895699e-06,5.015411297790706158e-04,1.084215641021728516e+00,-1.176063142338534817e-05,-1.151293441653251648e-01,5.434930324554443359e-02,-5.732691287994384766e+00,5.000000000000000000e-01,-1.612796820700168610e-02,0.000000000000000000e+00
1.045818328857421875e-01,-2.776838073730468750e+02,-9.567264556884765625e+00,-9.567264556884765625e+00,2.572249062359333038e-02,1.702896728515625000e+02,3.470717072486877441e-01,-1.387765312194824219e+01,2.399110317230224609e+00,3.423206635488895699e-06,5.015411297790706158e-04,1.084215641021728516e+00,-1.176063142338534817e-05,-1.151293441653251648e-01,5.434930324554443359e-02,-5.732691287994384766e+00,5.000000000000000000e-01,-1.612796820700168610e-02,0.000000000000000000e+00
1.045818328857421875e-01,-2.776838073730468750e+02,-9.567264556884765625e+00,-9.567264556884765625e+00,2.572249062359333038e-02,1.702896728515625000e+02,3.470717072486877441e-01,-1.387765312194824219e+01,2.399110317230224609e+00,3.423206635488895699e-06,5.015411297790706158e-04,1.084215641021728516e+00,-1.176063142338534817e-05,-1.151293441653251648e-01,5.434930324554443359e-02,-5.732691287994384766e+00,5.000000000000000000e-01,-1.612796820700168610e-02,0.000000000000000000e+00
1.045818328857421875e-01,-2.776838073730468750e+02,-9.567264556884765625e+00,-9.567264556884765625e+00,2.572249062359333038e-02,1.702896728515625000e+02,3.470717072486877441e-01,-1.387765312194824219e+01,2.399110317230224609e+00,3.423206635488895699e-06,5.015411297790706158e-04,1.084215641021728516e+00,-1.176063142338534817e-05,-1.151293441653251648e-01,5.434930324554443359e-02,-5.732691287994384766e+00,5.000000000000000000e-01,-1.612796820700168610e-02,0.000000000000000000e+00
1.045818328857421875e-01,-2.790686645507812500e+02,-9.320915222167968750e+00,-9.320915222167968750e+00,2.082524634897708893e-02,1.696980438232421875e+02,3.445887267589569092e-01,-1.382181262969970703e+01,2.544902324676513672e+00,8.963044706433720421e-07,5.332926511764526367e-01,1.392355322837829590e+00,-2.413263609923887998e-05,-1.417825277894735336e-02,-7.642383128404617310e-02,-6.003647804260253906e+00,5.000000000000000000e-01,-1.832046546041965485e-02,0.000000000000000000e+00
2.092907428741455078e-01,-2.790686645507812500e+02,-9.320915222167968750e+00,-9.320915222167968750e+00,2.082524634897708893e-02,1.696980438232421875e+02,3.445887267589569092e-01,-1.382181262969970703e+01,2.544902324676513672e+00,8.963044706433720421e-07,5.332926511764526367e-01,1.392355322837829590e+00,-2.413263609923887998e-05,-1.417825277894735336e-02,-7.642383128404617310e-02,-6.003647804260253906e+00,5.000000000000000000e-01,-1.832046546041965485e-02,0.000000000000000000e+00
2.092907428741455078e-01,-2.790686645507812500e+02,-9.320915222167968750e+00,-9.320915222167968750e+00,2.082524634897708893e-02,1.696980438232421875e+02,3.445887267589569092e-01,-1.382181262969970703e+01,2.544902324676513672e+00,8.963044706433720421e-07,5.332926511764526367e-01,1.392355322837829590e+00,-2.413263609923887998e-05,-1.417825277894735336e-02,-7.642383128404617310e-02,-6.003647804260253906e+00,5.000000000000000000e-01,-1.832046546041965485e-02,0.000000000000000000e+00
2.092907428741455078e-01,-2.790686645507812500e+02,-9.320915222167968750e+00,-9.320915222167968750e+00,2.082524634897708893e-02,1.696980438232421875e+02,3.445887267589569092e-01,-1.382181262969970703e+01,2.544902324676513672e+00,8.963044706433720421e-07,5.332926511764526367e-01,1.392355322837829590e+00,-2.413263609923887998e-05,-1.417825277894735336e-02,-7.642383128404617310e-02,-6.003647804260253906e+00,5.000000000000000000e-01,-1.832046546041965485e-02,0.000000000000000000e+00
2.092907428741455078e-01,-2.790686645507812500e+02,-9.320915222167968750e+00,-9.320915222167968750e+00,2.082524634897708893e-02,1.696980438232421875e+02,3.445887267589569092e-01,-1.382181262969970703e+01,2.544902324676513672e+00,8.963044706433720421e-07,5.332926511764526367e-01,1.392355322837829590e+00,-2.413263609923887998e-05,-1.417825277894735336e-02,-7.642383128404617310e-02,-6.003647804260253906e+00,5.000000000000000000e-01,-1.832046546041965485e-02,0.000000000000000000e+00
2.092907428741455078e-01,-2.804477233886718750e+02,-9.059531211853027344e+00,-9.059531211853027344e+00,1.292954757809638977e-02,1.690608978271484375e+02,3.517500460147857666e-01,-1.376214122772216797e+01,2.700253248214721680e+00,-2.193085265389527194e-06,7.996855974197387695e-01,2.081933498382568359e+00,-4.140242162975482643e-05,6.311894953250885010e-02,-8.730861544609069824e-02,-6.546724319458007812e+00,5.000000000000000000e-01,-2.034397050738334656e-02,0.000000000000000000e+00
2.839093208312988281e-01,-2.804477233886718750e+02,-9.059531211853027344e+00,-9.059531211853027344e+00,1.292954757809638977e-02,1.690608978271484375e+02,3.517500460147857666e-01,-1.376214122772216797e+01,2.700253248214721680e+00,-2.193085265389527194e-06,7.996855974197387695e-01,2.081933498382568359e+00,-4.140242162975482643e-05,6.311894953250885010e-02,-8.730861544609069824e-02,-6.546724319458007812e+00,5.000000000000000000e-01,-2.034397050738334656e-02,0.000000000000000000e+00
2.839093208312988281e-01,-2.804477233886718750e+02,-9.059531211853027344e+00,-9.059531211853027344e+00,1.292954757809638977e-02,1.690608978271484375e+02,3.517500460147857666e-01,-1.376214122772216797e+01,2.700253248214721680e+00,-2.193085265389527194e-06,7.996855974197387695e-01,2.081933498382568359e+00,-4.140242162975482643e-05,6.311894953250885010e-02,-8.730861544609069824e-02,-6.546724319458007812e+00,5.000000000000000000e-01,-2.034397050738334656e-02,0.000000000000000000e+00
2.839093208312988281e-01,-2.804477233886718750e+02,-9.059531211853027344e+00,-9.059531211853027344e+00,1.292954757809638977e-02,1.690608978271484375e+02,3.517500460147857666e-01,-1.376214122772216797e+01,2.700253248214721680e+00,-2.193085265389527194e-06,7.996855974197387695e-01,2.081933498382568359e+00,-4.140242162975482643e-05,6.311894953250885010e-02,-8.730861544609069824e-02,-6.546724319458007812e+00,5.000000000000000000e-01,-2.034397050738334656e-02,0.000000000000000000e+00
2.839093208312988281e-01,-2.804477233886718750e+02,-9.059531211853027344e+00,-9.059531211853027344e+00,1.292954757809638977e-02,1.690608978271484375e+02,3.517500460147857666e-01,-1.376214122772216797e+01,2.700253248214721680e+00,-2.193085265389527194e-06,7.996855974197387695e-01,2.081933498382568359e+00,-4.140242162975482643e-05,6.311894953250885010e-02,-8.730861544609069824e-02,-6.546724319458007812e+00,5.000000000000000000e-01,-2.034397050738334656e-02,0.000000000000000000e+00
3.569011688232421875e-01,-2.814727783203125000e+02,-8.854367256164550781e+00,-8.854367256164550781e+00,8.203056640923023224e-03,1.685524139404296875e+02,3.602645099163055420e-01,-1.371515750885009766e+01,2.821443080902099609e+00,-4.443459147296380252e-06,6.436844468116760254e-01,1.660320043563842773e+00,-3.083048068219795823e-05,1.057447791099548340e-01,-7.997832447290420532e-02,-6.946427345275878906e+00,5.000000000000000000e-01,-2.171955071389675140e-02,0.000000000000000000e+00
3.569011688232421875e-01,-2.814727783203125000e+02,-8.854367256164550781e+00,-8.854367256164550781e+00,8.203056640923023224e-03,1.685524139404296875e+02,3.602645099163055420e-01,-1.371515750885009766e+01,2.821443080902099609e+00,-4.443459147296380252e-06,6.436844468116760254e-01,1.660320043563842773e+00,-3.083048068219795823e-05,1.057447791099548340e-01,-7.997832447290420532e-02,-6.946427345275878906e+00,5.000000000000000000e-01,-2.171955071389675140e-02,0.000000000000000000e+00
3.569011688232421875e-01,-2.814727783203125000e+02,-8.854367256164550781e+00,-8.854367256164550781e+00,8.203056640923023224e-03,1.685524139404296875e+02,3.602645099163055420e-01,-1.371515750885009766e+01,2.821443080902099609e+00,-4.443459147296380252e-06,6.436844468116760254e-01,1.660320043563842773e+00,-3.083048068219795823e-05,1.057447791099548340e-01,-7.997832447290420532e-02,-6.946427345275878906e+00,5.000000000000000000e-01,-2.171955071389675140e-02,0.000000000000000000e+00
3.569011688232421875e-01,-2.814727783203125000e+02,-8.854367256164550781e+00,-8.854367256164550781e+00,8.203056640923023224e-03,1.685524139404296875e+02,3.602645099163055420e-01,-1.371515750885009766e+01,2.821443080902099609e+00,-4.443459147296380252e-06,6.436844468116760254e-01,1.660320043563842773e+00,-3.083048068219795823e-05,1.057447791099548340e-01,-7.997832447290420532e-02,-6.946427345275878906e+00,5.000000000000000000e-01,-2.171955071389675140e-02,0.000000000000000000e+00
4.765405654907226562e-01,-2.824722900390625000e+02,-8.645647048950195312e+00,-8.645647048950195312e+00,4.685509484261274338e-03,1.680593566894531250e+02,3.627108931541442871e-01,-1.367154502868652344e+01,2.925997257232666016e+00,-3.289695996500086039e-06,3.645327687263488770e-01,8.739109635353088379e-01,9.643672456149943173e-06,1.777256024070084095e-03,-4.410456493496894836e-02,-6.658979892730712891e+00,5.000000000000000000e-01,-1.934394799172878265e-02,0.000000000000000000e+00
4.765405654907226562e-01,-2.824722900390625000e+02,-8.645647048950195312e+00,-8.645647048950195312e+00,4.685509484261274338e-03,1.680593566894531250e+02,3.627108931541442871e-01,-1.367154502868652344e+01,2.925997257232666016e+00,-3.289695996500086039e-06,3.645327687263488770e-01,8.739109635353088379e-01,9.643672456149943173e-06,1.777256024070084095e-03,-4.410456493496894836e-02,-6.658979892730712891e+00,5.000000000000000000e-01,-1.934394799172878265e-02,0.000000000000000000e+00
4.765405654907226562e-01,-2.824722900390625000e+02,-8.645647048950195312e+00,-8.645647048950195312e+00,4.685509484261274338e-03,1.680593566894531250e+02,3.627108931541442871e-01,-1.367154502868652344e+01,2.925997257232666016e+00,-3.289695996500086039e-06,3.645327687263488770e-01,8.739109635353088379e-01,9.643672456149943173e-06,1.777256024070084095e-03,-4.410456493496894836e-02,-6.658979892730712891e+00,5.000000000000000000e-01,-1.934394799172878265e-02,0.000000000000000000e+00
4.765405654907226562e-01,-2.824722900390625000e+02,-8.645647048950195312e+00,-8.645647048950195312e+00,4.685509484261274338e-03,1.680593566894531250e+02,3.627108931541442871e-01,-1.367154502868652344e+01,2.925997257232666016e+00,-3.289695996500086039e-06,3.645327687263488770e-01,8.739109635353088379e-01,9.643672456149943173e-06,1.777256024070084095e-03,-4.410456493496894836e-02,-6.658979892730712891e+00,5.000000000000000000e-01,-1.934394799172878265e-02,0.000000000000000000e+00
4.765405654907226562e-01,-2.824722900390625000e+02,-8.645647048950195312e+00,-8.645647048950195312e+00,4.685509484261274338e-03,1.680593566894531250e+02,3.627108931541442871e-01,-1.367154502868652344e+01,2.925997257232666016e+00,-3.289695996500086039e-06,3.645327687263488770e-01,8.739109635353088379e-01,9.643672456149943173e-06,1.777256024070084095e-03,-4.410456493496894836e-02,-6.658979892730712891e+00,5.000000000000000000e-01,-1.934394799172878265e-02,0.000000000000000000e+00
4.765405654907226562e-01,-2.824722900390625000e+02,-8.645647048950195312e+00,-8.645647048950195312e+00,4.685509484261274338e-03,1.680593566894531250e+02,3.627108931541442871e-01,-1.367154502868652344e+01,2.925997257232666016e+00,-3.289695996500086039e-06,3.645327687263488770e-01,8.739109635353088379e-01,9.643672456149943173e-06,1.777256024070084095e-03,-4.410456493496894836e-02,-6.658979892730712891e+00,5.000000000000000000e-01,-1.934394799172878265e-02,0.000000000000000000e+00
4.765405654907226562e-01,-2.824722900390625000e+02,-8.645647048950195312e+00,-8.645647048950195312e+00,4.685509484261274338e-03,1.680593566894531250e+02,3.627108931541442871e-01,-1.367154502868652344e+01,2.925997257232666016e+00,-3.289695996500086039e-06,3.645327687263488770e-01,8.739109635353088379e-01,9.643672456149943173e-06,1.777256024070084095e-03,-4.410456493496894836e-02,-6.658979892730712891e+00,5.000000000000000000e-01,-1.934394799172878265e-02,0.000000000000000000e+00
6.200885772705078125e-01,-2.838361511230468750e+02,-8.346226692199707031e+00,-8.346226692199707031e+00,1.215773634612560272e-03,1.673848266601562500e+02,3.680610656738281250e-01,-1.360684204101562500e+01,3.083096742630004883e+00,-2.784264779620571062e-06,4.507411122322082520e-01,1.094403743743896484e+00,3.520990730976336636e-06,5.171870067715644836e-02,-4.060733690857887268e-02,-6.784759044647216797e+00,5.000000000000000000e-01,-2.058296278119087219e-02,0.000000000000000000e+00
6.200885772705078125e-01,-2.838361511230468750e+02,-8.346226692199707031e+00,-8.346226692199707031e+00,1.215773634612560272e-03,1.673848266601562500e+02,3.680610656738281250e-01,-1.360684204101562500e+01,3.083096742630004883e+00,-2.784264779620571062e-06,4.507411122322082520e-01,1.094403743743896484e+00,3.520990730976336636e-06,5.171870067715644836e-02,-4.060733690857887268e-02,-6.784759044647216797e+00,5.000000000000000000e-01,-2.058296278119087219e-02,0.000000000000000000e+00
6.200885772705078125e-01,-2.838361511230468750e+02,-8.346226692199707031e+00,-8.346226692199707031e+00,1.215773634612560272e-03,1.673848266601562500e+02,3.680610656738281250e-01,-1.360684204101562500e+01,3.083096742630004883e+00,-2.784264779620571062e-06,4.507411122322082520e-01,1.094403743743896484e+00,3.520990730976336636e-06,5.171870067715644836e-02,-4.060733690857887268e-02,-6.784759044647216797e+00,5.000000000000000000e-01,-2.058296278119087219e-02,0.000000000000000000e+00
6.200885772705078125e-01,-2.838361511230468750e+02,-8.346226692199707031e+00,-8.346226692199707031e+00,1.215773634612560272e-03,1.673848266601562500e+02,3.680610656738281250e-01,-1.360684204101562500e+01,3.083096742630004883e+00,-2.784264779620571062e-06,4.507411122322082520e-01,1.094403743743896484e+00,3.520990730976336636e-06,5.171870067715644836e-02,-4.060733690857887268e-02,-6.784759044647216797e+00,5.000000000000000000e-01,-2.058296278119087219e-02,0.000000000000000000e+00
6.200885772705078125e-01,-2.838361511230468750e+02,-8.346226692199707031e+00,-8.346226692199707031e+00,1.215773634612560272e-03,1.673848266601562500e+02,3.680610656738281250e-01,-1.360684204101562500e+01,3.083096742630004883e+00,-2.784264779620571062e-06,4.507411122322082520e-01,1.094403743743896484e+00,3.520990730976336636e-06,5.171870067715644836e-02,-4.060733690857887268e-02,-6.784759044647216797e+00,5.000000000000000000e-01,-2.058296278119087219e-02,0.000000000000000000e+00
6.200885772705078125e-01,-2.838361511230468750e+02,-8.346226692199707031e+00,-8.346226692199707031e+00,1.215773634612560272e-03,1.673848266601562500e+02,3.680610656738281250e-01,-1.360684204101562500e+01,3.083096742630004883e+00,-2.784264779620571062e-06,4.507411122322082520e-01,1.094403743743896484e+00,3.520990730976336636e-06,5.171870067715644836e-02,-4.060733690857887268e-02,-6.784759044647216797e+00,5.000000000000000000e-01,-2.058296278119087219e-02,0.000000000000000000e+00
7.946169376373291016e-01,-2.852104492187500000e+02,-8.028903961181640625e+00,-8.028903961181640625e+00,2.572249062359333038e-02,1.667492980957031250e+02,3.612833023071289062e-01,-1.380587100982666016e+01,3.274390220642089844e+00,1.945171334227779880e-06,-1.140381813049316406e+00,1.096059560775756836e+00,2.709838190639857203e-05,-1.467780023813247681e-02,2.906905412673950195e-01,-6.149499893188476562e+00,5.000000000000000000e-01,-1.723060570657253265e-02,0.000000000000000000e+00
7.946169376373291016e-01,-2.852104492187500000e+02,-8.028903961181640625e+00,-8.028903961181640625e+00,2.572249062359333038e-02,1.667492980957031250e+02,3.612833023071289062e-01,-1.380587100982666016e+01,3.274390220642089844e+00,1.945171334227779880e-06,-1.140381813049316406e+00,1.096059560775756836e+00,2.709838190639857203e-05,-1.467780023813247681e-02,2.906905412673950195e-01,-6.149499893188476562e+00,5.000000000000000000e-01,-1.723060570657253265e-02,0.000000000000000000e+00
7.946169376373291016e-01,-2.852104492187500000e+02,-8.028903961181640625e+00,-8.028903961181640625e+00,2.572249062359333038e-02,1.667492980957031250e+02,3.612833023071289062e-01,-1.380587100982666016e+01,3.274390220642089844e+00,1.945171334227779880e-06,-1.140381813049316406e+00,1.096059560775756836e+00,2.709838190639857203e-05,-1.467780023813247681e-02,2.906905412673950195e-01,-6.149499893188476562e+00,5.000000000000000000e-01,-1.723060570657253265e-02,0.000000000000000000e+00
7.946169376373291016e-01,-2.852104492187500000e+02,-8.028903961181640625e+00,-8.028903961181640625e+00,2.572249062359333038e-02,1.667492980957031250e+02,3.612833023071289062e-01,-1.380587100982666016e+01,3.274390220642089844e+00,1.945171334227779880e-06,-1.140381813049316406e+00,1.096059560775756836e+00,2.709838190639857203e-05,-1.467780023813247681e-02,2.906905412673950195e-01,-6.149499893188476562e+00,5.000000000000000000e-01,-1.723060570657253265e-02,0.000000000000000000e+00
8.783230781555175781e-01,-2.865964660644531250e+02,-7.693193912506103516e+00,-7.693193912506103516e+00,4.327607527375221252e-02,1.661368103027343750e+02,3.578808903694152832e-01,-1.387449550628662109e+01,3.449963092803955078e+00,1.182359028462087736e-06,-8.198263049125671387e-01,2.097491025924682617e+00,-9.112979569181334227e-06,4.097222816199064255e-03,9.459313005208969116e-02,-6.112675189971923828e+00,5.000000000000000000e-01,-1.793899573385715485e-02,0.000000000000000000e+00
8.783230781555175781e-01,-2.865964660644531250e+02,-7.693193912506103516e+00,-7.693193912506103516e+00,4.327607527375221252e-02,1.661368103027343750e+02,3.578808903694152832e-01,-1.387449550628662109e+01,3.449963092803955078e+00,1.182359028462087736e-06,-8.198263049125671387e-01,2.097491025924682617e+00,-9.112979569181334227e-06,4.097222816199064255e-03,9.459313005208969116e-02,-6.112675189971923828e+00,5.000000000000000000e-01,-1.793899573385715485e-02,0.000000000000000000e+00
9.483780860900878906e-01,-2.877583618164062500e+02,-7.399216651916503906e+00,-7.399216651916503906e+00,4.422547295689582825e-02,1.656063995361328125e+02,3.614419996738433838e-01,-1.387087821960449219e+01,3.592198371887207031e+00,-3.737881797860609367e-06,5.163494870066642761e-02,2.030337095260620117e+00,-7.023396028671413660e-05,4.478790238499641418e-02,-4.714028909802436829e-02,-6.453623771667480469e+00,5.000000000000000000e-01,-1.963176764547824860e-02,0.000000000000000000e+00
9.483780860900878906e-01,-2.877583618164062500e+02,-7.399216651916503906e+00,-7.399216651916503906e+00,4.422547295689582825e-02,1.656063995361328125e+02,3.614419996738433838e-01,-1.387087821960449219e+01,3.592198371887207031e+00,-3.737881797860609367e-06,5.163494870066642761e-02,2.030337095260620117e+00,-7.023396028671413660e-05,4.478790238499641418e-02,-4.714028909802436829e-02,-6.453623771667480469e+00,5.000000000000000000e-01,-1.963176764547824860e-02,0.000000000000000000e+00
9.483780860900878906e-01,-2.877583618164062500e+02,-7.399216651916503906e+00,-7.399216651916503906e+00,4.422547295689582825e-02,1.656063995361328125e+02,3.614419996738433838e-01,-1.387087821960449219e+01,3.592198371887207031e+00,-3.737881797860609367e-06,5.163494870066642761e-02,2.030337095260620117e+00,-7.023396028671413660e-05,4.478790238499641418e-02,-4.714028909802436829e-02,-6.453623771667480469e+00,5.000000000000000000e-01,-1.963176764547824860e-02,0.000000000000000000e+00
9.483780860900878906e-01,-2.877583618164062500e+02,-7.399216651916503906e+00,-7.399216651916503906e+00,4.422547295689582825e-02,1.656063995361328125e+02,3.614419996738433838e-01,-1.387087821960449219e+01,3.592198371887207031e+00,-3.737881797860609367e-06,5.163494870066642761e-02,2.030337095260620117e+00,-7.023396028671413660e-05,4.478790238499641418e-02,-4.714028909802436829e-02,-6.453623771667480469e+00,5.000000000000000000e-01,-1.963176764547824860e-02,0.000000000000000000e+00
9.483780860900878906e-01,-2.887292785644531250e+02,-7.144034385681152344e+00,-7.144034385681152344e+00,3.921211510896682739e-02,1.651311492919921875e+02,3.696522712707519531e-01,-1.384062576293945312e+01,3.713798522949218750e+00,-5.902416887693107128e-06,3.839192390441894531e-01,1.543168544769287109e+00,-2.746906466200016439e-05,1.023740619421005249e-01,-1.207780167460441589e-01,-6.951806545257568359e+00,5.000000000000000000e-01,-2.169609069824218750e-02,0.000000000000000000e+00
1.027177095413208008e+00,-2.887292785644531250e+02,-7.144034385681152344e+00,-7.144034385681152344e+00,3.921211510896682739e-02,1.651311492919921875e+02,3.696522712707519531e-01,-1.384062576293945312e+01,3.713798522949218750e+00,-5.902416887693107128e-06,3.839192390441894531e-01,1.543168544769287109e+00,-2.746906466200016439e-05,1.023740619421005249e-01,-1.207780167460441589e-01,-6.951806545257568359e+00,5.000000000000000000e-01,-2.169609069824218750e-02,0.000000000000000000e+00
1.027177095413208008e+00,-2.887292785644531250e+02,-7.144034385681152344e+00,-7.144034385681152344e+00,3.921211510896682739e-02,1.651311492919921875e+02,3.696522712707519531e-01,-1.384062576293945312e+01,3.713798522949218750e+00,-5.902416887693107128e-06,3.839192390441894531e-01,1.543168544769287109e+00,-2.746906466200016439e-05,1.023740619421005249e-01,-1.207780167460441589e-01,-6.951806545257568359e+00,5.000000000000000000e-01,-2.169609069824218750e-02,0.000000000000000000e+00
1.095043420791625977e+00,-2.898182067871093750e+02,-6.847688674926757812e+00,-6.847688674926757812e+00,3.068803809583187103e-02,1.645915222167968750e+02,3.740935623645782471e-01,-1.379387664794921875e+01,3.832597494125366211e+00,-5.854637493030168116e-06,6.888411045074462891e-01,1.750484824180603027e+00,7.040221134957391769e-07,3.649277146905660629e-03,-1.192432641983032227e-01,-6.797276020050048828e+00,5.000000000000000000e-01,-1.970081403851509094e-02,0.000000000000000000e+00
1.095043420791625977e+00,-2.898182067871093750e+02,-6.847688674926757812e+00,-6.847688674926757812e+00,3.068803809583187103e-02,1.645915222167968750e+02,3.740935623645782471e-01,-1.379387664794921875e+01,3.832597494125366211e+00,-5.854637493030168116e-06,6.888411045074462891e-01,1.750484824180603027e+00,7.040221134957391769e-07,3.649277146905660629e-03,-1.192432641983032227e-01,-6.797276020050048828e+00,5.000000000000000000e-01,-1.970081403851509094e-02,0.000000000000000000e+00
1.095043420791625977e+00,-2.898182067871093750e+02,-6.847688674926757812e+00,-6.847688674926757812e+00,3.068803809583187103e-02,1.645915222167968750e+02,3.740935623645782471e-01,-1.379387664794921875e+01,3.832597494125366211e+00,-5.854637493030168116e-06,6.888411045074462891e-01,1.750484824180603027e+00,7.040221134957391769e-07,3.649277146905660629e-03,-1.192432641983032227e-01,-6.797276020050048828e+00,5.000000000000000000e-01,-1.970081403851509094e-02,0.000000000000000000e+00
1.095043420791625977e+00,-2.898182067871093750e+02,-6.847688674926757812e+00,-6.847688674926757812e+00,3.068803809583187103e-02,1.645915222167968750e+02,3.740935623645782471e-01,-1.379387664794921875e+01,3.832597494125366211e+00,-5.854637493030168116e-06,6.888411045074462891e-01,1.750484824180603027e+00,7.040221134957391769e-07,3.649277146905660629e-03,-1.192432641983032227e-01,-6.797276020050048828e+00,5.000000000000000000e-01,-1.970081403851509094e-02,0.000000000000000000e+00
1.168572425842285156e+00,-2.907526550292968750e+02,-6.584828853607177734e+00,-6.584828853607177734e+00,2.310652844607830048e-02,1.641257934570312500e+02,3.781301379203796387e-01,-1.374195003509521484e+01,3.939925670623779297e+00,-4.557944521366152912e-06,7.062058448791503906e-01,1.459671258926391602e+00,1.763512045727111399e-05,3.399082273244857788e-02,-1.251830160617828369e-01,-6.894934654235839844e+00,5.000000000000000000e-01,-2.058487012982368469e-02,0.000000000000000000e+00
1.168572425842285156e+00,-2.907526550292968750e+02,-6.584828853607177734e+00,-6.584828853607177734e+00,2.310652844607830048e-02,1.641257934570312500e+02,3.781301379203796387e-01,-1.374195003509521484e+01,3.939925670623779297e+00,-4.557944521366152912e-06,7.062058448791503906e-01,1.459671258926391602e+00,1.763512045727111399e-05,3.399082273244857788e-02,-1.251830160617828369e-01,-6.894934654235839844e+00,5.000000000000000000e-01,-2.058487012982368469e-02,0.000000000000000000e+00
1.168572425842285156e+00,-2.907526550292968750e+02,-6.584828853607177734e+00,-6.584828853607177734e+00,2.310652844607830048e-02,1.641257934570312500e+02,3.781301379203796387e-01,-1.374195003509521484e+01,3.939925670623779297e+00,-4.557944521366152912e-06,7.062058448791503906e-01,1.459671258926391602e+00,1.763512045727111399e-05,3.399082273244857788e-02,-1.251830160617828369e-01,-6.894934654235839844e+00,5.000000000000000000e-01,-2.058487012982368469e-02,0.000000000000000000e+00
1.168572425842285156e+00,-2.907526550292968750e+02,-6.584828853607177734e+00,-6.584828853607177734e+00,2.310652844607830048e-02,1.641257934570312500e+02,3.781301379203796387e-01,-1.374195003509521484e+01,3.939925670623779297e+00,-4.557944521366152912e-06,7.062058448791503906e-01,1.459671258926391602e+00,1.763512045727111399e-05,3.399082273244857788e-02,-1.251830160617828369e-01,-6.894934654235839844e+00,5.000000000000000000e-01,-2.058487012982368469e-02,0.000000000000000000e+00
1.168572425842285156e+00,-2.917609252929687500e+02,-6.292318820953369141e+00,-6.292318820953369141e+00,1.528596226125955582e-02,1.636342468261718750e+02,3.784222900867462158e-01,-1.368290901184082031e+01,4.043742179870605469e+00,1.039352127918391488e-06,7.867054343223571777e-01,1.383326530456542969e+00,7.458245090674608946e-05,-4.098590090870857239e-02,-9.294134378433227539e-02,-6.578945636749267578e+00,5.000000000000000000e-01,-1.870365068316459656e-02,0.000000000000000000e+00
1.243620872497558594e+00,-2.917609252929687500e+02,-6.292318820953369141e+00,-6.292318820953369141e+00,1.528596226125955582e-02,1.636342468261718750e+02,3.784222900867462158e-01,-1.368290901184082031e+01,4.043742179870605469e+00,1.039352127918391488e-06,7.867054343223571777e-01,1.383326530456542969e+00,7.458245090674608946e-05,-4.098590090870857239e-02,-9.294134378433227539e-02,-6.578945636749267578e+00,5.000000000000000000e-01,-1.870365068316459656e-02,0.000000000000000000e+00
1.243620872497558594e+00,-2.917609252929687500e+02,-6.292318820953369141e+00,-6.292318820953369141e+00,1.528596226125955582e-02,1.636342468261718750e+02,3.784222900867462158e-01,-1.368290901184082031e+01,4.043742179870605469e+00,1.039352127918391488e-06,7.867054343223571777e-01,1.383326530456542969e+00,7.458245090674608946e-05,-4.098590090870857239e-02,-9.294134378433227539e-02,-6.578945636749267578e+00,5.000000000000000000e-01,-1.870365068316459656e-02,0.000000000000000000e+00
1.243620872497558594e+00,-2.917609252929687500e+02,-6.292318820953369141e+00,-6.292318820953369141e+00,1.528596226125955582e-02,1.636342468261718750e+02,3.784222900867462158e-01,-1.368290901184082031e+01,4.043742179870605469e+00,1.039352127918391488e-06,7.867054343223571777e-01,1.383326530456542969e+00,7.458245090674608946e-05,-4.098590090870857239e-02,-9.294134378433227539e-02,-6.578945636749267578e+00,5.000000000000000000e-01,-1.870365068316459656e-02,0.000000000000000000e+00
1.312042951583862305e+00,-2.927852172851562500e+02,-5.985489845275878906e+00,-5.985489845275878906e+00,8.435282856225967407e-03,1.631372070312500000e+02,3.799656927585601807e-01,-1.361558532714843750e+01,4.156487941741943359e+00,3.814124625023396220e-07,9.839468002319335938e-01,1.647797942161560059e+00,-9.615897397452499717e-06,2.420488512143492699e-03,-8.884873986244201660e-02,-6.644131660461425781e+00,5.000000000000000000e-01,-1.979789696633815765e-02,0.000000000000000000e+00
1.312042951583862305e+00,-2.927852172851562500e+02,-5.985489845275878906e+00,-5.985489845275878906e+00,8.435282856225967407e-03,1.631372070312500000e+02,3.799656927585601807e-01,-1.361558532714843750e+01,4.156487941741943359e+00,3.814124625023396220e-07,9.839468002319335938e-01,1.647797942161560059e+00,-9.615897397452499717e-06,2.420488512143492699e-03,-8.884873986244201660e-02,-6.644131660461425781e+00,5.000000000000000000e-01,-1.979789696633815765e-02,0.000000000000000000e+00
1.312042951583862305e+00,-2.937148132324218750e+02,-5.698966979980468750e+00,-5.698966979980468750e+00,3.415094455704092979e-03,1.626972198486328125e+02,3.774500787258148193e-01,-1.355542659759521484e+01,4.247046470642089844e+00,3.442293063926626928e-06,8.462761044502258301e-01,1.273921847343444824e+00,4.305858965381048620e-05,-7.317268103361129761e-02,-4.805064946413040161e-02,-6.319689273834228516e+00,5.000000000000000000e-01,-1.789932325482368469e-02,0.000000000000000000e+00
1.383129358291625977e+00,-2.937148132324218750e+02,-5.698966979980468750e+00,-5.698966979980468750e+00,3.415094455704092979e-03,1.626972198486328125e+02,3.774500787258148193e-01,-1.355542659759521484e+01,4.247046470642089844e+00,3.442293063926626928e-06,8.462761044502258301e-01,1.273921847343444824e+00,4.305858965381048620e-05,-7.317268103361129761e-02,-4.805064946413040161e-02,-6.319689273834228516e+00,5.000000000000000000e-01,-1.789932325482368469e-02,0.000000000000000000e+00
1.383129358291625977e+00,-2.937148132324218750e+02,-5.698966979980468750e+00,-5.698966979980468750e+00,3.415094455704092979e-03,1.626972198486328125e+02,3.774500787258148193e-01,-1.355542659759521484e+01,4.247046470642089844e+00,3.442293063926626928e-06,8.462761044502258301e-01,1.273921847343444824e+00,4.305858965381048620e-05,-7.317268103361129761e-02,-4.805064946413040161e-02,-6.319689273834228516e+00,5.000000000000000000e-01,-1.789932325482368469e-02,0.000000000000000000e+00
1.450951814651489258e+00,-2.946759948730468750e+02,-5.394258975982666016e+00,-5.394258975982666016e+00,-8.264528587460517883e-04,1.622422790527343750e+02,3.766855895519256592e-01,-1.348799800872802734e+01,4.349701404571533203e+00,4.214641194266732782e-06,9.941926598548889160e-01,1.513583302497863770e+00,1.138779316534055397e-05,-1.550291106104850769e-02,-5.171547457575798035e-02,-6.438365459442138672e+00,5.000000000000000000e-01,-1.939964294433593750e-02,0.000000000000000000e+00
1.450951814651489258e+00,-2.946759948730468750e+02,-5.394258975982666016e+00,-5.394258975982666016e+00,-8.264528587460517883e-04,1.622422790527343750e+02,3.766855895519256592e-01,-1.348799800872802734e+01,4.349701404571533203e+00,4.214641194266732782e-06,9.941926598548889160e-01,1.513583302497863770e+00,1.138779316534055397e-05,-1.550291106104850769e-02,-5.171547457575798035e-02,-6.438365459442138672e+00,5.000000000000000000e-01,-1.939964294433593750e-02,0.000000000000000000e+00
1.450951814651489258e+00,-2.946759948730468750e+02,-5.394258975982666016e+00,-5.394258975982666016e+00,-8.264528587460517883e-04,1.622422790527343750e+02,3.766855895519256592e-01,-1.348799800872802734e+01,4.349701404571533203e+00,4.214641194266732782e-06,9.941926598548889160e-01,1.513583302497863770e+00,1.138779316534055397e-05,-1.550291106104850769e-02,-5.171547457575798035e-02,-6.438365459442138672e+00,5.000000000000000000e-01,-1.939964294433593750e-02,0.000000000000000000e+00
1.527701377868652344e+00,-2.955887145996093750e+02,-5.097205638885498047e+00,-5.097205638885498047e+00,-3.941019065678119659e-03,1.618148803710937500e+02,3.736216723918914795e-01,-1.342580318450927734e+01,4.437620639801025391e+00,2.574571453806129284e-06,8.103606700897216797e-01,1.145534038543701172e+00,-2.136910916306078434e-05,-6.909474730491638184e-02,-2.084460295736789703e-02,-6.232275485992431641e+00,5.000000000000000000e-01,-1.800518110394477844e-02,0.000000000000000000e+00
1.527701377868652344e+00,-2.955887145996093750e+02,-5.097205638885498047e+00,-5.097205638885498047e+00,-3.941019065678119659e-03,1.618148803710937500e+02,3.736216723918914795e-01,-1.342580318450927734e+01,4.437620639801025391e+00,2.574571453806129284e-06,8.103606700897216797e-01,1.145534038543701172e+00,-2.136910916306078434e-05,-6.909474730491638184e-02,-2.084460295736789703e-02,-6.232275485992431641e+00,5.000000000000000000e-01,-1.800518110394477844e-02,0.000000000000000000e+00
1.527701377868652344e+00,-2.955887145996093750e+02,-5.097205638885498047e+00,-5.097205638885498047e+00,-3.941019065678119659e-03,1.618148803710937500e+02,3.736216723918914795e-01,-1.342580318450927734e+01,4.437620639801025391e+00,2.574571453806129284e-06,8.103606700897216797e-01,1.145534038543701172e+00,-2.136910916306078434e-05,-6.909474730491638184e-02,-2.084460295736789703e-02,-6.232275485992431641e+00,5.000000000000000000e-01,-1.800518110394477844e-02,0.000000000000000000e+00
1.600134611129760742e+00,-2.966162109375000000e+02,-4.753323078155517578e+00,-4.753323078155517578e+00,-6.652603857219219208e-03,1.613269500732421875e+02,3.727028965950012207e-01,-1.335114383697509766e+01,4.545648574829101562e+00,2.374284576944774017e-06,1.030733346939086914e+00,1.491413950920104980e+00,-2.765124008874408901e-06,-1.026652939617633820e-02,-2.912681922316551208e-02,-6.417017459869384766e+00,5.000000000000000000e-01,-1.951675489544868469e-02,0.000000000000000000e+00
1.600134611129760742e+00,-2.966162109375000000e+02,-4.753323078155517578e+00,-4.753323078155517578e+00,-6.652603857219219208e-03,1.613269500732421875e+02,3.727028965950012207e-01,-1.335114383697509766e+01,4.545648574829101562e+00,2.374284576944774017e-06,1.030733346939086914e+00,1.491413950920104980e+00,-2.765124008874408901e-06,-1.026652939617633820e-02,-2.912681922316551208e-02,-6.417017459869384766e+00,5.000000000000000000e-01,-1.951675489544868469e-02,0.000000000000000000e+00
1.600134611129760742e+00,-2.966162109375000000e+02,-4.753323078155517578e+00,-4.753323078155517578e+00,-6.652603857219219208e-03,1.613269500732421875e+02,3.727028965950012207e-01,-1.335114383697509766e+01,4.545648574829101562e+00,2.374284576944774017e-06,1.030733346939086914e+00,1.491413950920104980e+00,-2.765124008874408901e-06,-1.026652939617633820e-02,-2.912681922316551208e-02,-6.417017459869384766e+00,5.000000000000000000e-01,-1.951675489544868469e-02,0.000000000000000000e+00
1.600134611129760742e+00,-2.966162109375000000e+02,-4.753323078155517578e+00,-4.753323078155517578e+00,-6.652603857219219208e-03,1.613269500732421875e+02,3.727028965950012207e-01,-1.335114383697509766e+01,4.545648574829101562e+00,2.374284576944774017e-06,1.030733346939086914e+00,1.491413950920104980e+00,-2.765124008874408901e-06,-1.026652939617633820e-02,-2.912681922316551208e-02,-6.417017459869384766e+00,5.000000000000000000e-01,-1.951675489544868469e-02,0.000000000000000000e+00
1.600134611129760742e+00,-2.966162109375000000e+02,-4.753323078155517578e+00,-4.753323078155517578e+00,-6.652603857219219208e-03,1.613269500732421875e+02,3.727028965950012207e-01,-1.335114383697509766e+01,4.545648574829101562e+00,2.374284576944774017e-06,1.030733346939086914e+00,1.491413950920104980e+00,-2.765124008874408901e-06,-1.026652939617633820e-02,-2.912681922316551208e-02,-6.417017459869384766e+00,5.000000000000000000e-01,-1.951675489544868469e-02,0.000000000000000000e+00
1.600134611129760742e+00,-2.975805969238281250e+02,-4.421026706695556641e+00,-4.421026706695556641e+00,-8.510415442287921906e-03,1.608441772460937500e+02,3.763624131679534912e-01,-1.327762508392333984e+01,4.652939319610595703e+00,-3.718791106166463578e-07,6.371943354606628418e-01,9.298995137214660645e-01,-2.380127261858433485e-05,4.942646622657775879e-02,-4.073547944426536560e-02,-6.789035320281982422e+00,5.000000000000000000e-01,-2.114849165081977844e-02,0.000000000000000000e+00
1.715513467788696289e+00,-2.975805969238281250e+02,-4.421026706695556641e+00,-4.421026706695556641e+00,-8.510415442287921906e-03,1.608441772460937500e+02,3.763624131679534912e-01,-1.327762508392333984e+01,4.652939319610595703e+00,-3.718791106166463578e-07,6.371943354606628418e-01,9.298995137214660645e-01,-2.380127261858433485e-05,4.942646622657775879e-02,-4.073547944426536560e-02,-6.789035320281982422e+00,5.000000000000000000e-01,-2.114849165081977844e-02,0.000000000000000000e+00
1.715513467788696289e+00,-2.975805969238281250e+02,-4.421026706695556641e+00,-4.421026706695556641e+00,-8.510415442287921906e-03,1.608441772460937500e+02,3.763624131679534912e-01,-1.327762508392333984e+01,4.652939319610595703e+00,-3.718791106166463578e-07,6.371943354606628418e-01,9.298995137214660645e-01,-2.380127261858433485e-05,4.942646622657775879e-02,-4.073547944426536560e-02,-6.789035320281982422e+00,5.000000000000000000e-01,-2.114849165081977844e-02,0.000000000000000000e+00
1.715513467788696289e+00,-2.975805969238281250e+02,-4.421026706695556641e+00,-4.421026706695556641e+00,-8.510415442287921906e-03,1.608441772460937500e+02,3.763624131679534912e-01,-1.327762508392333984e+01,4.652939319610595703e+00,-3.718791106166463578e-07,6.371943354606628418e-01,9.298995137214660645e-01,-2.380127261858433485e-05,4.942646622657775879e-02,-4.073547944426536560e-02,-6.789035320281982422e+00,5.000000000000000000e-01,-2.114849165081977844e-02,0.000000000000000000e+00
1.813115119934082031e+00,-2.989035949707031250e+02,-3.950597047805786133e+00,-3.950597047805786133e+00,-1.019747182726860046e-02,1.601882476806640625e+02,3.733958899974822998e-01,-1.318240928649902344e+01,4.781379699707031250e+00,2.555421133365598507e-06,9.755551815032958984e-01,1.315965294837951660e+00,2.999232492584269494e-05,-4.776545614004135132e-02,3.121115034446120262e-03,-6.446618556976318359e+00,5.000000000000000000e-01,-1.883716508746147156e-02,0.000000000000000000e+00
1.813115119934082031e+00,-2.989035949707031250e+02,-3.950597047805786133e+00,-3.950597047805786133e+00,-1.019747182726860046e-02,1.601882476806640625e+02,3.733958899974822998e-01,-1.318240928649902344e+01,4.781379699707031250e+00,2.555421133365598507e-06,9.755551815032958984e-01,1.315965294837951660e+00,2.999232492584269494e-05,-4.776545614004135132e-02,3.121115034446120262e-03,-6.446618556976318359e+00,5.000000000000000000e-01,-1.883716508746147156e-02,0.000000000000000000e+00
1.813115119934082031e+00,-2.989035949707031250e+02,-3.950597047805786133e+00,-3.950597047805786133e+00,-1.019747182726860046e-02,1.601882476806640625e+02,3.733958899974822998e-01,-1.318240928649902344e+01,4.781379699707031250e+00,2.555421133365598507e-06,9.755551815032958984e-01,1.315965294837951660e+00,2.999232492584269494e-05,-4.776545614004135132e-02,3.121115034446120262e-03,-6.446618556976318359e+00,5.000000000000000000e-01,-1.883716508746147156e-02,0.000000000000000000e+00
1.813115119934082031e+00,-2.989035949707031250e+02,-3.950597047805786133e+00,-3.950597047805786133e+00,-1.019747182726860046e-02,1.601882476806640625e+02,3.733958899974822998e-01,-1.318240928649902344e+01,4.781379699707031250e+00,2.555421133365598507e-06,9.755551815032958984e-01,1.315965294837951660e+00,2.999232492584269494e-05,-4.776545614004135132e-02,3.121115034446120262e-03,-6.446618556976318359e+00,5.000000000000000000e-01,-1.883716508746147156e-02,0.000000000000000000e+00
1.896134853363037109e+00,-3.001855468750000000e+02,-3.478724002838134766e+00,-3.478724002838134766e+00,-1.114003825932741165e-02,1.595625610351562500e+02,3.704196512699127197e-01,-1.308675003051757812e+01,4.910756587982177734e+00,1.010730329653597437e-06,1.152247190475463867e+00,1.558387160301208496e+00,-1.860630982264410704e-05,-2.673011086881160736e-02,1.906408113427460194e-03,-6.390769958496093750e+00,5.000000000000000000e-01,-1.910934410989284515e-02,0.000000000000000000e+00
1.896134853363037109e+00,-3.001855468750000000e+02,-3.478724002838134766e+00,-3.478724002838134766e+00,-1.114003825932741165e-02,1.595625610351562500e+02,3.704196512699127197e-01,-1.308675003051757812e+01,4.910756587982177734e+00,1.010730329653597437e-06,1.152247190475463867e+00,1.558387160301208496e+00,-1.860630982264410704e-05,-2.673011086881160736e-02,1.906408113427460194e-03,-6.390769958496093750e+00,5.000000000000000000e-01,-1.910934410989284515e-02,0.000000000000000000e+00
1.896134853363037109e+00,-3.001855468750000000e+02,-3.478724002838134766e+00,-3.478724002838134766e+00,-1.114003825932741165e-02,1.595625610351562500e+02,3.704196512699127197e-01,-1.308675003051757812e+01,4.910756587982177734e+00,1.010730329653597437e-06,1.152247190475463867e+00,1.558387160301208496e+00,-1.860630982264410704e-05,-2.673011086881160736e-02,1.906408113427460194e-03,-6.390769958496093750e+00,5.000000000000000000e-01,-1.910934410989284515e-02,0.000000000000000000e+00
1.896134853363037109e+00,-3.001855468750000000e+02,-3.478724002838134766e+00,-3.478724002838134766e+00,-1.114003825932741165e-02,1.595625610351562500e+02,3.704196512699127197e-01,-1.308675003051757812e+01,4.910756587982177734e+00,1.010730329653597437e-06,1.152247190475463867e+00,1.558387160301208496e+00,-1.860630982264410704e-05,-2.673011086881160736e-02,1.906408113427460194e-03,-6.390769958496093750e+00,5.000000000000000000e-01,-1.910934410989284515e-02,0.000000000000000000e+00
1.896134853363037109e+00,-3.001855468750000000e+02,-3.478724002838134766e+00,-3.478724002838134766e+00,-1.114003825932741165e-02,1.595625610351562500e+02,3.704196512699127197e-01,-1.308675003051757812e+01,4.910756587982177734e+00,1.010730329653597437e-06,1.152247190475463867e+00,1.558387160301208496e+00,-1.860630982264410704e-05,-2.673011086881160736e-02,1.906408113427460194e-03,-6.390769958496093750e+00,5.000000000000000000e-01,-1.910934410989284515e-02,0.000000000000000000e+00
1.896134853363037109e+00,-3.001855468750000000e+02,-3.478724002838134766e+00,-3.478724002838134766e+00,-1.114003825932741165e-02,1.595625610351562500e+02,3.704196512699127197e-01,-1.308675003051757812e+01,4.910756587982177734e+00,1.010730329653597437e-06,1.152247190475463867e+00,1.558387160301208496e+00,-1.860630982264410704e-05,-2.673011086881160736e-02,1.906408113427460194e-03,-6.390769958496093750e+00,5.000000000000000000e-01,-1.910934410989284515e-02,0.000000000000000000e+00
1.896134853363037109e+00,-3.001855468750000000e+02,-3.478724002838134766e+00,-3.478724002838134766e+00,-1.114003825932741165e-02,1.595625610351562500e+02,3.704196512699127197e-01,-1.308675003051757812e+01,4.910756587982177734e+00,1.010730329653597437e-06,1.152247190475463867e+00,1.558387160301208496e+00,-1.860630982264410704e-05,-2.673011086881160736e-02,1.906408113427460194e-03,-6.390769958496093750e+00,5.000000000000000000e-01,-1.910934410989284515e-02,0.000000000000000000e+00
2.195794820785522461e+00,-3.036921386718750000e+02,-2.106252431869506836e+00,-2.106252431869506836e+00,-1.184354722499847412e-02,1.578850250244140625e+02,3.557141721248626709e-01,-1.282571792602539062e+01,5.246654033660888672e+00,3.079918087678379379e-06,1.602566123008728027e+00,2.038338899612426758e+00,-1.275538761547068134e-05,-4.738565906882286072e-02,1.947525702416896820e-02,-5.984465122222900391e+00,5.000000000000000000e-01,-1.816425286233425140e-02,0.000000000000000000e+00
2.195794820785522461e+00,-3.036921386718750000e+02,-2.106252431869506836e+00,-2.106252431869506836e+00,-1.184354722499847412e-02,1.578850250244140625e+02,3.557141721248626709e-01,-1.282571792602539062e+01,5.246654033660888672e+00,3.079918087678379379e-06,1.602566123008728027e+00,2.038338899612426758e+00,-1.275538761547068134e-05,-4.738565906882286072e-02,1.947525702416896820e-02,-5.984465122222900391e+00,5.000000000000000000e-01,-1.816425286233425140e-02,0.000000000000000000e+00
2.195794820785522461e+00,-3.036921386718750000e+02,-2.106252431869506836e+00,-2.106252431869506836e+00,-1.184354722499847412e-02,1.578850250244140625e+02,3.557141721248626709e-01,-1.282571792602539062e+01,5.246654033660888672e+00,3.079918087678379379e-06,1.602566123008728027e+00,2.038338899612426758e+00,-1.275538761547068134e-05,-4.738565906882286072e-02,1.947525702416896820e-02,-5.984465122222900391e+00,5.000000000000000000e-01,-1.816425286233425140e-02,0.000000000000000000e+00
2.195794820785522461e+00,-3.036921386718750000e+02,-2.106252431869506836e+00,-2.106252431869506836e+00,-1.184354722499847412e-02,1.578850250244140625e+02,3.557141721248626709e-01,-1.282571792602539062e+01,5.246654033660888672e+00,3.079918087678379379e-06,1.602566123008728027e+00,2.038338899612426758e+00,-1.275538761547068134e-05,-4.738565906882286072e-02,1.947525702416896820e-02,-5.984465122222900391e+00,5.000000000000000000e-01,-1.816425286233425140e-02,0.000000000000000000e+00
2.195794820785522461e+00,-3.036921386718750000e+02,-2.106252431869506836e+00,-2.106252431869506836e+00,-1.184354722499847412e-02,1.578850250244140625e+02,3.557141721248626709e-01,-1.282571792602539062e+01,5.246654033660888672e+00,3.079918087678379379e-06,1.602566123008728027e+00,2.038338899612426758e+00,-1.275538761547068134e-05,-4.738565906882286072e-02,1.947525702416896820e-02,-5.984465122222900391e+00,5.000000000000000000e-01,-1.816425286233425140e-02,0.000000000000000000e+00
2.195794820785522461e+00,-3.036921386718750000e+02,-2.106252431869506836e+00,-2.106252431869506836e+00,-1.184354722499847412e-02,1.578850250244140625e+02,3.557141721248626709e-01,-1.282571792602539062e+01,5.246654033660888672e+00,3.079918087678379379e-06,1.602566123008728027e+00,2.038338899612426758e+00,-1.275538761547068134e-05,-4.738565906882286072e-02,1.947525702416896820e-02,-5.984465122222900391e+00,5.000000000000000000e-01,-1.816425286233425140e-02,0.000000000000000000e+00
2.195794820785522461e+00,-3.036921386718750000e+02,-2.106252431869506836e+00,-2.106252431869506836e+00,-1.184354722499847412e-02,1.578850250244140625e+02,3.557141721248626709e-01,-1.282571792602539062e+01,5.246654033660888672e+00,3.079918087678379379e-06,1.602566123008728027e+00,2.038338899612426758e+00,-1.275538761547068134e-05,-4.738565906882286072e-02,1.947525702416896820e-02,-5.984465122222900391e+00,5.000000000000000000e-01,-1.816425286233425140e-02,0.000000000000000000e+00
2.195794820785522461e+00,-3.036921386718750000e+02,-2.106252431869506836e+00,-2.106252431869506836e+00,-1.184354722499847412e-02,1.578850250244140625e+02,3.557141721248626709e-01,-1.282571792602539062e+01,5.246654033660888672e+00,3.079918087678379379e-06,1.602566123008728027e+00,2.038338899612426758e+00,-1.275538761547068134e-05,-4.738565906882286072e-02,1.947525702416896820e-02,-5.984465122222900391e+00,5.000000000000000000e-01,-1.816425286233425140e-02,0.000000000000000000e+00
2.195794820785522461e+00,-3.036921386718750000e+02,-2.106252431869506836e+00,-2.106252431869506836e+00,-1.184354722499847412e-02,1.578850250244140625e+02,3.557141721248626709e-01,-1.282571792602539062e+01,5.246654033660888672e+00,3.079918087678379379e-06,1.602566123008728027e+00,2.038338899612426758e+00,-1.275538761547068134e-05,-4.738565906882286072e-02,1.947525702416896820e-02,-5.984465122222900391e+00,5.000000000000000000e-01,-1.816425286233425140e-02,0.000000000000000000e+00
2.195794820785522461e+00,-3.036921386718750000e+02,-2.106252431869506836e+00,-2.106252431869506836e+00,-1.184354722499847412e-02,1.578850250244140625e+02,3.557141721248626709e-01,-1.282571792602539062e+01,5.246654033660888672e+00,3.079918087678379379e-06,1.602566123008728027e+00,2.038338899612426758e+00,-1.275538761547068134e-05,-4.738565906882286072e-02,1.947525702416896820e-02,-5.984465122222900391e+00,5.000000000000000000e-01,-1.816425286233425140e-02,0.000000000000000000e+00
2.374083757400512695e+00,-3.043714904785156250e+02,-1.826487421989440918e+00,-1.826487421989440918e+00,-1.159766037017107010e-02,1.575558471679687500e+02,3.563646972179412842e-01,-1.277505874633789062e+01,5.320124626159667969e+00,3.079959242313634604e-06,2.841408848762512207e-01,4.120872020721435547e-01,2.308311181087319142e-10,3.182513639330863953e-02,-2.130983164533972740e-03,-6.308397769927978516e+00,1.000000000000000000e+00,-2.027053758502006531e-02,0.000000000000000000e+00
2.374083757400512695e+00,-3.043714904785156250e+02,-1.826487421989440918e+00,-1.826487421989440918e+00,-1.159766037017107010e-02,1.575558471679687500e+02,3.563646972179412842e-01,-1.277505874633789062e+01,5.320124626159667969e+00,3.079959242313634604e-06,2.841408848762512207e-01,4.120872020721435547e-01,2.308311181087319142e-10,3.182513639330863953e-02,-2.130983164533972740e-03,-6.308397769927978516e+00,1.000000000000000000e+00,-2.027053758502006531e-02,0.000000000000000000e+00
2.374083757400512695e+00,-3.043714904785156250e+02,-1.826487421989440918e+00,-1.826487421989440918e+00,-1.159766037017107010e-02,1.575558471679687500e+02,3.563646972179412842e-01,-1.277505874633789062e+01,5.320124626159667969e+00,3.079959242313634604e-06,2.841408848762512207e-01,4.120872020721435547e-01,2.308311181087319142e-10,3.182513639330863953e-02,-2.130983164533972740e-03,-6.308397769927978516e+00,1.000000000000000000e+00,-2.027053758502006531e-02,0.000000000000000000e+00
2.447860002517700195e+00,-3.056450195312500000e+02,-1.289331674575805664e+00,-1.289331674575805664e+00,-9.767170064151287079e-03,1.569303588867187500e+02,3.542162179946899414e-01,-1.269116401672363281e+01,5.445073604583740234e+00,6.102498559812374879e-07,1.137151002883911133e+00,1.693620800971984863e+00,-3.347567326272837818e-05,-2.286192774772644043e-02,3.079733811318874359e-02,-6.227704524993896484e+00,1.000000000000000000e+00,-1.878128014504909515e-02,0.000000000000000000e+00
2.447860002517700195e+00,-3.056450195312500000e+02,-1.289331674575805664e+00,-1.289331674575805664e+00,-9.767170064151287079e-03,1.569303588867187500e+02,3.542162179946899414e-01,-1.269116401672363281e+01,5.445073604583740234e+00,6.102498559812374879e-07,1.137151002883911133e+00,1.693620800971984863e+00,-3.347567326272837818e-05,-2.286192774772644043e-02,3.079733811318874359e-02,-6.227704524993896484e+00,1.000000000000000000e+00,-1.878128014504909515e-02,0.000000000000000000e+00
2.500878810882568359e+00,-3.065790710449218750e+02,-8.848568797111511230e-01,-8.848568797111511230e-01,-8.510415442287921906e-03,1.564634857177734375e+02,3.542570471763610840e-01,-1.262570667266845703e+01,5.542519569396972656e+00,8.867862106853863224e-07,1.234606027603149414e+00,1.837950825691223145e+00,5.215816145209828392e-06,1.480815652757883072e-02,1.125101186335086823e-02,-6.378081321716308594e+00,1.000000000000000000e+00,-1.971015892922878265e-02,0.000000000000000000e+00
2.500878810882568359e+00,-3.065790710449218750e+02,-8.848568797111511230e-01,-8.848568797111511230e-01,-8.510415442287921906e-03,1.564634857177734375e+02,3.542570471763610840e-01,-1.262570667266845703e+01,5.542519569396972656e+00,8.867862106853863224e-07,1.234606027603149414e+00,1.837950825691223145e+00,5.215816145209828392e-06,1.480815652757883072e-02,1.125101186335086823e-02,-6.378081321716308594e+00,1.000000000000000000e+00,-1.971015892922878265e-02,0.000000000000000000e+00
2.500878810882568359e+00,-3.065790710449218750e+02,-8.848568797111511230e-01,-8.848568797111511230e-01,-8.510415442287921906e-03,1.564634857177734375e+02,3.542570471763610840e-01,-1.262570667266845703e+01,5.542519569396972656e+00,8.867862106853863224e-07,1.234606027603149414e+00,1.837950825691223145e+00,5.215816145209828392e-06,1.480815652757883072e-02,1.125101186335086823e-02,-6.378081321716308594e+00,1.000000000000000000e+00,-1.971015892922878265e-02,0.000000000000000000e+00
2.560195446014404297e+00,-3.072475280761718750e+02,-5.901307463645935059e-01,-5.901307463645935059e-01,-7.724943570792675018e-03,1.561352539062500000e+02,3.514331877231597900e-01,-1.258256244659423828e+01,5.603048801422119141e+00,-7.533027996942109894e-07,7.273545861244201660e-01,1.020442724227905273e+00,-2.764973214652854949e-05,-5.979222059249877930e-02,4.174125567078590393e-02,-6.099519729614257812e+00,1.000000000000000000e+00,-1.755828782916069031e-02,0.000000000000000000e+00
2.560195446014404297e+00,-3.072475280761718750e+02,-5.901307463645935059e-01,-5.901307463645935059e-01,-7.724943570792675018e-03,1.561352539062500000e+02,3.514331877231597900e-01,-1.258256244659423828e+01,5.603048801422119141e+00,-7.533027996942109894e-07,7.273545861244201660e-01,1.020442724227905273e+00,-2.764973214652854949e-05,-5.979222059249877930e-02,4.174125567078590393e-02,-6.099519729614257812e+00,1.000000000000000000e+00,-1.755828782916069031e-02,0.000000000000000000e+00
2.560195446014404297e+00,-3.079923706054687500e+02,-2.560023069381713867e-01,-2.560023069381713867e-01,-6.987283006310462952e-03,1.557628784179687500e+02,3.517359197139739990e-01,-1.252742385864257812e+01,5.683912277221679688e+00,7.151496106416743714e-07,9.419747591018676758e-01,1.381452798843383789e+00,2.508669786038808525e-05,3.032890707254409790e-02,-1.715550548397004604e-03,-6.360594749450683594e+00,1.000000000000000000e+00,-2.015571668744087219e-02,0.000000000000000000e+00
2.618730545043945312e+00,-3.079923706054687500e+02,-2.560023069381713867e-01,-2.560023069381713867e-01,-6.987283006310462952e-03,1.557628784179687500e+02,3.517359197139739990e-01,-1.252742385864257812e+01,5.683912277221679688e+00,7.151496106416743714e-07,9.419747591018676758e-01,1.381452798843383789e+00,2.508669786038808525e-05,3.032890707254409790e-02,-1.715550548397004604e-03,-6.360594749450683594e+00,1.000000000000000000e+00,-2.015571668744087219e-02,0.000000000000000000e+00
2.618730545043945312e+00,-3.087243957519531250e+02,7.798598706722259521e-02,7.798598706722259521e-02,-6.440868135541677475e-03,1.553976898193359375e+02,3.503316938877105713e-01,-1.247765254974365234e+01,5.752895832061767578e+00,-9.726054486236535013e-07,8.492886424064636230e-01,1.177122950553894043e+00,-2.879954809031914920e-05,-3.198447078466415405e-02,2.437004074454307556e-02,-6.181115150451660156e+00,1.000000000000000000e+00,-1.828384399414062500e-02,0.000000000000000000e+00
2.677334070205688477e+00,-3.087243957519531250e+02,7.798598706722259521e-02,7.798598706722259521e-02,-6.440868135541677475e-03,1.553976898193359375e+02,3.503316938877105713e-01,-1.247765254974365234e+01,5.752895832061767578e+00,-9.726054486236535013e-07,8.492886424064636230e-01,1.177122950553894043e+00,-2.879954809031914920e-05,-3.198447078466415405e-02,2.437004074454307556e-02,-6.181115150451660156e+00,1.000000000000000000e+00,-1.828384399414062500e-02,0.000000000000000000e+00
2.677334070205688477e+00,-3.087243957519531250e+02,7.798598706722259521e-02,7.798598706722259521e-02,-6.440868135541677475e-03,1.553976898193359375e+02,3.503316938877105713e-01,-1.247765254974365234e+01,5.752895832061767578e+00,-9.726054486236535013e-07,8.492886424064636230e-01,1.177122950553894043e+00,-2.879954809031914920e-05,-3.198447078466415405e-02,2.437004074454307556e-02,-6.181115150451660156e+00,1.000000000000000000e+00,-1.828384399414062500e-02,0.000000000000000000e+00
2.677334070205688477e+00,-3.087243957519531250e+02,7.798598706722259521e-02,7.798598706722259521e-02,-6.440868135541677475e-03,1.553976898193359375e+02,3.503316938877105713e-01,-1.247765254974365234e+01,5.752895832061767578e+00,-9.726054486236535013e-07,8.492886424064636230e-01,1.177122950553894043e+00,-2.879954809031914920e-05,-3.198447078466415405e-02,2.437004074454307556e-02,-6.181115150451660156e+00,1.000000000000000000e+00,-1.828384399414062500e-02,0.000000000000000000e+00
2.755024909973144531e+00,-3.094541015625000000e+02,4.168600738048553467e-01,4.168600738048553467e-01,-6.010565906763076782e-03,1.550233154296875000e+02,3.522487580776214600e-01,-1.242152404785156250e+01,5.833385467529296875e+00,-1.506584681010281201e-06,7.224597334861755371e-01,1.036024808883666992e+00,-6.873130132589722052e-06,5.041033402085304260e-02,-1.642992720007896423e-02,-6.485306739807128906e+00,1.000000000000000000e+00,-2.072486840188503265e-02,0.000000000000000000e+00
2.755024909973144531e+00,-3.094541015625000000e+02,4.168600738048553467e-01,4.168600738048553467e-01,-6.010565906763076782e-03,1.550233154296875000e+02,3.522487580776214600e-01,-1.242152404785156250e+01,5.833385467529296875e+00,-1.506584681010281201e-06,7.224597334861755371e-01,1.036024808883666992e+00,-6.873130132589722052e-06,5.041033402085304260e-02,-1.642992720007896423e-02,-6.485306739807128906e+00,1.000000000000000000e+00,-2.072486840188503265e-02,0.000000000000000000e+00
2.755024909973144531e+00,-3.094541015625000000e+02,4.168600738048553467e-01,4.168600738048553467e-01,-6.010565906763076782e-03,1.550233154296875000e+02,3.522487580776214600e-01,-1.242152404785156250e+01,5.833385467529296875e+00,-1.506584681010281201e-06,7.224597334861755371e-01,1.036024808883666992e+00,-6.873130132589722052e-06,5.041033402085304260e-02,-1.642992720007896423e-02,-6.485306739807128906e+00,1.000000000000000000e+00,-2.072486840188503265e-02,0.000000000000000000e+00
2.830169916152954102e+00,-3.104167480468750000e+02,8.726884126663208008e-01,8.726884126663208008e-01,-5.580264143645763397e-03,1.545305633544921875e+02,3.512557744979858398e-01,-1.235341739654541016e+01,5.925666332244873047e+00,5.721156881577371678e-08,9.063363075256347656e-01,1.228037238121032715e+00,2.081038110191002488e-05,-2.459153160452842712e-02,1.722126267850399017e-02,-6.272422790527343750e+00,1.000000000000000000e+00,-1.872768439352512360e-02,0.000000000000000000e+00
2.830169916152954102e+00,-3.104167480468750000e+02,8.726884126663208008e-01,8.726884126663208008e-01,-5.580264143645763397e-03,1.545305633544921875e+02,3.512557744979858398e-01,-1.235341739654541016e+01,5.925666332244873047e+00,5.721156881577371678e-08,9.063363075256347656e-01,1.228037238121032715e+00,2.081038110191002488e-05,-2.459153160452842712e-02,1.722126267850399017e-02,-6.272422790527343750e+00,1.000000000000000000e+00,-1.872768439352512360e-02,0.000000000000000000e+00
2.830169916152954102e+00,-3.104167480468750000e+02,8.726884126663208008e-01,8.726884126663208008e-01,-5.580264143645763397e-03,1.545305633544921875e+02,3.512557744979858398e-01,-1.235341739654541016e+01,5.925666332244873047e+00,5.721156881577371678e-08,9.063363075256347656e-01,1.228037238121032715e+00,2.081038110191002488e-05,-2.459153160452842712e-02,1.722126267850399017e-02,-6.272422790527343750e+00,1.000000000000000000e+00,-1.872768439352512360e-02,0.000000000000000000e+00
2.830169916152954102e+00,-3.104167480468750000e+02,8.726884126663208008e-01,8.726884126663208008e-01,-5.580264143645763397e-03,1.545305633544921875e+02,3.512557744979858398e-01,-1.235341739654541016e+01,5.925666332244873047e+00,5.721156881577371678e-08,9.063363075256347656e-01,1.228037238121032715e+00,2.081038110191002488e-05,-2.459153160452842712e-02,1.722126267850399017e-02,-6.272422790527343750e+00,1.000000000000000000e+00,-1.872768439352512360e-02,0.000000000000000000e+00
2.830169916152954102e+00,-3.104167480468750000e+02,8.726884126663208008e-01,8.726884126663208008e-01,-5.580264143645763397e-03,1.545305633544921875e+02,3.512557744979858398e-01,-1.235341739654541016e+01,5.925666332244873047e+00,5.721156881577371678e-08,9.063363075256347656e-01,1.228037238121032715e+00,2.081038110191002488e-05,-2.459153160452842712e-02,1.722126267850399017e-02,-6.272422790527343750e+00,1.000000000000000000e+00,-1.872768439352512360e-02,0.000000000000000000e+00
