# Time,X,Y,Z,Roll,Pitch,Yaw,Vx,Vy,Vz,Ax,Ay,Az,Wx,Wy,Wz,Throttle,Steer,Brake
0.000000000000000000e+00,1.537635803222656250e+02,-1.299683952331542969e+01,-1.299683952331542969e+01,-1.667453944683074951e-01,1.797814483642578125e+02,6.713878974551334977e-05,2.514662082830909640e-05,-1.275201611861120909e-06,1.990094082430005074e-03,-1.137912404374219477e-04,2.630021526783821173e-06,1.542440336197614670e-02,-6.852801307104527950e-04,-1.987920328974723816e-02,4.675392119679600000e-06,0.000000000000000000e+00,4.384358762763440609e-04,1.000000000000000000e+00
1.045818328857421875e-01,1.537635803222656250e+02,-1.299683952331542969e+01,-1.299683952331542969e+01,-1.667453944683074951e-01,1.797814483642578125e+02,6.713878974551334977e-05,2.514662082830909640e-05,-1.275201611861120909e-06,1.990094082430005074e-03,-1.137912404374219477e-04,2.630021526783821173e-06,1.542440336197614670e-02,-6.852801307104527950e-04,-1.987920328974723816e-02,4.675392119679600000e-06,0.000000000000000000e+00,4.384358762763440609e-04,1.000000000000000000e+00
1.045818328857421875e-01,1.537635803222656250e+02,-1.299683952331542969e+01,-1.299683952331542969e+01,-1.667453944683074951e-01,1.797814483642578125e+02,6.713878974551334977e-05,2.514662082830909640e-05,-1.275201611861120909e-06,1.990094082430005074e-03,-1.137912404374219477e-04,2.630021526783821173e-06,1.542440336197614670e-02,-6.852801307104527950e-04,-1.987920328974723816e-02,4.675392119679600000e-06,0.000000000000000000e+00,4.384358762763440609e-04,1.000000000000000000e+00
1.045818328857421875e-01,1.537635803222656250e+02,-1.299683952331542969e+01,-1.299683952331542969e+01,-1.667453944683074951e-01,1.797814483642578125e+02,6.713878974551334977e-05,2.514662082830909640e-05,-1.275201611861120909e-06,1.990094082430005074e-03,-1.137912404374219477e-04,2.630021526783821173e-06,1.542440336197614670e-02,-6.852801307104527950e-04,-1.987920328974723816e-02,4.675392119679600000e-06,0.000000000000000000e+00,4.384358762763440609e-04,1.000000000000000000e+00
1.045818328857421875e-01,1.537635803222656250e+02,-1.299683952331542969e+01,-1.299683952331542969e+01,-1.667453944683074951e-01,1.797814483642578125e+02,6.713878974551334977e-05,2.514662082830909640e-05,-1.275201611861120909e-06,1.990094082430005074e-03,-1.137912404374219477e-04,2.630021526783821173e-06,1.542440336197614670e-02,-6.852801307104527950e-04,-1.987920328974723816e-02,4.675392119679600000e-06,0.000000000000000000e+00,4.384358762763440609e-04,1.000000000000000000e+00
1.045818328857421875e-01,1.537635803222656250e+02,-1.299683952331542969e+01,-1.299683952331542969e+01,-1.667453944683074951e-01,1.797814483642578125e+02,6.713878974551334977e-05,2.514662082830909640e-05,-1.275201611861120909e-06,1.990094082430005074e-03,-1.137912404374219477e-04,2.630021526783821173e-06,1.542440336197614670e-02,-6.852801307104527950e-04,-1.987920328974723816e-02,4.675392119679600000e-06,0.000000000000000000e+00,4.384358762763440609e-04,1.000000000000000000e+00
1.045818328857421875e-01,1.537635803222656250e+02,-1.299683952331542969e+01,-1.299683952331542969e+01,-1.676333248615264893e-01,1.797814483642578125e+02,5.096100358059629798e-05,1.267825791728682816e-05,-2.164905055224153330e-07,-1.629939069971442223e-04,-1.190764232887886465e-04,1.011099266179371625e-05,-2.056260406970977783e-02,-9.895593393594026566e-05,-1.006078347563743591e-02,1.916530663947924040e-06,0.000000000000000000e+00,4.384358762763440609e-04,1.000000000000000000e+00
2.092907428741455078e-01,1.537635803222656250e+02,-1.299683952331542969e+01,-1.299683952331542969e+01,-1.676333248615264893e-01,1.797814483642578125e+02,5.096100358059629798e-05,1.267825791728682816e-05,-2.164905055224153330e-07,-1.629939069971442223e-04,-1.190764232887886465e-04,1.011099266179371625e-05,-2.056260406970977783e-02,-9.895593393594026566e-05,-1.006078347563743591e-02,1.916530663947924040e-06,0.000000000000000000e+00,4.384358762763440609e-04,1.000000000000000000e+00
2.092907428741455078e-01,1.537635803222656250e+02,-1.299683952331542969e+01,-1.299683952331542969e+01,-1.676333248615264893e-01,1.797814483642578125e+02,5.096100358059629798e-05,1.267825791728682816e-05,-2.164905055224153330e-07,-1.629939069971442223e-04,-1.190764232887886465e-04,1.011099266179371625e-05,-2.056260406970977783e-02,-9.895593393594026566e-05,-1.006078347563743591e-02,1.916530663947924040e-06,0.000000000000000000e+00,4.384358762763440609e-04,1.000000000000000000e+00
2.092907428741455078e-01,1.537635803222656250e+02,-1.299683952331542969e+01,-1.299683952331542969e+01,-1.676333248615264893e-01,1.797814483642578125e+02,5.096100358059629798e-05,1.267825791728682816e-05,-2.164905055224153330e-07,-1.629939069971442223e-04,-1.190764232887886465e-04,1.011099266179371625e-05,-2.056260406970977783e-02,-9.895593393594026566e-05,-1.006078347563743591e-02,1.916530663947924040e-06,0.000000000000000000e+00,4.384358762763440609e-04,1.000000000000000000e+00
2.092907428741455078e-01,1.537635803222656250e+02,-1.299683952331542969e+01,-1.299683952331542969e+01,-1.676333248615264893e-01,1.797814483642578125e+02,5.096100358059629798e-05,1.267825791728682816e-05,-2.164905055224153330e-07,-1.629939069971442223e-04,-1.190764232887886465e-04,1.011099266179371625e-05,-2.056260406970977783e-02,-9.895593393594026566e-05,-1.006078347563743591e-02,1.916530663947924040e-06,0.000000000000000000e+00,4.384358762763440609e-04,1.000000000000000000e+00
2.092907428741455078e-01,1.537635955810546875e+02,-1.299683952331542969e+01,-1.299683952331542969e+01,-1.686715185642242432e-01,1.797814483642578125e+02,3.791901690419763327e-05,1.190168950415682048e-05,-3.275876281350065256e-07,-5.232892362982966006e-05,-1.040717233991017565e-05,-1.488866814725042786e-06,1.483075553551316261e-03,-1.874309236882254481e-04,-9.396646171808242798e-03,1.899676703942532185e-06,0.000000000000000000e+00,4.389444948174059391e-04,1.000000000000000000e+00
2.839093208312988281e-01,1.537635955810546875e+02,-1.299683952331542969e+01,-1.299683952331542969e+01,-1.686715185642242432e-01,1.797814483642578125e+02,3.791901690419763327e-05,1.190168950415682048e-05,-3.275876281350065256e-07,-5.232892362982966006e-05,-1.040717233991017565e-05,-1.488866814725042786e-06,1.483075553551316261e-03,-1.874309236882254481e-04,-9.396646171808242798e-03,1.899676703942532185e-06,0.000000000000000000e+00,4.389444948174059391e-04,1.000000000000000000e+00
2.839093208312988281e-01,1.537635955810546875e+02,-1.299683952331542969e+01,-1.299683952331542969e+01,-1.686715185642242432e-01,1.797814483642578125e+02,3.791901690419763327e-05,1.190168950415682048e-05,-3.275876281350065256e-07,-5.232892362982966006e-05,-1.040717233991017565e-05,-1.488866814725042786e-06,1.483075553551316261e-03,-1.874309236882254481e-04,-9.396646171808242798e-03,1.899676703942532185e-06,0.000000000000000000e+00,4.389444948174059391e-04,1.000000000000000000e+00
2.839093208312988281e-01,1.537635955810546875e+02,-1.299683952331542969e+01,-1.299683952331542969e+01,-1.686715185642242432e-01,1.797814483642578125e+02,3.791901690419763327e-05,1.190168950415682048e-05,-3.275876281350065256e-07,-5.232892362982966006e-05,-1.040717233991017565e-05,-1.488866814725042786e-06,1.483075553551316261e-03,-1.874309236882254481e-04,-9.396646171808242798e-03,1.899676703942532185e-06,0.000000000000000000e+00,4.389444948174059391e-04,1.000000000000000000e+00
2.839093208312988281e-01,1.537635955810546875e+02,-1.299683952331542969e+01,-1.299683952331542969e+01,-1.686715185642242432e-01,1.797814483642578125e+02,3.791901690419763327e-05,1.190168950415682048e-05,-3.275876281350065256e-07,-5.232892362982966006e-05,-1.040717233991017565e-05,-1.488866814725042786e-06,1.483075553551316261e-03,-1.874309236882254481e-04,-9.396646171808242798e-03,1.899676703942532185e-06,0.000000000000000000e+00,4.389444948174059391e-04,1.000000000000000000e+00
3.569011688232421875e-01,1.537635955810546875e+02,-1.299683952331542969e+01,-1.299683952331542969e+01,-1.692452430725097656e-01,1.797814483642578125e+02,2.607215174066368490e-05,9.201330612995661795e-06,-3.900568401604687097e-07,1.198398997075855732e-03,-3.699534863699227571e-05,-8.558382091905514244e-07,1.713517308235168457e-02,-2.232074912171810865e-04,-7.271064445376396179e-03,1.625621280254563317e-06,0.000000000000000000e+00,4.389444948174059391e-04,1.000000000000000000e+00
3.569011688232421875e-01,1.537635955810546875e+02,-1.299683952331542969e+01,-1.299683952331542969e+01,-1.692452430725097656e-01,1.797814483642578125e+02,2.607215174066368490e-05,9.201330612995661795e-06,-3.900568401604687097e-07,1.198398997075855732e-03,-3.699534863699227571e-05,-8.558382091905514244e-07,1.713517308235168457e-02,-2.232074912171810865e-04,-7.271064445376396179e-03,1.625621280254563317e-06,0.000000000000000000e+00,4.389444948174059391e-04,1.000000000000000000e+00
3.569011688232421875e-01,1.537635955810546875e+02,-1.299683952331542969e+01,-1.299683952331542969e+01,-1.692452430725097656e-01,1.797814483642578125e+02,2.607215174066368490e-05,9.201330612995661795e-06,-3.900568401604687097e-07,1.198398997075855732e-03,-3.699534863699227571e-05,-8.558382091905514244e-07,1.713517308235168457e-02,-2.232074912171810865e-04,-7.271064445376396179e-03,1.625621280254563317e-06,0.000000000000000000e+00,4.389444948174059391e-04,1.000000000000000000e+00
3.569011688232421875e-01,1.537635955810546875e+02,-1.299683952331542969e+01,-1.299683952331542969e+01,-1.692452430725097656e-01,1.797814483642578125e+02,2.607215174066368490e-05,9.201330612995661795e-06,-3.900568401604687097e-07,1.198398997075855732e-03,-3.699534863699227571e-05,-8.558382091905514244e-07,1.713517308235168457e-02,-2.232074912171810865e-04,-7.271064445376396179e-03,1.625621280254563317e-06,0.000000000000000000e+00,4.389444948174059391e-04,1.000000000000000000e+00
4.765405654907226562e-01,1.537635955810546875e+02,-1.299683952331542969e+01,-1.299683952331542969e+01,-1.696823835372924805e-01,1.797814483642578125e+02,1.706468174234032631e-05,6.933300028322264552e-06,-2.263721370354687679e-07,5.126586183905601501e-04,-1.895722198241855949e-05,1.368150606140261516e-06,-5.731727462261915207e-03,-1.096701234928332269e-04,-5.479527171701192856e-03,1.463759190301061608e-06,0.000000000000000000e+00,4.389444948174059391e-04,1.000000000000000000e+00
4.765405654907226562e-01,1.537635955810546875e+02,-1.299683952331542969e+01,-1.299683952331542969e+01,-1.696823835372924805e-01,1.797814483642578125e+02,1.706468174234032631e-05,6.933300028322264552e-06,-2.263721370354687679e-07,5.126586183905601501e-04,-1.895722198241855949e-05,1.368150606140261516e-06,-5.731727462261915207e-03,-1.096701234928332269e-04,-5.479527171701192856e-03,1.463759190301061608e-06,0.000000000000000000e+00,4.389444948174059391e-04,1.000000000000000000e+00
4.765405654907226562e-01,1.537635955810546875e+02,-1.299683952331542969e+01,-1.299683952331542969e+01,-1.696823835372924805e-01,1.797814483642578125e+02,1.706468174234032631e-05,6.933300028322264552e-06,-2.263721370354687679e-07,5.126586183905601501e-04,-1.895722198241855949e-05,1.368150606140261516e-06,-5.731727462261915207e-03,-1.096701234928332269e-04,-5.479527171701192856e-03,1.463759190301061608e-06,0.000000000000000000e+00,4.389444948174059391e-04,1.000000000000000000e+00
4.765405654907226562e-01,1.537635955810546875e+02,-1.299683952331542969e+01,-1.299683952331542969e+01,-1.696823835372924805e-01,1.797814483642578125e+02,1.706468174234032631e-05,6.933300028322264552e-06,-2.263721370354687679e-07,5.126586183905601501e-04,-1.895722198241855949e-05,1.368150606140261516e-06,-5.731727462261915207e-03,-1.096701234928332269e-04,-5.479527171701192856e-03,1.463759190301061608e-06,0.000000000000000000e+00,4.389444948174059391e-04,1.000000000000000000e+00
4.765405654907226562e-01,1.537635955810546875e+02,-1.299683952331542969e+01,-1.299683952331542969e+01,-1.696823835372924805e-01,1.797814483642578125e+02,1.706468174234032631e-05,6.933300028322264552e-06,-2.263721370354687679e-07,5.126586183905601501e-04,-1.895722198241855949e-05,1.368150606140261516e-06,-5.731727462261915207e-03,-1.096701234928332269e-04,-5.479527171701192856e-03,1.463759190301061608e-06,0.000000000000000000e+00,4.389444948174059391e-04,1.000000000000000000e+00
4.765405654907226562e-01,1.537635955810546875e+02,-1.299683952331542969e+01,-1.299683952331542969e+01,-1.696823835372924805e-01,1.797814483642578125e+02,1.706468174234032631e-05,6.933300028322264552e-06,-2.263721370354687679e-07,5.126586183905601501e-04,-1.895722198241855949e-05,1.368150606140261516e-06,-5.731727462261915207e-03,-1.096701234928332269e-04,-5.479527171701192856e-03,1.463759190301061608e-06,0.000000000000000000e+00,4.389444948174059391e-04,1.000000000000000000e+00
4.765405654907226562e-01,1.537635955810546875e+02,-1.299683952331542969e+01,-1.299683952331542969e+01,-1.696823835372924805e-01,1.797814483642578125e+02,1.706468174234032631e-05,6.933300028322264552e-06,-2.263721370354687679e-07,5.126586183905601501e-04,-1.895722198241855949e-05,1.368150606140261516e-06,-5.731727462261915207e-03,-1.096701234928332269e-04,-5.479527171701192856e-03,1.463759190301061608e-06,0.000000000000000000e+00,4.389444948174059391e-04,1.000000000000000000e+00
6.200885772705078125e-01,1.537635955810546875e+02,-1.299684047698974609e+01,-1.299684047698974609e+01,-1.701331734657287598e-01,1.797814483642578125e+02,6.907941497047431767e-06,4.480341431190026924e-06,-2.066715296678012237e-07,-1.088647637516260147e-03,-1.708807212708052248e-05,1.372405478150540148e-07,-1.115519646555185318e-02,-1.130073869717307389e-04,-3.530444810166954994e-03,6.392961608980840538e-07,0.000000000000000000e+00,4.389444948174059391e-04,1.000000000000000000e+00
6.200885772705078125e-01,1.537635955810546875e+02,-1.299684047698974609e+01,-1.299684047698974609e+01,-1.701331734657287598e-01,1.797814483642578125e+02,6.907941497047431767e-06,4.480341431190026924e-06,-2.066715296678012237e-07,-1.088647637516260147e-03,-1.708807212708052248e-05,1.372405478150540148e-07,-1.115519646555185318e-02,-1.130073869717307389e-04,-3.530444810166954994e-03,6.392961608980840538e-07,0.000000000000000000e+00,4.389444948174059391e-04,1.000000000000000000e+00
6.200885772705078125e-01,1.537635955810546875e+02,-1.299684047698974609e+01,-1.299684047698974609e+01,-1.701331734657287598e-01,1.797814483642578125e+02,6.907941497047431767e-06,4.480341431190026924e-06,-2.066715296678012237e-07,-1.088647637516260147e-03,-1.708807212708052248e-05,1.372405478150540148e-07,-1.115519646555185318e-02,-1.130073869717307389e-04,-3.530444810166954994e-03,6.392961608980840538e-07,0.000000000000000000e+00,4.389444948174059391e-04,1.000000000000000000e+00
6.200885772705078125e-01,1.537635955810546875e+02,-1.299684047698974609e+01,-1.299684047698974609e+01,-1.701331734657287598e-01,1.797814483642578125e+02,6.907941497047431767e-06,4.480341431190026924e-06,-2.066715296678012237e-07,-1.088647637516260147e-03,-1.708807212708052248e-05,1.372405478150540148e-07,-1.115519646555185318e-02,-1.130073869717307389e-04,-3.530444810166954994e-03,6.392961608980840538e-07,0.000000000000000000e+00,4.389444948174059391e-04,1.000000000000000000e+00
6.200885772705078125e-01,1.537635955810546875e+02,-1.299684047698974609e+01,-1.299684047698974609e+01,-1.701331734657287598e-01,1.797814483642578125e+02,6.907941497047431767e-06,4.480341431190026924e-06,-2.066715296678012237e-07,-1.088647637516260147e-03,-1.708807212708052248e-05,1.372405478150540148e-07,-1.115519646555185318e-02,-1.130073869717307389e-04,-3.530444810166954994e-03,6.392961608980840538e-07,0.000000000000000000e+00,4.389444948174059391e-04,1.000000000000000000e+00
6.200885772705078125e-01,1.537635955810546875e+02,-1.299684047698974609e+01,-1.299684047698974609e+01,-1.701331734657287598e-01,1.797814483642578125e+02,6.907941497047431767e-06,4.480341431190026924e-06,-2.066715296678012237e-07,-1.088647637516260147e-03,-1.708807212708052248e-05,1.372405478150540148e-07,-1.115519646555185318e-02,-1.130073869717307389e-04,-3.530444810166954994e-03,6.392961608980840538e-07,0.000000000000000000e+00,4.389444948174059391e-04,1.000000000000000000e+00
7.946169376373291016e-01,1.537635955810546875e+02,-1.299684047698974609e+01,-1.299684047698974609e+01,-1.702902615070343018e-01,1.797814483642578125e+02,7.217659913294482976e-06,2.434790076222270727e-06,4.092057537263826816e-08,-9.620969649404287338e-05,-1.172045267594512552e-05,1.418635406480461825e-06,5.686399061232805252e-03,1.564195554237812757e-05,-1.929714228026568890e-03,5.125243660586420447e-07,0.000000000000000000e+00,4.384358762763440609e-04,1.000000000000000000e+00
7.946169376373291016e-01,1.537635955810546875e+02,-1.299684047698974609e+01,-1.299684047698974609e+01,-1.702902615070343018e-01,1.797814483642578125e+02,7.217659913294482976e-06,2.434790076222270727e-06,4.092057537263826816e-08,-9.620969649404287338e-05,-1.172045267594512552e-05,1.418635406480461825e-06,5.686399061232805252e-03,1.564195554237812757e-05,-1.929714228026568890e-03,5.125243660586420447e-07,0.000000000000000000e+00,4.384358762763440609e-04,1.000000000000000000e+00
7.946169376373291016e-01,1.537635955810546875e+02,-1.299684047698974609e+01,-1.299684047698974609e+01,-1.702902615070343018e-01,1.797814483642578125e+02,7.217659913294482976e-06,2.434790076222270727e-06,4.092057537263826816e-08,-9.620969649404287338e-05,-1.172045267594512552e-05,1.418635406480461825e-06,5.686399061232805252e-03,1.564195554237812757e-05,-1.929714228026568890e-03,5.125243660586420447e-07,0.000000000000000000e+00,4.384358762763440609e-04,1.000000000000000000e+00
8.783230781555175781e-01,1.537635955810546875e+02,-1.299684047698974609e+01,-1.299684047698974609e+01,-1.704678535461425781e-01,1.797814483642578125e+02,8.054657882894389331e-06,2.104749228237778880e-06,-1.113066439017984521e-08,-5.040282121626660228e-05,-3.942850980820367113e-06,-6.218330099727609195e-07,5.472343764267861843e-04,-2.310889431100804359e-05,-1.660801819525659084e-03,3.893297275681106839e-07,0.000000000000000000e+00,4.384358762763440609e-04,1.000000000000000000e+00
8.783230781555175781e-01,1.537635955810546875e+02,-1.299684047698974609e+01,-1.299684047698974609e+01,-1.704678535461425781e-01,1.797814483642578125e+02,8.054657882894389331e-06,2.104749228237778880e-06,-1.113066439017984521e-08,-5.040282121626660228e-05,-3.942850980820367113e-06,-6.218330099727609195e-07,5.472343764267861843e-04,-2.310889431100804359e-05,-1.660801819525659084e-03,3.893297275681106839e-07,0.000000000000000000e+00,4.384358762763440609e-04,1.000000000000000000e+00
8.783230781555175781e-01,1.537635955810546875e+02,-1.299684047698974609e+01,-1.299684047698974609e+01,-1.704678535461425781e-01,1.797814483642578125e+02,8.054657882894389331e-06,2.104749228237778880e-06,-1.113066439017984521e-08,-5.040282121626660228e-05,-3.942850980820367113e-06,-6.218330099727609195e-07,5.472343764267861843e-04,-2.310889431100804359e-05,-1.660801819525659084e-03,3.893297275681106839e-07,0.000000000000000000e+00,4.384358762763440609e-04,1.000000000000000000e+00
9.483780860900878906e-01,1.537635955810546875e+02,-1.299684047698974609e+01,-1.299684047698974609e+01,-1.705634742975234985e-01,1.797814483642578125e+02,7.261640803335467353e-06,1.542876475468801800e-06,-2.313272950971168029e-08,1.547969295643270016e-03,-8.020450877666007727e-06,-1.713234496492077596e-07,2.281595766544342041e-02,-2.882366243284195662e-05,-1.221296843141317368e-03,3.420071266191371251e-07,0.000000000000000000e+00,4.384358762763440609e-04,1.000000000000000000e+00
9.483780860900878906e-01,1.537635955810546875e+02,-1.299684047698974609e+01,-1.299684047698974609e+01,-1.705634742975234985e-01,1.797814483642578125e+02,7.261640803335467353e-06,1.542876475468801800e-06,-2.313272950971168029e-08,1.547969295643270016e-03,-8.020450877666007727e-06,-1.713234496492077596e-07,2.281595766544342041e-02,-2.882366243284195662e-05,-1.221296843141317368e-03,3.420071266191371251e-07,0.000000000000000000e+00,4.384358762763440609e-04,1.000000000000000000e+00
9.483780860900878906e-01,1.537635955810546875e+02,-1.299684047698974609e+01,-1.299684047698974609e+01,-1.705634742975234985e-01,1.797814483642578125e+02,7.261640803335467353e-06,1.542876475468801800e-06,-2.313272950971168029e-08,1.547969295643270016e-03,-8.020450877666007727e-06,-1.713234496492077596e-07,2.281595766544342041e-02,-2.882366243284195662e-05,-1.221296843141317368e-03,3.420071266191371251e-07,0.000000000000000000e+00,4.384358762763440609e-04,1.000000000000000000e+00
9.483780860900878906e-01,1.537635955810546875e+02,-1.299684047698974609e+01,-1.299684047698974609e+01,-1.705634742975234985e-01,1.797814483642578125e+02,7.261640803335467353e-06,1.542876475468801800e-06,-2.313272950971168029e-08,1.547969295643270016e-03,-8.020450877666007727e-06,-1.713234496492077596e-07,2.281595766544342041e-02,-2.882366243284195662e-05,-1.221296843141317368e-03,3.420071266191371251e-07,0.000000000000000000e+00,4.384358762763440609e-04,1.000000000000000000e+00
9.483780860900878906e-01,1.537635955810546875e+02,-1.299684047698974609e+01,-1.299684047698974609e+01,-1.705634742975234985e-01,1.797814483642578125e+02,7.261640803335467353e-06,1.199772327709069941e-06,-9.337460227243354893e-08,3.171953139826655388e-04,-4.354168140707770362e-06,-8.914055342756910250e-07,-1.561915501952171326e-02,-8.521685958839952946e-05,-9.500475134700536728e-04,7.645071065098818508e-08,0.000000000000000000e+00,4.384358762763440609e-04,1.000000000000000000e+00
1.027177095413208008e+00,1.537635955810546875e+02,-1.299684047698974609e+01,-1.299684047698974609e+01,-1.705634742975234985e-01,1.797814483642578125e+02,7.261640803335467353e-06,1.199772327709069941e-06,-9.337460227243354893e-08,3.171953139826655388e-04,-4.354168140707770362e-06,-8.914055342756910250e-07,-1.561915501952171326e-02,-8.521685958839952946e-05,-9.500475134700536728e-04,7.645071065098818508e-08,0.000000000000000000e+00,4.384358762763440609e-04,1.000000000000000000e+00
1.027177095413208008e+00,1.537635955810546875e+02,-1.299684047698974609e+01,-1.299684047698974609e+01,-1.705634742975234985e-01,1.797814483642578125e+02,7.261640803335467353e-06,1.199772327709069941e-06,-9.337460227243354893e-08,3.171953139826655388e-04,-4.354168140707770362e-06,-8.914055342756910250e-07,-1.561915501952171326e-02,-8.521685958839952946e-05,-9.500475134700536728e-04,7.645071065098818508e-08,0.000000000000000000e+00,4.384358762763440609e-04,1.000000000000000000e+00
1.095043420791625977e+00,1.537635955810546875e+02,-1.299684047698974609e+01,-1.299684047698974609e+01,-1.705634742975234985e-01,1.797814483642578125e+02,7.261640803335467353e-06,0.000000000000000000e+00,0.000000000000000000e+00,0.000000000000000000e+00,-1.767846333677880466e-05,1.375860620100866072e-06,-4.673824645578861237e-03,0.000000000000000000e+00,0.000000000000000000e+00,0.000000000000000000e+00,0.000000000000000000e+00,4.384358762763440609e-04,1.000000000000000000e+00
1.095043420791625977e+00,1.537635955810546875e+02,-1.299684047698974609e+01,-1.299684047698974609e+01,-1.705634742975234985e-01,1.797814483642578125e+02,7.261640803335467353e-06,0.000000000000000000e+00,0.000000000000000000e+00,0.000000000000000000e+00,-1.767846333677880466e-05,1.375860620100866072e-06,-4.673824645578861237e-03,0.000000000000000000e+00,0.000000000000000000e+00,0.000000000000000000e+00,0.000000000000000000e+00,4.384358762763440609e-04,1.000000000000000000e+00
1.095043420791625977e+00,1.537635955810546875e+02,-1.299684047698974609e+01,-1.299684047698974609e+01,-1.705634742975234985e-01,1.797814483642578125e+02,7.261640803335467353e-06,0.000000000000000000e+00,0.000000000000000000e+00,0.000000000000000000e+00,-1.767846333677880466e-05,1.375860620100866072e-06,-4.673824645578861237e-03,0.000000000000000000e+00,0.000000000000000000e+00,0.000000000000000000e+00,0.000000000000000000e+00,4.384358762763440609e-04,1.000000000000000000e+00
1.095043420791625977e+00,1.537635955810546875e+02,-1.299684047698974609e+01,-1.299684047698974609e+01,-1.705634742975234985e-01,1.797814483642578125e+02,7.261640803335467353e-06,0.000000000000000000e+00,0.000000000000000000e+00,0.000000000000000000e+00,-1.767846333677880466e-05,1.375860620100866072e-06,-4.673824645578861237e-03,0.000000000000000000e+00,0.000000000000000000e+00,0.000000000000000000e+00,0.000000000000000000e+00,4.384358762763440609e-04,1.000000000000000000e+00
1.168572425842285156e+00,1.537635955810546875e+02,-1.299684047698974609e+01,-1.299684047698974609e+01,-1.707137376070022583e-01,1.797814483642578125e+02,3.256954414609936066e-06,4.547028424894961063e-07,-9.679843593346504349e-09,1.235203002579510212e-03,6.183992809383198619e-06,-1.316466011758166132e-07,1.679885387420654297e-02,-5.285678980726515874e-06,-3.623287193477153778e-04,9.558284119748350349e-08,0.000000000000000000e+00,4.384358762763440609e-04,1.000000000000000000e+00
1.168572425842285156e+00,1.537635955810546875e+02,-1.299684047698974609e+01,-1.299684047698974609e+01,-1.707137376070022583e-01,1.797814483642578125e+02,3.256954414609936066e-06,4.547028424894961063e-07,-9.679843593346504349e-09,1.235203002579510212e-03,6.183992809383198619e-06,-1.316466011758166132e-07,1.679885387420654297e-02,-5.285678980726515874e-06,-3.623287193477153778e-04,9.558284119748350349e-08,0.000000000000000000e+00,4.384358762763440609e-04,1.000000000000000000e+00
1.168572425842285156e+00,1.537635955810546875e+02,-1.299684047698974609e+01,-1.299684047698974609e+01,-1.707137376070022583e-01,1.797814483642578125e+02,3.256954414609936066e-06,4.547028424894961063e-07,-9.679843593346504349e-09,1.235203002579510212e-03,6.183992809383198619e-06,-1.316466011758166132e-07,1.679885387420654297e-02,-5.285678980726515874e-06,-3.623287193477153778e-04,9.558284119748350349e-08,0.000000000000000000e+00,4.384358762763440609e-04,1.000000000000000000e+00
1.168572425842285156e+00,1.537635955810546875e+02,-1.299684047698974609e+01,-1.299684047698974609e+01,-1.707137376070022583e-01,1.797814483642578125e+02,3.256954414609936066e-06,4.547028424894961063e-07,-9.679843593346504349e-09,1.235203002579510212e-03,6.183992809383198619e-06,-1.316466011758166132e-07,1.679885387420654297e-02,-5.285678980726515874e-06,-3.623287193477153778e-04,9.558284119748350349e-08,0.000000000000000000e+00,4.384358762763440609e-04,1.000000000000000000e+00
1.168572425842285156e+00,1.537635955810546875e+02,-1.299684047698974609e+01,-1.299684047698974609e+01,-1.707137376070022583e-01,1.797814483642578125e+02,3.256954414609936066e-06,4.549135326215036912e-07,-1.491874890291455813e-08,-5.782707012258470058e-04,2.807388321812709364e-09,-6.980697975222938112e-08,-2.416403964161872864e-02,-8.669759154145140201e-06,-3.576295275706797838e-04,1.019350293063325807e-07,0.000000000000000000e+00,4.384358762763440609e-04,1.000000000000000000e+00
1.243620872497558594e+00,1.537635955810546875e+02,-1.299684047698974609e+01,-1.299684047698974609e+01,-1.707137376070022583e-01,1.797814483642578125e+02,3.256954414609936066e-06,4.549135326215036912e-07,-1.491874890291455813e-08,-5.782707012258470058e-04,2.807388321812709364e-09,-6.980697975222938112e-08,-2.416403964161872864e-02,-8.669759154145140201e-06,-3.576295275706797838e-04,1.019350293063325807e-07,0.000000000000000000e+00,4.384358762763440609e-04,1.000000000000000000e+00
1.243620872497558594e+00,1.537635955810546875e+02,-1.299684047698974609e+01,-1.299684047698974609e+01,-1.707137376070022583e-01,1.797814483642578125e+02,3.256954414609936066e-06,4.549135326215036912e-07,-1.491874890291455813e-08,-5.782707012258470058e-04,2.807388321812709364e-09,-6.980697975222938112e-08,-2.416403964161872864e-02,-8.669759154145140201e-06,-3.576295275706797838e-04,1.019350293063325807e-07,0.000000000000000000e+00,4.384358762763440609e-04,1.000000000000000000e+00
1.243620872497558594e+00,1.537635955810546875e+02,-1.299684047698974609e+01,-1.299684047698974609e+01,-1.707137376070022583e-01,1.797814483642578125e+02,3.256954414609936066e-06,4.549135326215036912e-07,-1.491874890291455813e-08,-5.782707012258470058e-04,2.807388321812709364e-09,-6.980697975222938112e-08,-2.416403964161872864e-02,-8.669759154145140201e-06,-3.576295275706797838e-04,1.019350293063325807e-07,0.000000000000000000e+00,4.384358762763440609e-04,1.000000000000000000e+00
1.312042951583862305e+00,1.537635955810546875e+02,-1.299684047698974609e+01,-1.299684047698974609e+01,-1.707137376070022583e-01,1.797814483642578125e+02,3.256954414609936066e-06,3.151586440708342707e-07,-4.161816136161178292e-08,-6.707233842462301254e-04,-2.042540927504887804e-06,-3.902163427937921369e-07,-1.351211336441338062e-03,-7.160725544963497669e-06,-2.467534795869141817e-04,6.322727585938991979e-08,0.000000000000000000e+00,4.384358762763440609e-04,1.000000000000000000e+00
1.312042951583862305e+00,1.537635955810546875e+02,-1.299684047698974609e+01,-1.299684047698974609e+01,-1.707137376070022583e-01,1.797814483642578125e+02,3.256954414609936066e-06,3.151586440708342707e-07,-4.161816136161178292e-08,-6.707233842462301254e-04,-2.042540927504887804e-06,-3.902163427937921369e-07,-1.351211336441338062e-03,-7.160725544963497669e-06,-2.467534795869141817e-04,6.322727585938991979e-08,0.000000000000000000e+00,4.384358762763440609e-04,1.000000000000000000e+00
1.383129358291625977e+00,1.537635955810546875e+02,-1.299684047698974609e+01,-1.299684047698974609e+01,-1.707137376070022583e-01,1.797814483642578125e+02,3.256954414609936066e-06,2.141856327853020048e-07,-7.728352180436104391e-09,4.717181145679205656e-04,-1.420426428921928164e-06,4.767410359818313736e-07,1.607116684317588806e-02,-4.135524250159505755e-06,-1.648951729293912649e-04,7.455646766629797639e-08,0.000000000000000000e+00,4.384358762763440609e-04,1.000000000000000000e+00
1.383129358291625977e+00,1.537635955810546875e+02,-1.299684047698974609e+01,-1.299684047698974609e+01,-1.707137376070022583e-01,1.797814483642578125e+02,3.256954414609936066e-06,2.141856327853020048e-07,-7.728352180436104391e-09,4.717181145679205656e-04,-1.420426428921928164e-06,4.767410359818313736e-07,1.607116684317588806e-02,-4.135524250159505755e-06,-1.648951729293912649e-04,7.455646766629797639e-08,0.000000000000000000e+00,4.384358762763440609e-04,1.000000000000000000e+00
1.383129358291625977e+00,1.537635955810546875e+02,-1.299684047698974609e+01,-1.299684047698974609e+01,-1.707137376070022583e-01,1.797814483642578125e+02,3.256954414609936066e-06,2.141856327853020048e-07,-7.728352180436104391e-09,4.717181145679205656e-04,-1.420426428921928164e-06,4.767410359818313736e-07,1.607116684317588806e-02,-4.135524250159505755e-06,-1.648951729293912649e-04,7.455646766629797639e-08,0.000000000000000000e+00,4.384358762763440609e-04,1.000000000000000000e+00
1.450951814651489258e+00,1.537635955810546875e+02,-1.299684047698974609e+01,-1.299684047698974609e+01,-1.707137376070022583e-01,1.797814483642578125e+02,3.256954414609936066e-06,1.881459894548243028e-07,-2.811271038183349447e-08,-3.523993073031306267e-04,-3.839383850845479174e-07,-3.005547171142097795e-07,-1.215109974145889282e-02,-1.335588422080036253e-06,-1.472091826144605875e-04,4.653884744243441673e-08,0.000000000000000000e+00,4.384358762763440609e-04,1.000000000000000000e+00
1.450951814651489258e+00,1.537635955810546875e+02,-1.299684047698974609e+01,-1.299684047698974609e+01,-1.707137376070022583e-01,1.797814483642578125e+02,3.256954414609936066e-06,1.881459894548243028e-07,-2.811271038183349447e-08,-3.523993073031306267e-04,-3.839383850845479174e-07,-3.005547171142097795e-07,-1.215109974145889282e-02,-1.335588422080036253e-06,-1.472091826144605875e-04,4.653884744243441673e-08,0.000000000000000000e+00,4.384358762763440609e-04,1.000000000000000000e+00
1.450951814651489258e+00,1.537635955810546875e+02,-1.299684047698974609e+01,-1.299684047698974609e+01,-1.707137376070022583e-01,1.797814483642578125e+02,3.256954414609936066e-06,1.881459894548243028e-07,-2.811271038183349447e-08,-3.523993073031306267e-04,-3.839383850845479174e-07,-3.005547171142097795e-07,-1.215109974145889282e-02,-1.335588422080036253e-06,-1.472091826144605875e-04,4.653884744243441673e-08,0.000000000000000000e+00,4.384358762763440609e-04,1.000000000000000000e+00
1.527701377868652344e+00,1.537635955810546875e+02,-1.299684047698974609e+01,-1.299684047698974609e+01,-1.707137376070022583e-01,1.797814483642578125e+02,3.256954414609936066e-06,0.000000000000000000e+00,0.000000000000000000e+00,0.000000000000000000e+00,-2.451427462801802903e-06,3.662914878077572212e-07,4.591548349708318710e-03,0.000000000000000000e+00,0.000000000000000000e+00,0.000000000000000000e+00,0.000000000000000000e+00,4.384358762763440609e-04,1.000000000000000000e+00
1.527701377868652344e+00,1.537635955810546875e+02,-1.299684047698974609e+01,-1.299684047698974609e+01,-1.707137376070022583e-01,1.797814483642578125e+02,3.256954414609936066e-06,0.000000000000000000e+00,0.000000000000000000e+00,0.000000000000000000e+00,-2.451427462801802903e-06,3.662914878077572212e-07,4.591548349708318710e-03,0.000000000000000000e+00,0.000000000000000000e+00,0.000000000000000000e+00,0.000000000000000000e+00,4.384358762763440609e-04,1.000000000000000000e+00
1.527701377868652344e+00,1.537635955810546875e+02,-1.299684047698974609e+01,-1.299684047698974609e+01,-1.707137376070022583e-01,1.797814483642578125e+02,3.256954414609936066e-06,0.000000000000000000e+00,0.000000000000000000e+00,0.000000000000000000e+00,-2.451427462801802903e-06,3.662914878077572212e-07,4.591548349708318710e-03,0.000000000000000000e+00,0.000000000000000000e+00,0.000000000000000000e+00,0.000000000000000000e+00,4.384358762763440609e-04,1.000000000000000000e+00
1.600134611129760742e+00,1.537635955810546875e+02,-1.299684047698974609e+01,-1.299684047698974609e+01,-1.707137376070022583e-01,1.797814483642578125e+02,3.256954414609936066e-06,1.547905412735417485e-07,8.031671328012635058e-09,-1.234103459864854813e-03,2.137009914804366417e-06,1.108837892616065801e-07,-1.703780703246593475e-02,4.460328000277513638e-06,-1.257744588656350970e-04,3.212112176242953865e-08,0.000000000000000000e+00,4.384358762763440609e-04,1.000000000000000000e+00
1.600134611129760742e+00,1.537635955810546875e+02,-1.299684047698974609e+01,-1.299684047698974609e+01,-1.707137376070022583e-01,1.797814483642578125e+02,3.256954414609936066e-06,1.547905412735417485e-07,8.031671328012635058e-09,-1.234103459864854813e-03,2.137009914804366417e-06,1.108837892616065801e-07,-1.703780703246593475e-02,4.460328000277513638e-06,-1.257744588656350970e-04,3.212112176242953865e-08,0.000000000000000000e+00,4.384358762763440609e-04,1.000000000000000000e+00
1.600134611129760742e+00,1.537635955810546875e+02,-1.299684047698974609e+01,-1.299684047698974609e+01,-1.707137376070022583e-01,1.797814483642578125e+02,3.256954414609936066e-06,1.547905412735417485e-07,8.031671328012635058e-09,-1.234103459864854813e-03,2.137009914804366417e-06,1.108837892616065801e-07,-1.703780703246593475e-02,4.460328000277513638e-06,-1.257744588656350970e-04,3.212112176242953865e-08,0.000000000000000000e+00,4.384358762763440609e-04,1.000000000000000000e+00
1.600134611129760742e+00,1.537635955810546875e+02,-1.299684047698974609e+01,-1.299684047698974609e+01,-1.707137376070022583e-01,1.797814483642578125e+02,3.256954414609936066e-06,1.547905412735417485e-07,8.031671328012635058e-09,-1.234103459864854813e-03,2.137009914804366417e-06,1.108837892616065801e-07,-1.703780703246593475e-02,4.460328000277513638e-06,-1.257744588656350970e-04,3.212112176242953865e-08,0.000000000000000000e+00,4.384358762763440609e-04,1.000000000000000000e+00
1.600134611129760742e+00,1.537635955810546875e+02,-1.299684047698974609e+01,-1.299684047698974609e+01,-1.707137376070022583e-01,1.797814483642578125e+02,3.256954414609936066e-06,1.547905412735417485e-07,8.031671328012635058e-09,-1.234103459864854813e-03,2.137009914804366417e-06,1.108837892616065801e-07,-1.703780703246593475e-02,4.460328000277513638e-06,-1.257744588656350970e-04,3.212112176242953865e-08,0.000000000000000000e+00,4.384358762763440609e-04,1.000000000000000000e+00
1.600134611129760742e+00,1.537635955810546875e+02,-1.299684047698974609e+01,-1.299684047698974609e+01,-1.708366870880126953e-01,1.797814483642578125e+02,2.181342892981774639e-07,1.501294519812290673e-07,1.621358869385858270e-08,1.323985052295029163e-04,-4.039812395717490290e-08,7.091348663834651234e-08,1.184360776096582413e-02,8.776134563959203660e-06,-1.199854305014014244e-04,5.785788204093478271e-08,0.000000000000000000e+00,4.384358762763440609e-04,1.000000000000000000e+00
1.715513467788696289e+00,1.537635955810546875e+02,-1.299684047698974609e+01,-1.299684047698974609e+01,-1.708366870880126953e-01,1.797814483642578125e+02,2.181342892981774639e-07,1.501294519812290673e-07,1.621358869385858270e-08,1.323985052295029163e-04,-4.039812395717490290e-08,7.091348663834651234e-08,1.184360776096582413e-02,8.776134563959203660e-06,-1.199854305014014244e-04,5.785788204093478271e-08,0.000000000000000000e+00,4.384358762763440609e-04,1.000000000000000000e+00
1.715513467788696289e+00,1.537635955810546875e+02,-1.299684047698974609e+01,-1.299684047698974609e+01,-1.708366870880126953e-01,1.797814483642578125e+02,2.181342892981774639e-07,1.501294519812290673e-07,1.621358869385858270e-08,1.323985052295029163e-04,-4.039812395717490290e-08,7.091348663834651234e-08,1.184360776096582413e-02,8.776134563959203660e-06,-1.199854305014014244e-04,5.785788204093478271e-08,0.000000000000000000e+00,4.384358762763440609e-04,1.000000000000000000e+00
1.715513467788696289e+00,1.537635955810546875e+02,-1.299684047698974609e+01,-1.299684047698974609e+01,-1.708366870880126953e-01,1.797814483642578125e+02,2.181342892981774639e-07,5.118731039033264096e-08,2.529822751284882543e-08,-9.694199543446302414e-04,-1.013734276966715697e-06,9.307873938269040082e-08,-1.128893252462148666e-02,1.403094483976019546e-05,-4.043577064294368029e-05,5.684078985268570250e-08,0.000000000000000000e+00,4.384358762763440609e-04,1.000000000000000000e+00
1.813115119934082031e+00,1.537635955810546875e+02,-1.299684047698974609e+01,-1.299684047698974609e+01,-1.708366870880126953e-01,1.797814483642578125e+02,2.181342892981774639e-07,5.118731039033264096e-08,2.529822751284882543e-08,-9.694199543446302414e-04,-1.013734276966715697e-06,9.307873938269040082e-08,-1.128893252462148666e-02,1.403094483976019546e-05,-4.043577064294368029e-05,5.684078985268570250e-08,0.000000000000000000e+00,4.384358762763440609e-04,1.000000000000000000e+00
1.813115119934082031e+00,1.537635955810546875e+02,-1.299684047698974609e+01,-1.299684047698974609e+01,-1.708366870880126953e-01,1.797814483642578125e+02,2.181342892981774639e-07,5.118731039033264096e-08,2.529822751284882543e-08,-9.694199543446302414e-04,-1.013734276966715697e-06,9.307873938269040082e-08,-1.128893252462148666e-02,1.403094483976019546e-05,-4.043577064294368029e-05,5.684078985268570250e-08,0.000000000000000000e+00,4.384358762763440609e-04,1.000000000000000000e+00
1.813115119934082031e+00,1.537635955810546875e+02,-1.299684047698974609e+01,-1.299684047698974609e+01,-1.708366870880126953e-01,1.797814483642578125e+02,2.181342892981774639e-07,5.118731039033264096e-08,2.529822751284882543e-08,-9.694199543446302414e-04,-1.013734276966715697e-06,9.307873938269040082e-08,-1.128893252462148666e-02,1.403094483976019546e-05,-4.043577064294368029e-05,5.684078985268570250e-08,0.000000000000000000e+00,4.384358762763440609e-04,1.000000000000000000e+00
1.813115119934082031e+00,1.537635955810546875e+02,-1.299684047698974609e+01,-1.299684047698974609e+01,-1.708366870880126953e-01,1.797814483642578125e+02,2.181342892981774639e-07,5.797035385057824897e-08,3.203338394541788148e-08,2.087253524223342538e-04,8.170398757556540659e-08,8.112717608810271486e-08,1.419114787131547928e-02,1.706803413981106132e-05,-4.614016143023036420e-05,6.441420907776773674e-08,0.000000000000000000e+00,4.384358762763440609e-04,1.000000000000000000e+00
1.896134853363037109e+00,1.537635955810546875e+02,-1.299684047698974609e+01,-1.299684047698974609e+01,-1.708366870880126953e-01,1.797814483642578125e+02,2.181342892981774639e-07,5.797035385057824897e-08,3.203338394541788148e-08,2.087253524223342538e-04,8.170398757556540659e-08,8.112717608810271486e-08,1.419114787131547928e-02,1.706803413981106132e-05,-4.614016143023036420e-05,6.441420907776773674e-08,0.000000000000000000e+00,4.384358762763440609e-04,1.000000000000000000e+00
1.896134853363037109e+00,1.537635955810546875e+02,-1.299684047698974609e+01,-1.299684047698974609e+01,-1.708366870880126953e-01,1.797814483642578125e+02,2.181342892981774639e-07,5.797035385057824897e-08,3.203338394541788148e-08,2.087253524223342538e-04,8.170398757556540659e-08,8.112717608810271486e-08,1.419114787131547928e-02,1.706803413981106132e-05,-4.614016143023036420e-05,6.441420907776773674e-08,0.000000000000000000e+00,4.384358762763440609e-04,1.000000000000000000e+00
1.896134853363037109e+00,1.537635955810546875e+02,-1.299684047698974609e+01,-1.299684047698974609e+01,-1.708366870880126953e-01,1.797814483642578125e+02,2.181342892981774639e-07,5.797035385057824897e-08,3.203338394541788148e-08,2.087253524223342538e-04,8.170398757556540659e-08,8.112717608810271486e-08,1.419114787131547928e-02,1.706803413981106132e-05,-4.614016143023036420e-05,6.441420907776773674e-08,0.000000000000000000e+00,4.384358762763440609e-04,1.000000000000000000e+00
1.896134853363037109e+00,1.537635955810546875e+02,-1.299684047698974609e+01,-1.299684047698974609e+01,-1.708366870880126953e-01,1.797814483642578125e+02,2.181342892981774639e-07,5.797035385057824897e-08,3.203338394541788148e-08,2.087253524223342538e-04,8.170398757556540659e-08,8.112717608810271486e-08,1.419114787131547928e-02,1.706803413981106132e-05,-4.614016143023036420e-05,6.441420907776773674e-08,0.000000000000000000e+00,4.384358762763440609e-04,1.000000000000000000e+00
1.896134853363037109e+00,1.537635955810546875e+02,-1.299684047698974609e+01,-1.299684047698974609e+01,-1.708366870880126953e-01,1.797814483642578125e+02,2.181342892981774639e-07,5.797035385057824897e-08,3.203338394541788148e-08,2.087253524223342538e-04,8.170398757556540659e-08,8.112717608810271486e-08,1.419114787131547928e-02,1.706803413981106132e-05,-4.614016143023036420e-05,6.441420907776773674e-08,0.000000000000000000e+00,4.384358762763440609e-04,1.000000000000000000e+00
1.896134853363037109e+00,1.537635955810546875e+02,-1.299684047698974609e+01,-1.299684047698974609e+01,-1.708366870880126953e-01,1.797814483642578125e+02,2.181342892981774639e-07,5.797035385057824897e-08,3.203338394541788148e-08,2.087253524223342538e-04,8.170398757556540659e-08,8.112717608810271486e-08,1.419114787131547928e-02,1.706803413981106132e-05,-4.614016143023036420e-05,6.441420907776773674e-08,0.000000000000000000e+00,4.384358762763440609e-04,1.000000000000000000e+00
1.896134853363037109e+00,1.537635955810546875e+02,-1.299684047698974609e+01,-1.299684047698974609e+01,-1.708366870880126953e-01,1.797814483642578125e+02,2.181342892981774639e-07,5.797035385057824897e-08,3.203338394541788148e-08,2.087253524223342538e-04,8.170398757556540659e-08,8.112717608810271486e-08,1.419114787131547928e-02,1.706803413981106132e-05,-4.614016143023036420e-05,6.441420907776773674e-08,0.000000000000000000e+00,4.384358762763440609e-04,1.000000000000000000e+00
2.195794820785522461e+00,1.537635955810546875e+02,-1.299684047698974609e+01,-1.299684047698974609e+01,-1.708366870880126953e-01,1.797814483642578125e+02,2.181342892981774639e-07,8.814649454791378957e-09,-3.579011575993717997e-08,1.362534705549478531e-03,-1.942240260177641176e-06,-7.785305911056639161e-07,2.245193906128406525e-02,-3.380977796041406691e-05,-4.128947693970985711e-06,-8.460232692186764325e-08,0.000000000000000000e+00,4.384358762763440609e-04,1.000000000000000000e+00
2.195794820785522461e+00,1.537635955810546875e+02,-1.299684047698974609e+01,-1.299684047698974609e+01,-1.708366870880126953e-01,1.797814483642578125e+02,2.181342892981774639e-07,8.814649454791378957e-09,-3.579011575993717997e-08,1.362534705549478531e-03,-1.942240260177641176e-06,-7.785305911056639161e-07,2.245193906128406525e-02,-3.380977796041406691e-05,-4.128947693970985711e-06,-8.460232692186764325e-08,0.000000000000000000e+00,4.384358762763440609e-04,1.000000000000000000e+00
2.195794820785522461e+00,1.537635955810546875e+02,-1.299684047698974609e+01,-1.299684047698974609e+01,-1.708366870880126953e-01,1.797814483642578125e+02,2.181342892981774639e-07,8.814649454791378957e-09,-3.579011575993717997e-08,1.362534705549478531e-03,-1.942240260177641176e-06,-7.785305911056639161e-07,2.245193906128406525e-02,-3.380977796041406691e-05,-4.128947693970985711e-06,-8.460232692186764325e-08,0.000000000000000000e+00,4.384358762763440609e-04,1.000000000000000000e+00
2.195794820785522461e+00,1.537635955810546875e+02,-1.299684047698974609e+01,-1.299684047698974609e+01,-1.708366870880126953e-01,1.797814483642578125e+02,2.181342892981774639e-07,8.814649454791378957e-09,-3.579011575993717997e-08,1.362534705549478531e-03,-1.942240260177641176e-06,-7.785305911056639161e-07,2.245193906128406525e-02,-3.380977796041406691e-05,-4.128947693970985711e-06,-8.460232692186764325e-08,0.000000000000000000e+00,4.384358762763440609e-04,1.000000000000000000e+00
2.195794820785522461e+00,1.537635955810546875e+02,-1.299684047698974609e+01,-1.299684047698974609e+01,-1.708366870880126953e-01,1.797814483642578125e+02,2.181342892981774639e-07,8.814649454791378957e-09,-3.579011575993717997e-08,1.362534705549478531e-03,-1.942240260177641176e-06,-7.785305911056639161e-07,2.245193906128406525e-02,-3.380977796041406691e-05,-4.128947693970985711e-06,-8.460232692186764325e-08,0.000000000000000000e+00,4.384358762763440609e-04,1.000000000000000000e+00
2.195794820785522461e+00,1.537635955810546875e+02,-1.299684047698974609e+01,-1.299684047698974609e+01,-1.708366870880126953e-01,1.797814483642578125e+02,2.181342892981774639e-07,8.814649454791378957e-09,-3.579011575993717997e-08,1.362534705549478531e-03,-1.942240260177641176e-06,-7.785305911056639161e-07,2.245193906128406525e-02,-3.380977796041406691e-05,-4.128947693970985711e-06,-8.460232692186764325e-08,0.000000000000000000e+00,4.384358762763440609e-04,1.000000000000000000e+00
2.195794820785522461e+00,1.537635955810546875e+02,-1.299684047698974609e+01,-1.299684047698974609e+01,-1.708366870880126953e-01,1.797814483642578125e+02,2.181342892981774639e-07,8.814649454791378957e-09,-3.579011575993717997e-08,1.362534705549478531e-03,-1.942240260177641176e-06,-7.785305911056639161e-07,2.245193906128406525e-02,-3.380977796041406691e-05,-4.128947693970985711e-06,-8.460232692186764325e-08,0.000000000000000000e+00,4.384358762763440609e-04,1.000000000000000000e+00
2.195794820785522461e+00,1.537635955810546875e+02,-1.299684047698974609e+01,-1.299684047698974609e+01,-1.708366870880126953e-01,1.797814483642578125e+02,2.181342892981774639e-07,8.814649454791378957e-09,-3.579011575993717997e-08,1.362534705549478531e-03,-1.942240260177641176e-06,-7.785305911056639161e-07,2.245193906128406525e-02,-3.380977796041406691e-05,-4.128947693970985711e-06,-8.460232692186764325e-08,0.000000000000000000e+00,4.384358762763440609e-04,1.000000000000000000e+00
2.195794820785522461e+00,1.537635955810546875e+02,-1.299684047698974609e+01,-1.299684047698974609e+01,-1.708366870880126953e-01,1.797814483642578125e+02,2.181342892981774639e-07,8.814649454791378957e-09,-3.579011575993717997e-08,1.362534705549478531e-03,-1.942240260177641176e-06,-7.785305911056639161e-07,2.245193906128406525e-02,-3.380977796041406691e-05,-4.128947693970985711e-06,-8.460232692186764325e-08,0.000000000000000000e+00,4.384358762763440609e-04,1.000000000000000000e+00
2.195794820785522461e+00,1.537635955810546875e+02,-1.299684047698974609e+01,-1.299684047698974609e+01,-1.708366870880126953e-01,1.797814483642578125e+02,2.181342892981774639e-07,8.814649454791378957e-09,-3.579011575993717997e-08,1.362534705549478531e-03,-1.942240260177641176e-06,-7.785305911056639161e-07,2.245193906128406525e-02,-3.380977796041406691e-05,-4.128947693970985711e-06,-8.460232692186764325e-08,0.000000000000000000e+00,4.384358762763440609e-04,1.000000000000000000e+00
2.374083757400512695e+00,1.537635955810546875e+02,-1.299684047698974609e+01,-1.299684047698974609e+01,-1.708366870880126953e-01,1.797814483642578125e+02,2.181342892981774639e-07,1.726529497148021619e-08,-3.767110001717810519e-08,1.685595954768359661e-03,4.739859704727678036e-08,-1.055020160123376627e-08,1.812009490095078945e-03,-3.185269088135100901e-05,-1.464218075852841139e-05,-9.559380487189628184e-08,0.000000000000000000e+00,4.384358762763440609e-04,1.000000000000000000e+00
2.374083757400512695e+00,1.537635955810546875e+02,-1.299684047698974609e+01,-1.299684047698974609e+01,-1.708366870880126953e-01,1.797814483642578125e+02,2.181342892981774639e-07,1.726529497148021619e-08,-3.767110001717810519e-08,1.685595954768359661e-03,4.739859704727678036e-08,-1.055020160123376627e-08,1.812009490095078945e-03,-3.185269088135100901e-05,-1.464218075852841139e-05,-9.559380487189628184e-08,0.000000000000000000e+00,4.384358762763440609e-04,1.000000000000000000e+00
2.374083757400512695e+00,1.537635955810546875e+02,-1.299684047698974609e+01,-1.299684047698974609e+01,-1.708366870880126953e-01,1.797814483642578125e+02,2.181342892981774639e-07,1.726529497148021619e-08,-3.767110001717810519e-08,1.685595954768359661e-03,4.739859704727678036e-08,-1.055020160123376627e-08,1.812009490095078945e-03,-3.185269088135100901e-05,-1.464218075852841139e-05,-9.559380487189628184e-08,0.000000000000000000e+00,4.384358762763440609e-04,1.000000000000000000e+00
2.447860002517700195e+00,1.537635955810546875e+02,-1.299684047698974609e+01,-1.299684047698974609e+01,-1.708366870880126953e-01,1.797814483642578125e+02,2.181342892981774639e-07,1.755547529569412291e-08,-4.068049008765228791e-09,-1.351607963442802429e-03,3.933248837739711234e-09,4.554725023808714468e-07,-4.116777703166007996e-02,1.145311671280069277e-05,-1.191531373478937894e-05,4.435670675206893065e-08,0.000000000000000000e+00,4.384358762763440609e-04,1.000000000000000000e+00
2.447860002517700195e+00,1.537635955810546875e+02,-1.299684047698974609e+01,-1.299684047698974609e+01,-1.708366870880126953e-01,1.797814483642578125e+02,2.181342892981774639e-07,1.755547529569412291e-08,-4.068049008765228791e-09,-1.351607963442802429e-03,3.933248837739711234e-09,4.554725023808714468e-07,-4.116777703166007996e-02,1.145311671280069277e-05,-1.191531373478937894e-05,4.435670675206893065e-08,0.000000000000000000e+00,4.384358762763440609e-04,1.000000000000000000e+00
2.500878810882568359e+00,1.537635955810546875e+02,-1.299684047698974609e+01,-1.299684047698974609e+01,-1.708366870880126953e-01,1.797814483642578125e+02,2.181342892981774639e-07,2.531361964486222860e-08,2.528101816778871580e-08,8.914394420571625233e-04,1.463281478208955377e-07,5.535595164474216290e-07,4.230663552880287170e-02,1.402708039677236229e-05,-2.559791937528643757e-05,1.726935039414456696e-08,0.000000000000000000e+00,4.384358762763440609e-04,1.000000000000000000e+00
2.500878810882568359e+00,1.537635955810546875e+02,-1.299684047698974609e+01,-1.299684047698974609e+01,-1.708366870880126953e-01,1.797814483642578125e+02,2.181342892981774639e-07,2.531361964486222860e-08,2.528101816778871580e-08,8.914394420571625233e-04,1.463281478208955377e-07,5.535595164474216290e-07,4.230663552880287170e-02,1.402708039677236229e-05,-2.559791937528643757e-05,1.726935039414456696e-08,0.000000000000000000e+00,4.384358762763440609e-04,1.000000000000000000e+00
2.560195446014404297e+00,1.537635955810546875e+02,-1.299684047698974609e+01,-1.299684047698974609e+01,-1.708366870880126953e-01,1.797814483642578125e+02,2.181342892981774639e-07,1.467399979304673252e-08,-1.263601845380435407e-08,3.315199865028262138e-04,-1.793699198060494382e-07,-6.392310751834884286e-07,-9.439500980079174042e-03,-8.815055480226874352e-06,-1.303361750615295023e-05,-2.731070303241267538e-08,0.000000000000000000e+00,4.384358762763440609e-04,1.000000000000000000e+00
2.560195446014404297e+00,1.537635955810546875e+02,-1.299684047698974609e+01,-1.299684047698974609e+01,-1.708366870880126953e-01,1.797814483642578125e+02,2.181342892981774639e-07,1.467399979304673252e-08,-1.263601845380435407e-08,3.315199865028262138e-04,-1.793699198060494382e-07,-6.392310751834884286e-07,-9.439500980079174042e-03,-8.815055480226874352e-06,-1.303361750615295023e-05,-2.731070303241267538e-08,0.000000000000000000e+00,4.384358762763440609e-04,1.000000000000000000e+00
2.560195446014404297e+00,1.537635955810546875e+02,-1.299684047698974609e+01,-1.299684047698974609e+01,-1.708366870880126953e-01,1.797814483642578125e+02,2.181342892981774639e-07,1.467399979304673252e-08,-1.263601845380435407e-08,3.315199865028262138e-04,-1.793699198060494382e-07,-6.392310751834884286e-07,-9.439500980079174042e-03,-8.815055480226874352e-06,-1.303361750615295023e-05,-2.731070303241267538e-08,0.000000000000000000e+00,4.384358762763440609e-04,1.000000000000000000e+00
2.618730545043945312e+00,1.537635955810546875e+02,-1.299684047698974609e+01,-1.299684047698974609e+01,-1.708366870880126953e-01,1.797814483642578125e+02,2.181342892981774639e-07,4.205006476354355982e-08,-1.509881664141232704e-09,-9.414993110112845898e-04,4.676863056829461129e-07,1.900763209050637670e-07,-2.174796350300312042e-02,1.087216901396459434e-06,-3.276563802501186728e-05,2.008589383706294029e-08,0.000000000000000000e+00,4.384358762763440609e-04,1.000000000000000000e+00
2.618730545043945312e+00,1.537635955810546875e+02,-1.299684047698974609e+01,-1.299684047698974609e+01,-1.708366870880126953e-01,1.797814483642578125e+02,2.181342892981774639e-07,4.205006476354355982e-08,-1.509881664141232704e-09,-9.414993110112845898e-04,4.676863056829461129e-07,1.900763209050637670e-07,-2.174796350300312042e-02,1.087216901396459434e-06,-3.276563802501186728e-05,2.008589383706294029e-08,0.000000000000000000e+00,4.384358762763440609e-04,1.000000000000000000e+00
2.677334070205688477e+00,1.537635955810546875e+02,-1.299684047698974609e+01,-1.299684047698974609e+01,-1.708366870880126953e-01,1.797814483642578125e+02,2.181342892981774639e-07,-1.782675518313681096e-08,7.872914764561755874e-09,-1.202788771479390562e-04,-1.021727257466409355e-06,1.601063530642932164e-07,1.401315815746784210e-02,4.574681497615529224e-06,1.193933258036850020e-05,-6.965462095998020686e-10,0.000000000000000000e+00,4.384358762763440609e-04,1.000000000000000000e+00
2.677334070205688477e+00,1.537635955810546875e+02,-1.299684047698974609e+01,-1.299684047698974609e+01,-1.708366870880126953e-01,1.797814483642578125e+02,2.181342892981774639e-07,-1.782675518313681096e-08,7.872914764561755874e-09,-1.202788771479390562e-04,-1.021727257466409355e-06,1.601063530642932164e-07,1.401315815746784210e-02,4.574681497615529224e-06,1.193933258036850020e-05,-6.965462095998020686e-10,0.000000000000000000e+00,4.384358762763440609e-04,1.000000000000000000e+00
2.677334070205688477e+00,1.537635955810546875e+02,-1.299684047698974609e+01,-1.299684047698974609e+01,-1.708366870880126953e-01,1.797814483642578125e+02,2.181342892981774639e-07,-1.782675518313681096e-08,7.872914764561755874e-09,-1.202788771479390562e-04,-1.021727257466409355e-06,1.601063530642932164e-07,1.401315815746784210e-02,4.574681497615529224e-06,1.193933258036850020e-05,-6.965462095998020686e-10,0.000000000000000000e+00,4.384358762763440609e-04,1.000000000000000000e+00
2.677334070205688477e+00,1.537635955810546875e+02,-1.299684047698974609e+01,-1.299684047698974609e+01,-1.708366870880126953e-01,1.797814483642578125e+02,2.181342892981774639e-07,-3.063239972789233434e-08,1.446255915027450101e-08,9.913898975355550647e-05,-1.648282506039322470e-07,8.481880797717167297e-08,2.824243856593966484e-03,8.044505193538498133e-06,2.442812547087669373e-05,1.890474621291104995e-08,0.000000000000000000e+00,4.384358762763440609e-04,1.000000000000000000e+00
2.755024909973144531e+00,1.537635955810546875e+02,-1.299684047698974609e+01,-1.299684047698974609e+01,-1.708366870880126953e-01,1.797814483642578125e+02,2.181342892981774639e-07,-3.063239972789233434e-08,1.446255915027450101e-08,9.913898975355550647e-05,-1.648282506039322470e-07,8.481880797717167297e-08,2.824243856593966484e-03,8.044505193538498133e-06,2.442812547087669373e-05,1.890474621291104995e-08,0.000000000000000000e+00,4.384358762763440609e-04,1.000000000000000000e+00
2.755024909973144531e+00,1.537635955810546875e+02,-1.299684047698974609e+01,-1.299684047698974609e+01,-1.708366870880126953e-01,1.797814483642578125e+02,2.181342892981774639e-07,-3.063239972789233434e-08,1.446255915027450101e-08,9.913898975355550647e-05,-1.648282506039322470e-07,8.481880797717167297e-08,2.824243856593966484e-03,8.044505193538498133e-06,2.442812547087669373e-05,1.890474621291104995e-08,0.000000000000000000e+00,4.384358762763440609e-04,1.000000000000000000e+00
2.755024909973144531e+00,1.537635955810546875e+02,-1.299684047698974609e+01,-1.299684047698974609e+01,-1.708366870880126953e-01,1.797814483642578125e+02,2.181342892981774639e-07,-3.063239972789233434e-08,1.446255915027450101e-08,9.913898975355550647e-05,-1.648282506039322470e-07,8.481880797717167297e-08,2.824243856593966484e-03,8.044505193538498133e-06,2.442812547087669373e-05,1.890474621291104995e-08,0.000000000000000000e+00,4.384358762763440609e-04,1.000000000000000000e+00
2.830169916152954102e+00,1.537635955810546875e+02,-1.299684047698974609e+01,-1.299684047698974609e+01,-1.708366870880126953e-01,1.797814483642578125e+02,2.181342892981774639e-07,-1.908158253627334489e-08,1.449695830046948686e-08,-3.505733911879360676e-04,1.537136995466426015e-07,4.577702661379134952e-10,-5.984594114124774933e-03,1.132055149355437607e-05,1.678051739872898906e-05,3.894905731272046978e-08,0.000000000000000000e+00,4.384358762763440609e-04,1.000000000000000000e+00
2.830169916152954102e+00,1.537635955810546875e+02,-1.299684047698974609e+01,-1.299684047698974609e+01,-1.708366870880126953e-01,1.797814483642578125e+02,2.181342892981774639e-07,-1.908158253627334489e-08,1.449695830046948686e-08,-3.505733911879360676e-04,1.537136995466426015e-07,4.577702661379134952e-10,-5.984594114124774933e-03,1.132055149355437607e-05,1.678051739872898906e-05,3.894905731272046978e-08,0.000000000000000000e+00,4.384358762763440609e-04,1.000000000000000000e+00
2.830169916152954102e+00,1.537635955810546875e+02,-1.299684047698974609e+01,-1.299684047698974609e+01,-1.708366870880126953e-01,1.797814483642578125e+02,2.181342892981774639e-07,-1.908158253627334489e-08,1.449695830046948686e-08,-3.505733911879360676e-04,1.537136995466426015e-07,4.577702661379134952e-10,-5.984594114124774933e-03,1.132055149355437607e-05,1.678051739872898906e-05,3.894905731272046978e-08,0.000000000000000000e+00,4.384358762763440609e-04,1.000000000000000000e+00
2.830169916152954102e+00,1.537635955810546875e+02,-1.299684047698974609e+01,-1.299684047698974609e+01,-1.708366870880126953e-01,1.797814483642578125e+02,2.181342892981774639e-07,-1.908158253627334489e-08,1.449695830046948686e-08,-3.505733911879360676e-04,1.537136995466426015e-07,4.577702661379134952e-10,-5.984594114124774933e-03,1.132055149355437607e-05,1.678051739872898906e-05,3.894905731272046978e-08,0.000000000000000000e+00,4.384358762763440609e-04,1.000000000000000000e+00
2.830169916152954102e+00,1.537635955810546875e+02,-1.299684047698974609e+01,-1.299684047698974609e+01,-1.708366870880126953e-01,1.797814483642578125e+02,2.181342892981774639e-07,-1.908158253627334489e-08,1.449695830046948686e-08,-3.505733911879360676e-04,1.537136995466426015e-07,4.577702661379134952e-10,-5.984594114124774933e-03,1.132055149355437607e-05,1.678051739872898906e-05,3.894905731272046978e-08,0.000000000000000000e+00,4.384358762763440609e-04,1.000000000000000000e+00
2.917726278305053711e+00,1.537635955810546875e+02,-1.299684047698974609e+01,-1.299684047698974609e+01,-1.708366870880126953e-01,1.797814483642578125e+02,2.181342892981774639e-07,-3.576169760322045477e-08,1.334779486938941773e-08,4.282307636458426714e-04,-1.905071655983192613e-07,-1.312484165794103319e-08,8.894889615476131439e-03,5.185961072129430249e-06,2.705422048165928572e-05,4.212304727246873881e-09,0.000000000000000000e+00,4.384358762763440609e-04,1.000000000000000000e+00
