# Time,X,Y,Z,Roll,Pitch,Yaw,Vx,Vy,Vz,Ax,Ay,Az,Wx,Wy,Wz,Throttle,Steer,Brake
0.000000000000000000e+00,5.560108642578125000e+02,-1.379205989837646484e+01,-1.379205989837646484e+01,-5.761947110295295715e-02,-1.795824890136718750e+02,1.360119931632652879e-04,-1.628756332397460938e+01,-1.183041483163833618e-01,2.479202692029502941e-07,-8.322299718856811523e-01,-8.644958958029747009e-03,3.647023731900844723e-06,4.383735358715057373e-03,-1.333776563405990601e-01,1.487143523991107941e-02,1.000000000000000000e+00,-6.103515715949470177e-06,0.000000000000000000e+00
1.045818328857421875e-01,5.560108642578125000e+02,-1.379205989837646484e+01,-1.379205989837646484e+01,-5.761947110295295715e-02,-1.795824890136718750e+02,1.360119931632652879e-04,-1.628756332397460938e+01,-1.183041483163833618e-01,2.479202692029502941e-07,-8.322299718856811523e-01,-8.644958958029747009e-03,3.647023731900844723e-06,4.383735358715057373e-03,-1.333776563405990601e-01,1.487143523991107941e-02,1.000000000000000000e+00,-6.103515715949470177e-06,0.000000000000000000e+00
1.045818328857421875e-01,5.560108642578125000e+02,-1.379205989837646484e+01,-1.379205989837646484e+01,-5.761947110295295715e-02,-1.795824890136718750e+02,1.360119931632652879e-04,-1.628756332397460938e+01,-1.183041483163833618e-01,2.479202692029502941e-07,-8.322299718856811523e-01,-8.644958958029747009e-03,3.647023731900844723e-06,4.383735358715057373e-03,-1.333776563405990601e-01,1.487143523991107941e-02,1.000000000000000000e+00,-6.103515715949470177e-06,0.000000000000000000e+00
1.045818328857421875e-01,5.560108642578125000e+02,-1.379205989837646484e+01,-1.379205989837646484e+01,-5.761947110295295715e-02,-1.795824890136718750e+02,1.360119931632652879e-04,-1.628756332397460938e+01,-1.183041483163833618e-01,2.479202692029502941e-07,-8.322299718856811523e-01,-8.644958958029747009e-03,3.647023731900844723e-06,4.383735358715057373e-03,-1.333776563405990601e-01,1.487143523991107941e-02,1.000000000000000000e+00,-6.103515715949470177e-06,0.000000000000000000e+00
1.045818328857421875e-01,5.560108642578125000e+02,-1.379205989837646484e+01,-1.379205989837646484e+01,-5.761947110295295715e-02,-1.795824890136718750e+02,1.360119931632652879e-04,-1.628756332397460938e+01,-1.183041483163833618e-01,2.479202692029502941e-07,-8.322299718856811523e-01,-8.644958958029747009e-03,3.647023731900844723e-06,4.383735358715057373e-03,-1.333776563405990601e-01,1.487143523991107941e-02,1.000000000000000000e+00,-6.103515715949470177e-06,0.000000000000000000e+00
1.045818328857421875e-01,5.560108642578125000e+02,-1.379205989837646484e+01,-1.379205989837646484e+01,-5.761947110295295715e-02,-1.795824890136718750e+02,1.360119931632652879e-04,-1.628756332397460938e+01,-1.183041483163833618e-01,2.479202692029502941e-07,-8.322299718856811523e-01,-8.644958958029747009e-03,3.647023731900844723e-06,4.383735358715057373e-03,-1.333776563405990601e-01,1.487143523991107941e-02,1.000000000000000000e+00,-6.103515715949470177e-06,0.000000000000000000e+00
1.045818328857421875e-01,5.543760375976562500e+02,-1.380393409729003906e+01,-1.380393409729003906e+01,-6.918298453092575073e-02,-1.795795898437500000e+02,5.009296000935137272e-04,-1.639228057861328125e+01,-1.196198463439941406e-01,-1.945171334227779880e-06,-1.000079631805419922e+00,-1.256529148668050766e-02,-2.094465162372216582e-05,4.202340729534626007e-03,-1.004945784807205200e-01,3.737140446901321411e-02,1.000000000000000000e+00,1.373290979245211929e-05,0.000000000000000000e+00
2.092907428741455078e-01,5.543760375976562500e+02,-1.380393409729003906e+01,-1.380393409729003906e+01,-6.918298453092575073e-02,-1.795795898437500000e+02,5.009296000935137272e-04,-1.639228057861328125e+01,-1.196198463439941406e-01,-1.945171334227779880e-06,-1.000079631805419922e+00,-1.256529148668050766e-02,-2.094465162372216582e-05,4.202340729534626007e-03,-1.004945784807205200e-01,3.737140446901321411e-02,1.000000000000000000e+00,1.373290979245211929e-05,0.000000000000000000e+00
2.092907428741455078e-01,5.543760375976562500e+02,-1.380393409729003906e+01,-1.380393409729003906e+01,-6.918298453092575073e-02,-1.795795898437500000e+02,5.009296000935137272e-04,-1.639228057861328125e+01,-1.196198463439941406e-01,-1.945171334227779880e-06,-1.000079631805419922e+00,-1.256529148668050766e-02,-2.094465162372216582e-05,4.202340729534626007e-03,-1.004945784807205200e-01,3.737140446901321411e-02,1.000000000000000000e+00,1.373290979245211929e-05,0.000000000000000000e+00
2.092907428741455078e-01,5.543760375976562500e+02,-1.380393409729003906e+01,-1.380393409729003906e+01,-6.918298453092575073e-02,-1.795795898437500000e+02,5.009296000935137272e-04,-1.639228057861328125e+01,-1.196198463439941406e-01,-1.945171334227779880e-06,-1.000079631805419922e+00,-1.256529148668050766e-02,-2.094465162372216582e-05,4.202340729534626007e-03,-1.004945784807205200e-01,3.737140446901321411e-02,1.000000000000000000e+00,1.373290979245211929e-05,0.000000000000000000e+00
2.092907428741455078e-01,5.543760375976562500e+02,-1.380393409729003906e+01,-1.380393409729003906e+01,-6.918298453092575073e-02,-1.795795898437500000e+02,5.009296000935137272e-04,-1.639228057861328125e+01,-1.196198463439941406e-01,-1.945171334227779880e-06,-1.000079631805419922e+00,-1.256529148668050766e-02,-2.094465162372216582e-05,4.202340729534626007e-03,-1.004945784807205200e-01,3.737140446901321411e-02,1.000000000000000000e+00,1.373290979245211929e-05,0.000000000000000000e+00
2.092907428741455078e-01,5.527306518554687500e+02,-1.381592941284179688e+01,-1.381592941284179688e+01,-7.726992666721343994e-02,-1.795754241943359375e+02,7.698082481510937214e-04,-1.649831962585449219e+01,-1.209836229681968689e-01,2.135874410669202916e-06,-1.421081066131591797e+00,-1.827663555741310120e-02,5.469208554131910205e-05,3.445712616667151451e-03,-6.744697690010070801e-02,4.505739733576774597e-02,1.000000000000000000e+00,-2.681187288544606417e-05,0.000000000000000000e+00
2.839093208312988281e-01,5.527306518554687500e+02,-1.381592941284179688e+01,-1.381592941284179688e+01,-7.726992666721343994e-02,-1.795754241943359375e+02,7.698082481510937214e-04,-1.649831962585449219e+01,-1.209836229681968689e-01,2.135874410669202916e-06,-1.421081066131591797e+00,-1.827663555741310120e-02,5.469208554131910205e-05,3.445712616667151451e-03,-6.744697690010070801e-02,4.505739733576774597e-02,1.000000000000000000e+00,-2.681187288544606417e-05,0.000000000000000000e+00
2.839093208312988281e-01,5.527306518554687500e+02,-1.381592941284179688e+01,-1.381592941284179688e+01,-7.726992666721343994e-02,-1.795754241943359375e+02,7.698082481510937214e-04,-1.649831962585449219e+01,-1.209836229681968689e-01,2.135874410669202916e-06,-1.421081066131591797e+00,-1.827663555741310120e-02,5.469208554131910205e-05,3.445712616667151451e-03,-6.744697690010070801e-02,4.505739733576774597e-02,1.000000000000000000e+00,-2.681187288544606417e-05,0.000000000000000000e+00
2.839093208312988281e-01,5.527306518554687500e+02,-1.381592941284179688e+01,-1.381592941284179688e+01,-7.726992666721343994e-02,-1.795754241943359375e+02,7.698082481510937214e-04,-1.649831962585449219e+01,-1.209836229681968689e-01,2.135874410669202916e-06,-1.421081066131591797e+00,-1.827663555741310120e-02,5.469208554131910205e-05,3.445712616667151451e-03,-6.744697690010070801e-02,4.505739733576774597e-02,1.000000000000000000e+00,-2.681187288544606417e-05,0.000000000000000000e+00
2.839093208312988281e-01,5.527306518554687500e+02,-1.381592941284179688e+01,-1.381592941284179688e+01,-7.726992666721343994e-02,-1.795754241943359375e+02,7.698082481510937214e-04,-1.649831962585449219e+01,-1.209836229681968689e-01,2.135874410669202916e-06,-1.421081066131591797e+00,-1.827663555741310120e-02,5.469208554131910205e-05,3.445712616667151451e-03,-6.744697690010070801e-02,4.505739733576774597e-02,1.000000000000000000e+00,-2.681187288544606417e-05,0.000000000000000000e+00
3.569011688232421875e-01,5.514960937500000000e+02,-1.382484054565429688e+01,-1.382484054565429688e+01,-8.133389055728912354e-02,-1.795754547119140625e+02,-9.155271982308477163e-05,-1.657792854309082031e+01,-1.185053586959838867e-01,6.007251158735016361e-07,-1.090654850006103516e+00,3.395261615514755249e-02,-2.103179031109903008e-05,-1.043499726802110672e-02,-4.707357287406921387e-02,-2.750969864428043365e-02,1.000000000000000000e+00,-6.890433141961693764e-04,0.000000000000000000e+00
3.569011688232421875e-01,5.514960937500000000e+02,-1.382484054565429688e+01,-1.382484054565429688e+01,-8.133389055728912354e-02,-1.795754547119140625e+02,-9.155271982308477163e-05,-1.657792854309082031e+01,-1.185053586959838867e-01,6.007251158735016361e-07,-1.090654850006103516e+00,3.395261615514755249e-02,-2.103179031109903008e-05,-1.043499726802110672e-02,-4.707357287406921387e-02,-2.750969864428043365e-02,1.000000000000000000e+00,-6.890433141961693764e-04,0.000000000000000000e+00
3.569011688232421875e-01,5.514960937500000000e+02,-1.382484054565429688e+01,-1.382484054565429688e+01,-8.133389055728912354e-02,-1.795754547119140625e+02,-9.155271982308477163e-05,-1.657792854309082031e+01,-1.185053586959838867e-01,6.007251158735016361e-07,-1.090654850006103516e+00,3.395261615514755249e-02,-2.103179031109903008e-05,-1.043499726802110672e-02,-4.707357287406921387e-02,-2.750969864428043365e-02,1.000000000000000000e+00,-6.890433141961693764e-04,0.000000000000000000e+00
3.569011688232421875e-01,5.514960937500000000e+02,-1.382484054565429688e+01,-1.382484054565429688e+01,-8.133389055728912354e-02,-1.795754547119140625e+02,-9.155271982308477163e-05,-1.657792854309082031e+01,-1.185053586959838867e-01,6.007251158735016361e-07,-1.090654850006103516e+00,3.395261615514755249e-02,-2.103179031109903008e-05,-1.043499726802110672e-02,-4.707357287406921387e-02,-2.750969864428043365e-02,1.000000000000000000e+00,-6.890433141961693764e-04,0.000000000000000000e+00
4.765405654907226562e-01,5.502826538085937500e+02,-1.383307361602783203e+01,-1.383307361602783203e+01,-8.407279103994369507e-02,-1.795900878906250000e+02,-3.753661876544356346e-03,-1.665600776672363281e+01,-1.060254722833633423e-01,-3.242019204208190786e-07,-6.526213288307189941e-01,1.043125167489051819e-01,-7.730956895102281123e-06,-4.707172885537147522e-02,-3.220216557383537292e-02,-3.010709583759307861e-01,1.000000000000000000e+00,-2.687726635485887527e-03,0.000000000000000000e+00
4.765405654907226562e-01,5.502826538085937500e+02,-1.383307361602783203e+01,-1.383307361602783203e+01,-8.407279103994369507e-02,-1.795900878906250000e+02,-3.753661876544356346e-03,-1.665600776672363281e+01,-1.060254722833633423e-01,-3.242019204208190786e-07,-6.526213288307189941e-01,1.043125167489051819e-01,-7.730956895102281123e-06,-4.707172885537147522e-02,-3.220216557383537292e-02,-3.010709583759307861e-01,1.000000000000000000e+00,-2.687726635485887527e-03,0.000000000000000000e+00
4.765405654907226562e-01,5.502826538085937500e+02,-1.383307361602783203e+01,-1.383307361602783203e+01,-8.407279103994369507e-02,-1.795900878906250000e+02,-3.753661876544356346e-03,-1.665600776672363281e+01,-1.060254722833633423e-01,-3.242019204208190786e-07,-6.526213288307189941e-01,1.043125167489051819e-01,-7.730956895102281123e-06,-4.707172885537147522e-02,-3.220216557383537292e-02,-3.010709583759307861e-01,1.000000000000000000e+00,-2.687726635485887527e-03,0.000000000000000000e+00
4.765405654907226562e-01,5.502826538085937500e+02,-1.383307361602783203e+01,-1.383307361602783203e+01,-8.407279103994369507e-02,-1.795900878906250000e+02,-3.753661876544356346e-03,-1.665600776672363281e+01,-1.060254722833633423e-01,-3.242019204208190786e-07,-6.526213288307189941e-01,1.043125167489051819e-01,-7.730956895102281123e-06,-4.707172885537147522e-02,-3.220216557383537292e-02,-3.010709583759307861e-01,1.000000000000000000e+00,-2.687726635485887527e-03,0.000000000000000000e+00
4.765405654907226562e-01,5.502826538085937500e+02,-1.383307361602783203e+01,-1.383307361602783203e+01,-8.407279103994369507e-02,-1.795900878906250000e+02,-3.753661876544356346e-03,-1.665600776672363281e+01,-1.060254722833633423e-01,-3.242019204208190786e-07,-6.526213288307189941e-01,1.043125167489051819e-01,-7.730956895102281123e-06,-4.707172885537147522e-02,-3.220216557383537292e-02,-3.010709583759307861e-01,1.000000000000000000e+00,-2.687726635485887527e-03,0.000000000000000000e+00
4.765405654907226562e-01,5.502826538085937500e+02,-1.383307361602783203e+01,-1.383307361602783203e+01,-8.407279103994369507e-02,-1.795900878906250000e+02,-3.753661876544356346e-03,-1.665600776672363281e+01,-1.060254722833633423e-01,-3.242019204208190786e-07,-6.526213288307189941e-01,1.043125167489051819e-01,-7.730956895102281123e-06,-4.707172885537147522e-02,-3.220216557383537292e-02,-3.010709583759307861e-01,1.000000000000000000e+00,-2.687726635485887527e-03,0.000000000000000000e+00
4.765405654907226562e-01,5.502826538085937500e+02,-1.383307361602783203e+01,-1.383307361602783203e+01,-8.407279103994369507e-02,-1.795900878906250000e+02,-3.753661876544356346e-03,-1.665600776672363281e+01,-1.060254722833633423e-01,-3.242019204208190786e-07,-6.526213288307189941e-01,1.043125167489051819e-01,-7.730956895102281123e-06,-4.707172885537147522e-02,-3.220216557383537292e-02,-3.010709583759307861e-01,1.000000000000000000e+00,-2.687726635485887527e-03,0.000000000000000000e+00
6.200885772705078125e-01,5.486107788085937500e+02,-1.384304046630859375e+01,-1.384304046630859375e+01,-8.639505505561828613e-02,-1.796440124511718750e+02,-9.063717909157276154e-03,-1.676304244995117188e+01,-8.630201220512390137e-02,7.818825906724669039e-07,-7.456368207931518555e-01,1.373997479677200317e-01,7.705328243901021779e-06,-4.149363934993743896e-02,-1.763580739498138428e-02,-6.813263297080993652e-01,1.000000000000000000e+00,-3.655787790194153786e-03,0.000000000000000000e+00
6.200885772705078125e-01,5.486107788085937500e+02,-1.384304046630859375e+01,-1.384304046630859375e+01,-8.639505505561828613e-02,-1.796440124511718750e+02,-9.063717909157276154e-03,-1.676304244995117188e+01,-8.630201220512390137e-02,7.818825906724669039e-07,-7.456368207931518555e-01,1.373997479677200317e-01,7.705328243901021779e-06,-4.149363934993743896e-02,-1.763580739498138428e-02,-6.813263297080993652e-01,1.000000000000000000e+00,-3.655787790194153786e-03,0.000000000000000000e+00
6.200885772705078125e-01,5.486107788085937500e+02,-1.384304046630859375e+01,-1.384304046630859375e+01,-8.639505505561828613e-02,-1.796440124511718750e+02,-9.063717909157276154e-03,-1.676304244995117188e+01,-8.630201220512390137e-02,7.818825906724669039e-07,-7.456368207931518555e-01,1.373997479677200317e-01,7.705328243901021779e-06,-4.149363934993743896e-02,-1.763580739498138428e-02,-6.813263297080993652e-01,1.000000000000000000e+00,-3.655787790194153786e-03,0.000000000000000000e+00
6.200885772705078125e-01,5.486107788085937500e+02,-1.384304046630859375e+01,-1.384304046630859375e+01,-8.639505505561828613e-02,-1.796440124511718750e+02,-9.063717909157276154e-03,-1.676304244995117188e+01,-8.630201220512390137e-02,7.818825906724669039e-07,-7.456368207931518555e-01,1.373997479677200317e-01,7.705328243901021779e-06,-4.149363934993743896e-02,-1.763580739498138428e-02,-6.813263297080993652e-01,1.000000000000000000e+00,-3.655787790194153786e-03,0.000000000000000000e+00
6.200885772705078125e-01,5.486107788085937500e+02,-1.384304046630859375e+01,-1.384304046630859375e+01,-8.639505505561828613e-02,-1.796440124511718750e+02,-9.063717909157276154e-03,-1.676304244995117188e+01,-8.630201220512390137e-02,7.818825906724669039e-07,-7.456368207931518555e-01,1.373997479677200317e-01,7.705328243901021779e-06,-4.149363934993743896e-02,-1.763580739498138428e-02,-6.813263297080993652e-01,1.000000000000000000e+00,-3.655787790194153786e-03,0.000000000000000000e+00
6.200885772705078125e-01,5.486107788085937500e+02,-1.384304046630859375e+01,-1.384304046630859375e+01,-8.639505505561828613e-02,-1.796440124511718750e+02,-9.063717909157276154e-03,-1.676304244995117188e+01,-8.630201220512390137e-02,7.818825906724669039e-07,-7.456368207931518555e-01,1.373997479677200317e-01,7.705328243901021779e-06,-4.149363934993743896e-02,-1.763580739498138428e-02,-6.813263297080993652e-01,1.000000000000000000e+00,-3.655787790194153786e-03,0.000000000000000000e+00
7.946169376373291016e-01,5.469282226562500000e+02,-1.385101890563964844e+01,-1.385101890563964844e+01,-8.752203732728958130e-02,-1.797351684570312500e+02,-1.473999116569757462e-02,-1.686994934082031250e+01,-5.951562151312828064e-02,1.029796635521051940e-06,-6.125473976135253906e-01,1.534787267446517944e-01,1.420479975422495045e-06,-5.171236023306846619e-02,-8.137513883411884308e-03,-1.049925446510314941e+00,1.000000000000000000e+00,-4.636927973479032516e-03,0.000000000000000000e+00
7.946169376373291016e-01,5.469282226562500000e+02,-1.385101890563964844e+01,-1.385101890563964844e+01,-8.752203732728958130e-02,-1.797351684570312500e+02,-1.473999116569757462e-02,-1.686994934082031250e+01,-5.951562151312828064e-02,1.029796635521051940e-06,-6.125473976135253906e-01,1.534787267446517944e-01,1.420479975422495045e-06,-5.171236023306846619e-02,-8.137513883411884308e-03,-1.049925446510314941e+00,1.000000000000000000e+00,-4.636927973479032516e-03,0.000000000000000000e+00
7.946169376373291016e-01,5.469282226562500000e+02,-1.385101890563964844e+01,-1.385101890563964844e+01,-8.752203732728958130e-02,-1.797351684570312500e+02,-1.473999116569757462e-02,-1.686994934082031250e+01,-5.951562151312828064e-02,1.029796635521051940e-06,-6.125473976135253906e-01,1.534787267446517944e-01,1.420479975422495045e-06,-5.171236023306846619e-02,-8.137513883411884308e-03,-1.049925446510314941e+00,1.000000000000000000e+00,-4.636927973479032516e-03,0.000000000000000000e+00
7.946169376373291016e-01,5.469282226562500000e+02,-1.385101890563964844e+01,-1.385101890563964844e+01,-8.752203732728958130e-02,-1.797351684570312500e+02,-1.473999116569757462e-02,-1.686994934082031250e+01,-5.951562151312828064e-02,1.029796635521051940e-06,-6.125473976135253906e-01,1.534787267446517944e-01,1.420479975422495045e-06,-5.171236023306846619e-02,-8.137513883411884308e-03,-1.049925446510314941e+00,1.000000000000000000e+00,-4.636927973479032516e-03,0.000000000000000000e+00
8.783230781555175781e-01,5.452349853515625000e+02,-1.385674190521240234e+01,-1.385674190521240234e+01,-8.798649162054061890e-02,-1.798472442626953125e+02,-1.803588680922985077e-02,-1.697662734985351562e+01,-3.556802496314048767e-02,1.582835466251708567e-06,-1.274434685707092285e+00,2.860912680625915527e-01,6.606908755202312022e-06,-3.560232743620872498e-02,-2.652295166626572609e-03,-1.163973927497863770e+00,1.000000000000000000e+00,-3.901018528267741203e-03,0.000000000000000000e+00
8.783230781555175781e-01,5.452349853515625000e+02,-1.385674190521240234e+01,-1.385674190521240234e+01,-8.798649162054061890e-02,-1.798472442626953125e+02,-1.803588680922985077e-02,-1.697662734985351562e+01,-3.556802496314048767e-02,1.582835466251708567e-06,-1.274434685707092285e+00,2.860912680625915527e-01,6.606908755202312022e-06,-3.560232743620872498e-02,-2.652295166626572609e-03,-1.163973927497863770e+00,1.000000000000000000e+00,-3.901018528267741203e-03,0.000000000000000000e+00
9.483780860900878906e-01,5.438095703125000000e+02,-1.385999202728271484e+01,-1.385999202728271484e+01,-8.807528764009475708e-02,-1.799354095458984375e+02,-1.788330264389514923e-02,-1.706568527221679688e+01,-2.236981503665447235e-02,-9.535412459626968484e-07,-1.271257042884826660e+00,1.883978098630905151e-01,-3.620550342020578682e-05,-4.106254316866397858e-03,-1.774443080648779869e-04,-9.859602451324462891e-01,1.000000000000000000e+00,-2.002607099711894989e-03,0.000000000000000000e+00
9.483780860900878906e-01,5.438095703125000000e+02,-1.385999202728271484e+01,-1.385999202728271484e+01,-8.807528764009475708e-02,-1.799354095458984375e+02,-1.788330264389514923e-02,-1.706568527221679688e+01,-2.236981503665447235e-02,-9.535412459626968484e-07,-1.271257042884826660e+00,1.883978098630905151e-01,-3.620550342020578682e-05,-4.106254316866397858e-03,-1.774443080648779869e-04,-9.859602451324462891e-01,1.000000000000000000e+00,-2.002607099711894989e-03,0.000000000000000000e+00
9.483780860900878906e-01,5.438095703125000000e+02,-1.385999202728271484e+01,-1.385999202728271484e+01,-8.807528764009475708e-02,-1.799354095458984375e+02,-1.788330264389514923e-02,-1.706568527221679688e+01,-2.236981503665447235e-02,-9.535412459626968484e-07,-1.271257042884826660e+00,1.883978098630905151e-01,-3.620550342020578682e-05,-4.106254316866397858e-03,-1.774443080648779869e-04,-9.859602451324462891e-01,1.000000000000000000e+00,-2.002607099711894989e-03,0.000000000000000000e+00
9.483780860900878906e-01,5.438095703125000000e+02,-1.385999202728271484e+01,-1.385999202728271484e+01,-8.807528764009475708e-02,-1.799354095458984375e+02,-1.788330264389514923e-02,-1.706568527221679688e+01,-2.236981503665447235e-02,-9.535412459626968484e-07,-1.271257042884826660e+00,1.883978098630905151e-01,-3.620550342020578682e-05,-4.106254316866397858e-03,-1.774443080648779869e-04,-9.859602451324462891e-01,1.000000000000000000e+00,-2.002607099711894989e-03,0.000000000000000000e+00
9.483780860900878906e-01,5.426109619140625000e+02,-1.386190032958984375e+01,-1.386190032958984375e+01,-8.801381289958953857e-02,-1.799907989501953125e+02,-1.593017391860485077e-02,-1.714001464843750000e+01,-1.701945625245571136e-02,2.097789462141008698e-07,-9.432780146598815918e-01,6.789880245923995972e-02,1.476313263992778957e-05,2.380190975964069366e-02,9.187906398437917233e-04,-6.757079362869262695e-01,1.000000000000000000e+00,-6.234305328689515591e-05,0.000000000000000000e+00
1.027177095413208008e+00,5.426109619140625000e+02,-1.386190032958984375e+01,-1.386190032958984375e+01,-8.801381289958953857e-02,-1.799907989501953125e+02,-1.593017391860485077e-02,-1.714001464843750000e+01,-1.701945625245571136e-02,2.097789462141008698e-07,-9.432780146598815918e-01,6.789880245923995972e-02,1.476313263992778957e-05,2.380190975964069366e-02,9.187906398437917233e-04,-6.757079362869262695e-01,1.000000000000000000e+00,-6.234305328689515591e-05,0.000000000000000000e+00
1.027177095413208008e+00,5.426109619140625000e+02,-1.386190032958984375e+01,-1.386190032958984375e+01,-8.801381289958953857e-02,-1.799907989501953125e+02,-1.593017391860485077e-02,-1.714001464843750000e+01,-1.701945625245571136e-02,2.097789462141008698e-07,-9.432780146598815918e-01,6.789880245923995972e-02,1.476313263992778957e-05,2.380190975964069366e-02,9.187906398437917233e-04,-6.757079362869262695e-01,1.000000000000000000e+00,-6.234305328689515591e-05,0.000000000000000000e+00
1.095043420791625977e+00,5.412564086914062500e+02,-1.386338424682617188e+01,-1.386338424682617188e+01,-8.791819214820861816e-02,1.799739990234375000e+02,-1.324462704360485077e-02,-1.722339248657226562e+01,-1.259216200560331345e-02,-5.530439466383541003e-07,-1.228559732437133789e+00,6.523551046848297119e-02,-1.124007940234150738e-05,2.675795368850231171e-02,1.578685594722628593e-03,-3.125607371330261230e-01,1.000000000000000000e+00,9.730747551657259464e-04,0.000000000000000000e+00
1.095043420791625977e+00,5.412564086914062500e+02,-1.386338424682617188e+01,-1.386338424682617188e+01,-8.791819214820861816e-02,1.799739990234375000e+02,-1.324462704360485077e-02,-1.722339248657226562e+01,-1.259216200560331345e-02,-5.530439466383541003e-07,-1.228559732437133789e+00,6.523551046848297119e-02,-1.124007940234150738e-05,2.675795368850231171e-02,1.578685594722628593e-03,-3.125607371330261230e-01,1.000000000000000000e+00,9.730747551657259464e-04,0.000000000000000000e+00
1.095043420791625977e+00,5.412564086914062500e+02,-1.386338424682617188e+01,-1.386338424682617188e+01,-8.791819214820861816e-02,1.799739990234375000e+02,-1.324462704360485077e-02,-1.722339248657226562e+01,-1.259216200560331345e-02,-5.530439466383541003e-07,-1.228559732437133789e+00,6.523551046848297119e-02,-1.124007940234150738e-05,2.675795368850231171e-02,1.578685594722628593e-03,-3.125607371330261230e-01,1.000000000000000000e+00,9.730747551657259464e-04,0.000000000000000000e+00
1.095043420791625977e+00,5.412564086914062500e+02,-1.386338424682617188e+01,-1.386338424682617188e+01,-8.791819214820861816e-02,1.799739990234375000e+02,-1.324462704360485077e-02,-1.722339248657226562e+01,-1.259216200560331345e-02,-5.530439466383541003e-07,-1.228559732437133789e+00,6.523551046848297119e-02,-1.124007940234150738e-05,2.675795368850231171e-02,1.578685594722628593e-03,-3.125607371330261230e-01,1.000000000000000000e+00,9.730747551657259464e-04,0.000000000000000000e+00
1.168572425842285156e+00,5.400845336914062500e+02,-1.386435413360595703e+01,-1.386435413360595703e+01,-8.779525011777877808e-02,1.799675445556640625e+02,-1.004028040915727615e-02,-1.729498672485351562e+01,-1.405218057334423065e-02,1.334962860255473061e-07,-9.736869931221008301e-01,-1.985636167228221893e-02,9.336999028164427727e-06,4.723190888762474060e-02,1.812220551073551178e-03,3.332089632749557495e-02,1.000000000000000000e+00,2.222551731392741203e-03,0.000000000000000000e+00
1.168572425842285156e+00,5.400845336914062500e+02,-1.386435413360595703e+01,-1.386435413360595703e+01,-8.779525011777877808e-02,1.799675445556640625e+02,-1.004028040915727615e-02,-1.729498672485351562e+01,-1.405218057334423065e-02,1.334962860255473061e-07,-9.736869931221008301e-01,-1.985636167228221893e-02,9.336999028164427727e-06,4.723190888762474060e-02,1.812220551073551178e-03,3.332089632749557495e-02,1.000000000000000000e+00,2.222551731392741203e-03,0.000000000000000000e+00
1.168572425842285156e+00,5.400845336914062500e+02,-1.386435413360595703e+01,-1.386435413360595703e+01,-8.779525011777877808e-02,1.799675445556640625e+02,-1.004028040915727615e-02,-1.729498672485351562e+01,-1.405218057334423065e-02,1.334962860255473061e-07,-9.736869931221008301e-01,-1.985636167228221893e-02,9.336999028164427727e-06,4.723190888762474060e-02,1.812220551073551178e-03,3.332089632749557495e-02,1.000000000000000000e+00,2.222551731392741203e-03,0.000000000000000000e+00
1.168572425842285156e+00,5.400845336914062500e+02,-1.386435413360595703e+01,-1.386435413360595703e+01,-8.779525011777877808e-02,1.799675445556640625e+02,-1.004028040915727615e-02,-1.729498672485351562e+01,-1.405218057334423065e-02,1.334962860255473061e-07,-9.736869931221008301e-01,-1.985636167228221893e-02,9.336999028164427727e-06,4.723190888762474060e-02,1.812220551073551178e-03,3.332089632749557495e-02,1.000000000000000000e+00,2.222551731392741203e-03,0.000000000000000000e+00
1.168572425842285156e+00,5.388093872070312500e+02,-1.386537361145019531e+01,-1.386537361145019531e+01,-8.764497935771942139e-02,1.799846343994140625e+02,-6.164549849927425385e-03,-1.737233543395996094e+01,-1.807355880737304688e-02,4.767670418459601933e-07,-1.030650377273559570e+00,-5.358376353979110718e-02,4.573988917400129139e-06,5.049567669630050659e-02,1.967144664376974106e-03,3.495351970195770264e-01,1.000000000000000000e+00,2.692522248253226280e-03,0.000000000000000000e+00
1.243620872497558594e+00,5.388093872070312500e+02,-1.386537361145019531e+01,-1.386537361145019531e+01,-8.764497935771942139e-02,1.799846343994140625e+02,-6.164549849927425385e-03,-1.737233543395996094e+01,-1.807355880737304688e-02,4.767670418459601933e-07,-1.030650377273559570e+00,-5.358376353979110718e-02,4.573988917400129139e-06,5.049567669630050659e-02,1.967144664376974106e-03,3.495351970195770264e-01,1.000000000000000000e+00,2.692522248253226280e-03,0.000000000000000000e+00
1.243620872497558594e+00,5.388093872070312500e+02,-1.386537361145019531e+01,-1.386537361145019531e+01,-8.764497935771942139e-02,1.799846343994140625e+02,-6.164549849927425385e-03,-1.737233543395996094e+01,-1.807355880737304688e-02,4.767670418459601933e-07,-1.030650377273559570e+00,-5.358376353979110718e-02,4.573988917400129139e-06,5.049567669630050659e-02,1.967144664376974106e-03,3.495351970195770264e-01,1.000000000000000000e+00,2.692522248253226280e-03,0.000000000000000000e+00
1.243620872497558594e+00,5.388093872070312500e+02,-1.386537361145019531e+01,-1.386537361145019531e+01,-8.764497935771942139e-02,1.799846343994140625e+02,-6.164549849927425385e-03,-1.737233543395996094e+01,-1.807355880737304688e-02,4.767670418459601933e-07,-1.030650377273559570e+00,-5.358376353979110718e-02,4.573988917400129139e-06,5.049567669630050659e-02,1.967144664376974106e-03,3.495351970195770264e-01,1.000000000000000000e+00,2.692522248253226280e-03,0.000000000000000000e+00
1.312042951583862305e+00,5.375021362304687500e+02,-1.386668872833251953e+01,-1.386668872833251953e+01,-8.749471604824066162e-02,-1.799764404296875000e+02,-1.800536992959678173e-03,-1.745103645324707031e+01,-2.641542069613933563e-02,6.197952302500198130e-07,-1.150228381156921387e+00,-1.219176948070526123e-01,2.090380576191819273e-06,5.797342956066131592e-02,2.005183137953281403e-03,6.171801686286926270e-01,1.000000000000000000e+00,3.081839531660079956e-03,0.000000000000000000e+00
1.312042951583862305e+00,5.375021362304687500e+02,-1.386668872833251953e+01,-1.386668872833251953e+01,-8.749471604824066162e-02,-1.799764404296875000e+02,-1.800536992959678173e-03,-1.745103645324707031e+01,-2.641542069613933563e-02,6.197952302500198130e-07,-1.150228381156921387e+00,-1.219176948070526123e-01,2.090380576191819273e-06,5.797342956066131592e-02,2.005183137953281403e-03,6.171801686286926270e-01,1.000000000000000000e+00,3.081839531660079956e-03,0.000000000000000000e+00
1.312042951583862305e+00,5.363051147460937500e+02,-1.386828422546386719e+01,-1.386828422546386719e+01,-8.737177401781082153e-02,-1.799297332763671875e+02,1.191881252452731133e-03,-1.752258110046386719e+01,-3.330472856760025024e-02,1.849874934123363346e-06,-1.006446242332458496e+00,-9.691455960273742676e-02,1.730400799715425819e-05,4.474228620529174805e-02,2.024933230131864548e-03,7.220964431762695312e-01,1.000000000000000000e+00,2.472141757607460022e-03,0.000000000000000000e+00
1.383129358291625977e+00,5.363051147460937500e+02,-1.386828422546386719e+01,-1.386828422546386719e+01,-8.737177401781082153e-02,-1.799297332763671875e+02,1.191881252452731133e-03,-1.752258110046386719e+01,-3.330472856760025024e-02,1.849874934123363346e-06,-1.006446242332458496e+00,-9.691455960273742676e-02,1.730400799715425819e-05,4.474228620529174805e-02,2.024933230131864548e-03,7.220964431762695312e-01,1.000000000000000000e+00,2.472141757607460022e-03,0.000000000000000000e+00
1.383129358291625977e+00,5.363051147460937500e+02,-1.386828422546386719e+01,-1.386828422546386719e+01,-8.737177401781082153e-02,-1.799297332763671875e+02,1.191881252452731133e-03,-1.752258110046386719e+01,-3.330472856760025024e-02,1.849874934123363346e-06,-1.006446242332458496e+00,-9.691455960273742676e-02,1.730400799715425819e-05,4.474228620529174805e-02,2.024933230131864548e-03,7.220964431762695312e-01,1.000000000000000000e+00,2.472141757607460022e-03,0.000000000000000000e+00
1.450951814651489258e+00,5.350563354492187500e+02,-1.387053298950195312e+01,-1.387053298950195312e+01,-8.725566416978836060e-02,-1.798755187988281250e+02,4.538909997791051865e-03,-1.759667778015136719e+01,-4.382036998867988586e-02,7.056186177578638308e-07,-1.092509508132934570e+00,-1.550465971231460571e-01,-1.687134863459505141e-05,4.934339970350265503e-02,2.079076599329710007e-03,7.868139743804931641e-01,1.000000000000000000e+00,2.348327543586492538e-03,0.000000000000000000e+00
1.450951814651489258e+00,5.350563354492187500e+02,-1.387053298950195312e+01,-1.387053298950195312e+01,-8.725566416978836060e-02,-1.798755187988281250e+02,4.538909997791051865e-03,-1.759667778015136719e+01,-4.382036998867988586e-02,7.056186177578638308e-07,-1.092509508132934570e+00,-1.550465971231460571e-01,-1.687134863459505141e-05,4.934339970350265503e-02,2.079076599329710007e-03,7.868139743804931641e-01,1.000000000000000000e+00,2.348327543586492538e-03,0.000000000000000000e+00
1.450951814651489258e+00,5.350563354492187500e+02,-1.387053298950195312e+01,-1.387053298950195312e+01,-8.725566416978836060e-02,-1.798755187988281250e+02,4.538909997791051865e-03,-1.759667778015136719e+01,-4.382036998867988586e-02,7.056186177578638308e-07,-1.092509508132934570e+00,-1.550465971231460571e-01,-1.687134863459505141e-05,4.934339970350265503e-02,2.079076599329710007e-03,7.868139743804931641e-01,1.000000000000000000e+00,2.348327543586492538e-03,0.000000000000000000e+00
1.527701377868652344e+00,5.338599853515625000e+02,-1.387322139739990234e+01,-1.387322139739990234e+01,-8.709856867790222168e-02,-1.798265838623046875e+02,5.946223158389329910e-03,-1.766718292236328125e+01,-4.946675151586532593e-02,6.960877954043098725e-07,-9.186390042304992676e-01,-7.356891036033630371e-02,-1.241808007534928038e-07,2.074885927140712738e-02,2.051839372143149376e-03,6.831002831459045410e-01,1.000000000000000000e+00,9.541102917864918709e-04,0.000000000000000000e+00
1.527701377868652344e+00,5.338599853515625000e+02,-1.387322139739990234e+01,-1.387322139739990234e+01,-8.709856867790222168e-02,-1.798265838623046875e+02,5.946223158389329910e-03,-1.766718292236328125e+01,-4.946675151586532593e-02,6.960877954043098725e-07,-9.186390042304992676e-01,-7.356891036033630371e-02,-1.241808007534928038e-07,2.074885927140712738e-02,2.051839372143149376e-03,6.831002831459045410e-01,1.000000000000000000e+00,9.541102917864918709e-04,0.000000000000000000e+00
1.527701377868652344e+00,5.338599853515625000e+02,-1.387322139739990234e+01,-1.387322139739990234e+01,-8.709856867790222168e-02,-1.798265838623046875e+02,5.946223158389329910e-03,-1.766718292236328125e+01,-4.946675151586532593e-02,6.960877954043098725e-07,-9.186390042304992676e-01,-7.356891036033630371e-02,-1.241808007534928038e-07,2.074885927140712738e-02,2.051839372143149376e-03,6.831002831459045410e-01,1.000000000000000000e+00,9.541102917864918709e-04,0.000000000000000000e+00
1.600134611129760742e+00,5.325003662109375000e+02,-1.387675762176513672e+01,-1.387675762176513672e+01,-8.694147318601608276e-02,-1.797848815917968750e+02,6.129360757768154144e-03,-1.774672889709472656e+01,-5.344517529010772705e-02,-1.992873421841068193e-06,-1.098197221755981445e+00,-5.492539331316947937e-02,-3.712330726557411253e-05,6.263519171625375748e-03,2.132999245077371597e-03,4.618890583515167236e-01,1.000000000000000000e+00,-2.301897329743951559e-04,0.000000000000000000e+00
1.600134611129760742e+00,5.325003662109375000e+02,-1.387675762176513672e+01,-1.387675762176513672e+01,-8.694147318601608276e-02,-1.797848815917968750e+02,6.129360757768154144e-03,-1.774672889709472656e+01,-5.344517529010772705e-02,-1.992873421841068193e-06,-1.098197221755981445e+00,-5.492539331316947937e-02,-3.712330726557411253e-05,6.263519171625375748e-03,2.132999245077371597e-03,4.618890583515167236e-01,1.000000000000000000e+00,-2.301897329743951559e-04,0.000000000000000000e+00
1.600134611129760742e+00,5.325003662109375000e+02,-1.387675762176513672e+01,-1.387675762176513672e+01,-8.694147318601608276e-02,-1.797848815917968750e+02,6.129360757768154144e-03,-1.774672889709472656e+01,-5.344517529010772705e-02,-1.992873421841068193e-06,-1.098197221755981445e+00,-5.492539331316947937e-02,-3.712330726557411253e-05,6.263519171625375748e-03,2.132999245077371597e-03,4.618890583515167236e-01,1.000000000000000000e+00,-2.301897329743951559e-04,0.000000000000000000e+00
1.600134611129760742e+00,5.325003662109375000e+02,-1.387675762176513672e+01,-1.387675762176513672e+01,-8.694147318601608276e-02,-1.797848815917968750e+02,6.129360757768154144e-03,-1.774672889709472656e+01,-5.344517529010772705e-02,-1.992873421841068193e-06,-1.098197221755981445e+00,-5.492539331316947937e-02,-3.712330726557411253e-05,6.263519171625375748e-03,2.132999245077371597e-03,4.618890583515167236e-01,1.000000000000000000e+00,-2.301897329743951559e-04,0.000000000000000000e+00
1.600134611129760742e+00,5.325003662109375000e+02,-1.387675762176513672e+01,-1.387675762176513672e+01,-8.694147318601608276e-02,-1.797848815917968750e+02,6.129360757768154144e-03,-1.774672889709472656e+01,-5.344517529010772705e-02,-1.992873421841068193e-06,-1.098197221755981445e+00,-5.492539331316947937e-02,-3.712330726557411253e-05,6.263519171625375748e-03,2.132999245077371597e-03,4.618890583515167236e-01,1.000000000000000000e+00,-2.301897329743951559e-04,0.000000000000000000e+00
1.600134611129760742e+00,5.312116699218750000e+02,-1.388048553466796875e+01,-1.388048553466796875e+01,-8.679120987653732300e-02,-1.797624664306640625e+02,5.627828650176525116e-03,-1.782156372070312500e+01,-5.555618181824684143e-02,-6.865460022709157784e-07,-6.486008167266845703e-01,-1.829630322754383087e-02,1.132206944021163508e-05,-4.833303391933441162e-03,2.161572221666574478e-03,2.194715589284896851e-01,1.000000000000000000e+00,-1.113673672080039978e-03,0.000000000000000000e+00
1.715513467788696289e+00,5.312116699218750000e+02,-1.388048553466796875e+01,-1.388048553466796875e+01,-8.679120987653732300e-02,-1.797624664306640625e+02,5.627828650176525116e-03,-1.782156372070312500e+01,-5.555618181824684143e-02,-6.865460022709157784e-07,-6.486008167266845703e-01,-1.829630322754383087e-02,1.132206944021163508e-05,-4.833303391933441162e-03,2.161572221666574478e-03,2.194715589284896851e-01,1.000000000000000000e+00,-1.113673672080039978e-03,0.000000000000000000e+00
1.715513467788696289e+00,5.312116699218750000e+02,-1.388048553466796875e+01,-1.388048553466796875e+01,-8.679120987653732300e-02,-1.797624664306640625e+02,5.627828650176525116e-03,-1.782156372070312500e+01,-5.555618181824684143e-02,-6.865460022709157784e-07,-6.486008167266845703e-01,-1.829630322754383087e-02,1.132206944021163508e-05,-4.833303391933441162e-03,2.161572221666574478e-03,2.194715589284896851e-01,1.000000000000000000e+00,-1.113673672080039978e-03,0.000000000000000000e+00
1.715513467788696289e+00,5.312116699218750000e+02,-1.388048553466796875e+01,-1.388048553466796875e+01,-8.679120987653732300e-02,-1.797624664306640625e+02,5.627828650176525116e-03,-1.782156372070312500e+01,-5.555618181824684143e-02,-6.865460022709157784e-07,-6.486008167266845703e-01,-1.829630322754383087e-02,1.132206944021163508e-05,-4.833303391933441162e-03,2.161572221666574478e-03,2.194715589284896851e-01,1.000000000000000000e+00,-1.113673672080039978e-03,0.000000000000000000e+00
1.813115119934082031e+00,5.294234619140625000e+02,-1.388596916198730469e+01,-1.388596916198730469e+01,-8.655215054750442505e-02,-1.797612457275390625e+02,3.781848587095737457e-03,-1.792450904846191406e+01,-5.459287017583847046e-02,1.144218444437683502e-07,-1.054749846458435059e+00,9.869829751551151276e-03,8.206498932850081474e-06,-1.651145704090595245e-02,2.223970834165811539e-03,-1.127324774861335754e-01,1.000000000000000000e+00,-1.877048984169960022e-03,0.000000000000000000e+00
1.813115119934082031e+00,5.294234619140625000e+02,-1.388596916198730469e+01,-1.388596916198730469e+01,-8.655215054750442505e-02,-1.797612457275390625e+02,3.781848587095737457e-03,-1.792450904846191406e+01,-5.459287017583847046e-02,1.144218444437683502e-07,-1.054749846458435059e+00,9.869829751551151276e-03,8.206498932850081474e-06,-1.651145704090595245e-02,2.223970834165811539e-03,-1.127324774861335754e-01,1.000000000000000000e+00,-1.877048984169960022e-03,0.000000000000000000e+00
1.813115119934082031e+00,5.294234619140625000e+02,-1.388596916198730469e+01,-1.388596916198730469e+01,-8.655215054750442505e-02,-1.797612457275390625e+02,3.781848587095737457e-03,-1.792450904846191406e+01,-5.459287017583847046e-02,1.144218444437683502e-07,-1.054749846458435059e+00,9.869829751551151276e-03,8.206498932850081474e-06,-1.651145704090595245e-02,2.223970834165811539e-03,-1.127324774861335754e-01,1.000000000000000000e+00,-1.877048984169960022e-03,0.000000000000000000e+00
1.813115119934082031e+00,5.294234619140625000e+02,-1.388596916198730469e+01,-1.388596916198730469e+01,-8.655215054750442505e-02,-1.797612457275390625e+02,3.781848587095737457e-03,-1.792450904846191406e+01,-5.459287017583847046e-02,1.144218444437683502e-07,-1.054749846458435059e+00,9.869829751551151276e-03,8.206498932850081474e-06,-1.651145704090595245e-02,2.223970834165811539e-03,-1.127324774861335754e-01,1.000000000000000000e+00,-1.877048984169960022e-03,0.000000000000000000e+00
1.896134853363037109e+00,5.276683349609375000e+02,-1.389129161834716797e+01,-1.389129161834716797e+01,-8.633358776569366455e-02,-1.797878570556640625e+02,1.154911704361438751e-03,-1.802456855773925781e+01,-4.938081279397010803e-02,7.723505177636980079e-07,-1.205249667167663574e+00,6.278094649314880371e-02,7.924967576400376856e-06,-2.836460992693901062e-02,2.231094054877758026e-03,-3.700256347656250000e-01,1.000000000000000000e+00,-2.279881155118346214e-03,0.000000000000000000e+00
1.896134853363037109e+00,5.276683349609375000e+02,-1.389129161834716797e+01,-1.389129161834716797e+01,-8.633358776569366455e-02,-1.797878570556640625e+02,1.154911704361438751e-03,-1.802456855773925781e+01,-4.938081279397010803e-02,7.723505177636980079e-07,-1.205249667167663574e+00,6.278094649314880371e-02,7.924967576400376856e-06,-2.836460992693901062e-02,2.231094054877758026e-03,-3.700256347656250000e-01,1.000000000000000000e+00,-2.279881155118346214e-03,0.000000000000000000e+00
1.896134853363037109e+00,5.276683349609375000e+02,-1.389129161834716797e+01,-1.389129161834716797e+01,-8.633358776569366455e-02,-1.797878570556640625e+02,1.154911704361438751e-03,-1.802456855773925781e+01,-4.938081279397010803e-02,7.723505177636980079e-07,-1.205249667167663574e+00,6.278094649314880371e-02,7.924967576400376856e-06,-2.836460992693901062e-02,2.231094054877758026e-03,-3.700256347656250000e-01,1.000000000000000000e+00,-2.279881155118346214e-03,0.000000000000000000e+00
1.896134853363037109e+00,5.276683349609375000e+02,-1.389129161834716797e+01,-1.389129161834716797e+01,-8.633358776569366455e-02,-1.797878570556640625e+02,1.154911704361438751e-03,-1.802456855773925781e+01,-4.938081279397010803e-02,7.723505177636980079e-07,-1.205249667167663574e+00,6.278094649314880371e-02,7.924967576400376856e-06,-2.836460992693901062e-02,2.231094054877758026e-03,-3.700256347656250000e-01,1.000000000000000000e+00,-2.279881155118346214e-03,0.000000000000000000e+00
1.896134853363037109e+00,5.276683349609375000e+02,-1.389129161834716797e+01,-1.389129161834716797e+01,-8.633358776569366455e-02,-1.797878570556640625e+02,1.154911704361438751e-03,-1.802456855773925781e+01,-4.938081279397010803e-02,7.723505177636980079e-07,-1.205249667167663574e+00,6.278094649314880371e-02,7.924967576400376856e-06,-2.836460992693901062e-02,2.231094054877758026e-03,-3.700256347656250000e-01,1.000000000000000000e+00,-2.279881155118346214e-03,0.000000000000000000e+00
1.896134853363037109e+00,5.276683349609375000e+02,-1.389129161834716797e+01,-1.389129161834716797e+01,-8.633358776569366455e-02,-1.797878570556640625e+02,1.154911704361438751e-03,-1.802456855773925781e+01,-4.938081279397010803e-02,7.723505177636980079e-07,-1.205249667167663574e+00,6.278094649314880371e-02,7.924967576400376856e-06,-2.836460992693901062e-02,2.231094054877758026e-03,-3.700256347656250000e-01,1.000000000000000000e+00,-2.279881155118346214e-03,0.000000000000000000e+00
1.896134853363037109e+00,5.276683349609375000e+02,-1.389129161834716797e+01,-1.389129161834716797e+01,-8.633358776569366455e-02,-1.797878570556640625e+02,1.154911704361438751e-03,-1.802456855773925781e+01,-4.938081279397010803e-02,7.723505177636980079e-07,-1.205249667167663574e+00,6.278094649314880371e-02,7.924967576400376856e-06,-2.836460992693901062e-02,2.231094054877758026e-03,-3.700256347656250000e-01,1.000000000000000000e+00,-2.279881155118346214e-03,0.000000000000000000e+00
2.195794820785522461e+00,5.227593383789062500e+02,-1.390265274047851562e+01,-1.390265274047851562e+01,-7.089053094387054443e-02,-1.799277038574218750e+02,-5.432129371911287308e-03,-1.815778732299804688e+01,-2.504533715546131134e-02,-7.246865720844652969e-07,3.678103089332580566e-01,1.140952110290527344e-01,-8.983791303762700409e-06,-1.435573305934667587e-02,1.909719556570053101e-01,-5.123392343521118164e-01,1.000000000000000000e+00,-9.336199145764112473e-04,0.000000000000000000e+00
2.195794820785522461e+00,5.227593383789062500e+02,-1.390265274047851562e+01,-1.390265274047851562e+01,-7.089053094387054443e-02,-1.799277038574218750e+02,-5.432129371911287308e-03,-1.815778732299804688e+01,-2.504533715546131134e-02,-7.246865720844652969e-07,3.678103089332580566e-01,1.140952110290527344e-01,-8.983791303762700409e-06,-1.435573305934667587e-02,1.909719556570053101e-01,-5.123392343521118164e-01,1.000000000000000000e+00,-9.336199145764112473e-04,0.000000000000000000e+00
2.195794820785522461e+00,5.227593383789062500e+02,-1.390265274047851562e+01,-1.390265274047851562e+01,-7.089053094387054443e-02,-1.799277038574218750e+02,-5.432129371911287308e-03,-1.815778732299804688e+01,-2.504533715546131134e-02,-7.246865720844652969e-07,3.678103089332580566e-01,1.140952110290527344e-01,-8.983791303762700409e-06,-1.435573305934667587e-02,1.909719556570053101e-01,-5.123392343521118164e-01,1.000000000000000000e+00,-9.336199145764112473e-04,0.000000000000000000e+00
2.195794820785522461e+00,5.227593383789062500e+02,-1.390265274047851562e+01,-1.390265274047851562e+01,-7.089053094387054443e-02,-1.799277038574218750e+02,-5.432129371911287308e-03,-1.815778732299804688e+01,-2.504533715546131134e-02,-7.246865720844652969e-07,3.678103089332580566e-01,1.140952110290527344e-01,-8.983791303762700409e-06,-1.435573305934667587e-02,1.909719556570053101e-01,-5.123392343521118164e-01,1.000000000000000000e+00,-9.336199145764112473e-04,0.000000000000000000e+00
2.195794820785522461e+00,5.227593383789062500e+02,-1.390265274047851562e+01,-1.390265274047851562e+01,-7.089053094387054443e-02,-1.799277038574218750e+02,-5.432129371911287308e-03,-1.815778732299804688e+01,-2.504533715546131134e-02,-7.246865720844652969e-07,3.678103089332580566e-01,1.140952110290527344e-01,-8.983791303762700409e-06,-1.435573305934667587e-02,1.909719556570053101e-01,-5.123392343521118164e-01,1.000000000000000000e+00,-9.336199145764112473e-04,0.000000000000000000e+00
2.195794820785522461e+00,5.227593383789062500e+02,-1.390265274047851562e+01,-1.390265274047851562e+01,-7.089053094387054443e-02,-1.799277038574218750e+02,-5.432129371911287308e-03,-1.815778732299804688e+01,-2.504533715546131134e-02,-7.246865720844652969e-07,3.678103089332580566e-01,1.140952110290527344e-01,-8.983791303762700409e-06,-1.435573305934667587e-02,1.909719556570053101e-01,-5.123392343521118164e-01,1.000000000000000000e+00,-9.336199145764112473e-04,0.000000000000000000e+00
2.195794820785522461e+00,5.227593383789062500e+02,-1.390265274047851562e+01,-1.390265274047851562e+01,-7.089053094387054443e-02,-1.799277038574218750e+02,-5.432129371911287308e-03,-1.815778732299804688e+01,-2.504533715546131134e-02,-7.246865720844652969e-07,3.678103089332580566e-01,1.140952110290527344e-01,-8.983791303762700409e-06,-1.435573305934667587e-02,1.909719556570053101e-01,-5.123392343521118164e-01,1.000000000000000000e+00,-9.336199145764112473e-04,0.000000000000000000e+00
2.195794820785522461e+00,5.227593383789062500e+02,-1.390265274047851562e+01,-1.390265274047851562e+01,-7.089053094387054443e-02,-1.799277038574218750e+02,-5.432129371911287308e-03,-1.815778732299804688e+01,-2.504533715546131134e-02,-7.246865720844652969e-07,3.678103089332580566e-01,1.140952110290527344e-01,-8.983791303762700409e-06,-1.435573305934667587e-02,1.909719556570053101e-01,-5.123392343521118164e-01,1.000000000000000000e+00,-9.336199145764112473e-04,0.000000000000000000e+00
2.195794820785522461e+00,5.227593383789062500e+02,-1.390265274047851562e+01,-1.390265274047851562e+01,-7.089053094387054443e-02,-1.799277038574218750e+02,-5.432129371911287308e-03,-1.815778732299804688e+01,-2.504533715546131134e-02,-7.246865720844652969e-07,3.678103089332580566e-01,1.140952110290527344e-01,-8.983791303762700409e-06,-1.435573305934667587e-02,1.909719556570053101e-01,-5.123392343521118164e-01,1.000000000000000000e+00,-9.336199145764112473e-04,0.000000000000000000e+00
2.195794820785522461e+00,5.227593383789062500e+02,-1.390265274047851562e+01,-1.390265274047851562e+01,-7.089053094387054443e-02,-1.799277038574218750e+02,-5.432129371911287308e-03,-1.815778732299804688e+01,-2.504533715546131134e-02,-7.246865720844652969e-07,3.678103089332580566e-01,1.140952110290527344e-01,-8.983791303762700409e-06,-1.435573305934667587e-02,1.909719556570053101e-01,-5.123392343521118164e-01,1.000000000000000000e+00,-9.336199145764112473e-04,0.000000000000000000e+00
2.374083757400512695e+00,5.217961425781250000e+02,-1.390419769287109375e+01,-1.390419769287109375e+01,-6.011932343244552612e-02,-1.799495544433593750e+02,-4.882812500000000000e-03,-1.814590454101562500e+01,-2.493600361049175262e-02,2.031056737905601040e-06,6.664901226758956909e-02,6.132379639893770218e-04,1.545661325508262962e-05,1.133269444108009338e-02,2.085433006286621094e-01,-3.574990928173065186e-01,1.000000000000000000e+00,4.268101183697581291e-04,0.000000000000000000e+00
2.374083757400512695e+00,5.217961425781250000e+02,-1.390419769287109375e+01,-1.390419769287109375e+01,-6.011932343244552612e-02,-1.799495544433593750e+02,-4.882812500000000000e-03,-1.814590454101562500e+01,-2.493600361049175262e-02,2.031056737905601040e-06,6.664901226758956909e-02,6.132379639893770218e-04,1.545661325508262962e-05,1.133269444108009338e-02,2.085433006286621094e-01,-3.574990928173065186e-01,1.000000000000000000e+00,4.268101183697581291e-04,0.000000000000000000e+00
2.374083757400512695e+00,5.217961425781250000e+02,-1.390419769287109375e+01,-1.390419769287109375e+01,-6.011932343244552612e-02,-1.799495544433593750e+02,-4.882812500000000000e-03,-1.814590454101562500e+01,-2.493600361049175262e-02,2.031056737905601040e-06,6.664901226758956909e-02,6.132379639893770218e-04,1.545661325508262962e-05,1.133269444108009338e-02,2.085433006286621094e-01,-3.574990928173065186e-01,1.000000000000000000e+00,4.268101183697581291e-04,0.000000000000000000e+00
2.447860002517700195e+00,5.199826660156250000e+02,-1.390689945220947266e+01,-1.390689945220947266e+01,-3.942384943366050720e-02,-1.799665679931640625e+02,-3.295897971838712692e-03,-1.812354469299316406e+01,-2.509529143571853638e-02,-4.576873777750734007e-07,3.030765354633331299e-01,-2.159066731110215187e-03,-3.373367871972732246e-05,8.261466398835182190e-03,1.931583434343338013e-01,-5.649380385875701904e-02,1.000000000000000000e+00,1.091657322831451893e-03,0.000000000000000000e+00
2.447860002517700195e+00,5.199826660156250000e+02,-1.390689945220947266e+01,-1.390689945220947266e+01,-3.942384943366050720e-02,-1.799665679931640625e+02,-3.295897971838712692e-03,-1.812354469299316406e+01,-2.509529143571853638e-02,-4.576873777750734007e-07,3.030765354633331299e-01,-2.159066731110215187e-03,-3.373367871972732246e-05,8.261466398835182190e-03,1.931583434343338013e-01,-5.649380385875701904e-02,1.000000000000000000e+00,1.091657322831451893e-03,0.000000000000000000e+00
2.500878810882568359e+00,5.186461791992187500e+02,-1.390881156921386719e+01,-1.390881156921386719e+01,-2.691777423024177551e-02,-1.799606933593750000e+02,-1.800536992959678173e-03,-1.810705757141113281e+01,-2.790397405624389648e-02,9.916748240357264876e-07,3.109674155712127686e-01,-5.297521129250526428e-02,2.733675501076504588e-05,2.090264484286308289e-02,1.551138162612915039e-01,1.600509583950042725e-01,1.000000000000000000e+00,1.732526463456451893e-03,0.000000000000000000e+00
2.500878810882568359e+00,5.186461791992187500e+02,-1.390881156921386719e+01,-1.390881156921386719e+01,-2.691777423024177551e-02,-1.799606933593750000e+02,-1.800536992959678173e-03,-1.810705757141113281e+01,-2.790397405624389648e-02,9.916748240357264876e-07,3.109674155712127686e-01,-5.297521129250526428e-02,2.733675501076504588e-05,2.090264484286308289e-02,1.551138162612915039e-01,1.600509583950042725e-01,1.000000000000000000e+00,1.732526463456451893e-03,0.000000000000000000e+00
2.500878810882568359e+00,5.186461791992187500e+02,-1.390881156921386719e+01,-1.390881156921386719e+01,-2.691777423024177551e-02,-1.799606933593750000e+02,-1.800536992959678173e-03,-1.810705757141113281e+01,-2.790397405624389648e-02,9.916748240357264876e-07,3.109674155712127686e-01,-5.297521129250526428e-02,2.733675501076504588e-05,2.090264484286308289e-02,1.551138162612915039e-01,1.600509583950042725e-01,1.000000000000000000e+00,1.732526463456451893e-03,0.000000000000000000e+00
2.560195446014404297e+00,5.176865234375000000e+02,-1.391030025482177734e+01,-1.391030025482177734e+01,-1.971192471683025360e-02,-1.799466857910156250e+02,-9.155272709904238582e-05,-1.809521293640136719e+01,-3.255522996187210083e-02,-1.601960320840589702e-06,1.996848732233047485e-01,-7.841402292251586914e-02,-4.372525654616765678e-05,3.365621715784072876e-02,1.268722414970397949e-01,3.214510083198547363e-01,1.000000000000000000e+00,2.295357873663306236e-03,0.000000000000000000e+00
2.560195446014404297e+00,5.176865234375000000e+02,-1.391030025482177734e+01,-1.391030025482177734e+01,-1.971192471683025360e-02,-1.799466857910156250e+02,-9.155272709904238582e-05,-1.809521293640136719e+01,-3.255522996187210083e-02,-1.601960320840589702e-06,1.996848732233047485e-01,-7.841402292251586914e-02,-4.372525654616765678e-05,3.365621715784072876e-02,1.268722414970397949e-01,3.214510083198547363e-01,1.000000000000000000e+00,2.295357873663306236e-03,0.000000000000000000e+00
2.560195446014404297e+00,5.166136474609375000e+02,-1.391211605072021484e+01,-1.391211605072021484e+01,-1.312079280614852905e-02,-1.799241027832031250e+02,1.255207345820963383e-03,-1.808198165893554688e+01,-3.582416847348213196e-02,-1.096562868951878045e-06,2.260400652885437012e-01,-5.584578216075897217e-02,8.634092409920413047e-06,2.098581381142139435e-02,1.001444160938262939e-01,4.128645360469818115e-01,1.000000000000000000e+00,1.814487972296774387e-03,0.000000000000000000e+00
2.618730545043945312e+00,5.166136474609375000e+02,-1.391211605072021484e+01,-1.391211605072021484e+01,-1.312079280614852905e-02,-1.799241027832031250e+02,1.255207345820963383e-03,-1.808198165893554688e+01,-3.582416847348213196e-02,-1.096562868951878045e-06,2.260400652885437012e-01,-5.584578216075897217e-02,8.634092409920413047e-06,2.098581381142139435e-02,1.001444160938262939e-01,4.128645360469818115e-01,1.000000000000000000e+00,1.814487972296774387e-03,0.000000000000000000e+00
2.618730545043945312e+00,5.155554199218750000e+02,-1.391412925720214844e+01,-1.391412925720214844e+01,-8.763132616877555847e-03,-1.798971252441406250e+02,2.723901998251676559e-03,-1.808599090576171875e+01,-4.110610857605934143e-02,-2.374301402596756816e-06,-6.841306388378143311e-02,-9.013007581233978271e-02,-2.180310002586338669e-05,2.711508423089981079e-02,3.751091659069061279e-02,4.899199903011322021e-01,1.000000000000000000e+00,1.872035441920161247e-03,0.000000000000000000e+00
2.677334070205688477e+00,5.155554199218750000e+02,-1.391412925720214844e+01,-1.391412925720214844e+01,-8.763132616877555847e-03,-1.798971252441406250e+02,2.723901998251676559e-03,-1.808599090576171875e+01,-4.110610857605934143e-02,-2.374301402596756816e-06,-6.841306388378143311e-02,-9.013007581233978271e-02,-2.180310002586338669e-05,2.711508423089981079e-02,3.751091659069061279e-02,4.899199903011322021e-01,1.000000000000000000e+00,1.872035441920161247e-03,0.000000000000000000e+00
2.677334070205688477e+00,5.155554199218750000e+02,-1.391412925720214844e+01,-1.391412925720214844e+01,-8.763132616877555847e-03,-1.798971252441406250e+02,2.723901998251676559e-03,-1.808599090576171875e+01,-4.110610857605934143e-02,-2.374301402596756816e-06,-6.841306388378143311e-02,-9.013007581233978271e-02,-2.180310002586338669e-05,2.711508423089981079e-02,3.751091659069061279e-02,4.899199903011322021e-01,1.000000000000000000e+00,1.872035441920161247e-03,0.000000000000000000e+00
2.677334070205688477e+00,5.155554199218750000e+02,-1.391412925720214844e+01,-1.391412925720214844e+01,-8.763132616877555847e-03,-1.798971252441406250e+02,2.723901998251676559e-03,-1.808599090576171875e+01,-4.110610857605934143e-02,-2.374301402596756816e-06,-6.841306388378143311e-02,-9.013007581233978271e-02,-2.180310002586338669e-05,2.711508423089981079e-02,3.751091659069061279e-02,4.899199903011322021e-01,1.000000000000000000e+00,1.872035441920161247e-03,0.000000000000000000e+00
2.755024909973144531e+00,5.144930419921875000e+02,-1.391635608673095703e+01,-1.391635608673095703e+01,-1.229433994740247726e-02,-1.798685150146484375e+02,3.445295384153723717e-03,-1.815356826782226562e+01,-4.417134076356887817e-02,-1.573332042426045518e-06,-8.698240518569946289e-01,-3.945422917604446411e-02,1.030970179272117093e-05,1.295327674597501755e-02,-1.078432053327560425e-01,4.867320060729980469e-01,1.000000000000000000e+00,1.055036322213709354e-03,0.000000000000000000e+00
2.755024909973144531e+00,5.144930419921875000e+02,-1.391635608673095703e+01,-1.391635608673095703e+01,-1.229433994740247726e-02,-1.798685150146484375e+02,3.445295384153723717e-03,-1.815356826782226562e+01,-4.417134076356887817e-02,-1.573332042426045518e-06,-8.698240518569946289e-01,-3.945422917604446411e-02,1.030970179272117093e-05,1.295327674597501755e-02,-1.078432053327560425e-01,4.867320060729980469e-01,1.000000000000000000e+00,1.055036322213709354e-03,0.000000000000000000e+00
2.755024909973144531e+00,5.144930419921875000e+02,-1.391635608673095703e+01,-1.391635608673095703e+01,-1.229433994740247726e-02,-1.798685150146484375e+02,3.445295384153723717e-03,-1.815356826782226562e+01,-4.417134076356887817e-02,-1.573332042426045518e-06,-8.698240518569946289e-01,-3.945422917604446411e-02,1.030970179272117093e-05,1.295327674597501755e-02,-1.078432053327560425e-01,4.867320060729980469e-01,1.000000000000000000e+00,1.055036322213709354e-03,0.000000000000000000e+00
2.830169916152954102e+00,5.130789184570312500e+02,-1.391968822479248047e+01,-1.391968822479248047e+01,-2.465698122978210449e-02,-1.798324432373046875e+02,4.578237887471914291e-03,-1.823379325866699219e+01,-5.018690973520278931e-02,-2.307533122802851722e-06,-1.067602396011352539e+00,-8.005280792713165283e-02,-9.770456927071791142e-06,1.944083906710147858e-02,-1.780501008033752441e-01,4.510205686092376709e-01,1.000000000000000000e+00,7.882254431024193764e-04,0.000000000000000000e+00
2.830169916152954102e+00,5.130789184570312500e+02,-1.391968822479248047e+01,-1.391968822479248047e+01,-2.465698122978210449e-02,-1.798324432373046875e+02,4.578237887471914291e-03,-1.823379325866699219e+01,-5.018690973520278931e-02,-2.307533122802851722e-06,-1.067602396011352539e+00,-8.005280792713165283e-02,-9.770456927071791142e-06,1.944083906710147858e-02,-1.780501008033752441e-01,4.510205686092376709e-01,1.000000000000000000e+00,7.882254431024193764e-04,0.000000000000000000e+00
2.830169916152954102e+00,5.130789184570312500e+02,-1.391968822479248047e+01,-1.391968822479248047e+01,-2.465698122978210449e-02,-1.798324432373046875e+02,4.578237887471914291e-03,-1.823379325866699219e+01,-5.018690973520278931e-02,-2.307533122802851722e-06,-1.067602396011352539e+00,-8.005280792713165283e-02,-9.770456927071791142e-06,1.944083906710147858e-02,-1.780501008033752441e-01,4.510205686092376709e-01,1.000000000000000000e+00,7.882254431024193764e-04,0.000000000000000000e+00
2.830169916152954102e+00,5.130789184570312500e+02,-1.391968822479248047e+01,-1.391968822479248047e+01,-2.465698122978210449e-02,-1.798324432373046875e+02,4.578237887471914291e-03,-1.823379325866699219e+01,-5.018690973520278931e-02,-2.307533122802851722e-06,-1.067602396011352539e+00,-8.005280792713165283e-02,-9.770456927071791142e-06,1.944083906710147858e-02,-1.780501008033752441e-01,4.510205686092376709e-01,1.000000000000000000e+00,7.882254431024193764e-04,0.000000000000000000e+00
2.830169916152954102e+00,5.130789184570312500e+02,-1.391968822479248047e+01,-1.391968822479248047e+01,-2.465698122978210449e-02,-1.798324432373046875e+02,4.578237887471914291e-03,-1.823379325866699219e+01,-5.018690973520278931e-02,-2.307533122802851722e-06,-1.067602396011352539e+00,-8.005280792713165283e-02,-9.770456927071791142e-06,1.944083906710147858e-02,-1.780501008033752441e-01,4.510205686092376709e-01,1.000000000000000000e+00,7.882254431024193764e-04,0.000000000000000000e+00
