# Time,X,Y,Z,Roll,Pitch,Yaw,Vx,Vy,Vz,Ax,Ay,Az,Wx,Wy,Wz,Throttle,Steer,Brake
0.000000000000000000e+00,6.393710327148437500e+02,1.420507049560546875e+02,1.420507049560546875e+02,-3.415094397496432066e-05,2.267371118068695068e-01,-3.051757812500000000e-05,-2.101832485834620456e-09,1.798708915146107756e-08,4.117192584089934826e-04,2.187094310102111194e-07,-4.791296603912087448e-08,5.541843362152576447e-03,-1.599041934241540730e-05,-1.735405248837196268e-06,1.429447948897433207e-10,0.000000000000000000e+00,1.352706894977018237e-04,1.000000000000000000e+00
1.045818328857421875e-01,6.393710327148437500e+02,1.420507049560546875e+02,1.420507049560546875e+02,-3.415094397496432066e-05,2.267371118068695068e-01,-3.051757812500000000e-05,-2.101832485834620456e-09,1.798708915146107756e-08,4.117192584089934826e-04,2.187094310102111194e-07,-4.791296603912087448e-08,5.541843362152576447e-03,-1.599041934241540730e-05,-1.735405248837196268e-06,1.429447948897433207e-10,0.000000000000000000e+00,1.352706894977018237e-04,1.000000000000000000e+00
1.045818328857421875e-01,6.393710327148437500e+02,1.420507049560546875e+02,1.420507049560546875e+02,-3.415094397496432066e-05,2.267371118068695068e-01,-3.051757812500000000e-05,-2.101832485834620456e-09,1.798708915146107756e-08,4.117192584089934826e-04,2.187094310102111194e-07,-4.791296603912087448e-08,5.541843362152576447e-03,-1.599041934241540730e-05,-1.735405248837196268e-06,1.429447948897433207e-10,0.000000000000000000e+00,1.352706894977018237e-04,1.000000000000000000e+00
1.045818328857421875e-01,6.393710327148437500e+02,1.420507049560546875e+02,1.420507049560546875e+02,-3.415094397496432066e-05,2.267371118068695068e-01,-3.051757812500000000e-05,-2.101832485834620456e-09,1.798708915146107756e-08,4.117192584089934826e-04,2.187094310102111194e-07,-4.791296603912087448e-08,5.541843362152576447e-03,-1.599041934241540730e-05,-1.735405248837196268e-06,1.429447948897433207e-10,0.000000000000000000e+00,1.352706894977018237e-04,1.000000000000000000e+00
1.045818328857421875e-01,6.393710327148437500e+02,1.420507049560546875e+02,1.420507049560546875e+02,-3.415094397496432066e-05,2.267371118068695068e-01,-3.051757812500000000e-05,-2.101832485834620456e-09,1.798708915146107756e-08,4.117192584089934826e-04,2.187094310102111194e-07,-4.791296603912087448e-08,5.541843362152576447e-03,-1.599041934241540730e-05,-1.735405248837196268e-06,1.429447948897433207e-10,0.000000000000000000e+00,1.352706894977018237e-04,1.000000000000000000e+00
1.045818328857421875e-01,6.393710327148437500e+02,1.420507049560546875e+02,1.420507049560546875e+02,-3.415094397496432066e-05,2.267371118068695068e-01,-3.051757812500000000e-05,-2.101832485834620456e-09,1.798708915146107756e-08,4.117192584089934826e-04,2.187094310102111194e-07,-4.791296603912087448e-08,5.541843362152576447e-03,-1.599041934241540730e-05,-1.735405248837196268e-06,1.429447948897433207e-10,0.000000000000000000e+00,1.352706894977018237e-04,1.000000000000000000e+00
1.045818328857421875e-01,6.393710327148437500e+02,1.420507049560546875e+02,1.420507049560546875e+02,-3.415094397496432066e-05,2.267371118068695068e-01,-3.051757812500000000e-05,-7.074724805988807930e-09,3.231529532854438003e-08,-8.365952526219189167e-04,-4.749254145508530200e-08,1.368384516808873741e-07,-1.192175969481468201e-02,-2.020770989474840462e-05,-5.290110948408255354e-06,1.585317099817018516e-09,0.000000000000000000e+00,1.352706894977018237e-04,1.000000000000000000e+00
2.092907428741455078e-01,6.393710327148437500e+02,1.420507049560546875e+02,1.420507049560546875e+02,-3.415094397496432066e-05,2.267371118068695068e-01,-3.051757812500000000e-05,-7.074724805988807930e-09,3.231529532854438003e-08,-8.365952526219189167e-04,-4.749254145508530200e-08,1.368384516808873741e-07,-1.192175969481468201e-02,-2.020770989474840462e-05,-5.290110948408255354e-06,1.585317099817018516e-09,0.000000000000000000e+00,1.352706894977018237e-04,1.000000000000000000e+00
2.092907428741455078e-01,6.393710327148437500e+02,1.420507049560546875e+02,1.420507049560546875e+02,-3.415094397496432066e-05,2.267371118068695068e-01,-3.051757812500000000e-05,-7.074724805988807930e-09,3.231529532854438003e-08,-8.365952526219189167e-04,-4.749254145508530200e-08,1.368384516808873741e-07,-1.192175969481468201e-02,-2.020770989474840462e-05,-5.290110948408255354e-06,1.585317099817018516e-09,0.000000000000000000e+00,1.352706894977018237e-04,1.000000000000000000e+00
2.092907428741455078e-01,6.393710327148437500e+02,1.420507049560546875e+02,1.420507049560546875e+02,-3.415094397496432066e-05,2.267371118068695068e-01,-3.051757812500000000e-05,-7.074724805988807930e-09,3.231529532854438003e-08,-8.365952526219189167e-04,-4.749254145508530200e-08,1.368384516808873741e-07,-1.192175969481468201e-02,-2.020770989474840462e-05,-5.290110948408255354e-06,1.585317099817018516e-09,0.000000000000000000e+00,1.352706894977018237e-04,1.000000000000000000e+00
2.092907428741455078e-01,6.393710327148437500e+02,1.420507049560546875e+02,1.420507049560546875e+02,-3.415094397496432066e-05,2.267371118068695068e-01,-3.051757812500000000e-05,-7.074724805988807930e-09,3.231529532854438003e-08,-8.365952526219189167e-04,-4.749254145508530200e-08,1.368384516808873741e-07,-1.192175969481468201e-02,-2.020770989474840462e-05,-5.290110948408255354e-06,1.585317099817018516e-09,0.000000000000000000e+00,1.352706894977018237e-04,1.000000000000000000e+00
2.092907428741455078e-01,6.393710327148437500e+02,1.420507049560546875e+02,1.420507049560546875e+02,-3.415094397496432066e-05,2.267371118068695068e-01,-3.051757812500000000e-05,2.222360784287502611e-08,-3.763296163583618181e-08,2.239426103187724948e-04,3.926412546206847765e-07,-9.374107321491464972e-07,1.421278622001409531e-02,3.993624704889953136e-05,1.798112498363479972e-05,-1.539218197343927841e-09,0.000000000000000000e+00,1.352706894977018237e-04,1.000000000000000000e+00
2.839093208312988281e-01,6.393710327148437500e+02,1.420507049560546875e+02,1.420507049560546875e+02,-3.415094397496432066e-05,2.267371118068695068e-01,-3.051757812500000000e-05,2.222360784287502611e-08,-3.763296163583618181e-08,2.239426103187724948e-04,3.926412546206847765e-07,-9.374107321491464972e-07,1.421278622001409531e-02,3.993624704889953136e-05,1.798112498363479972e-05,-1.539218197343927841e-09,0.000000000000000000e+00,1.352706894977018237e-04,1.000000000000000000e+00
2.839093208312988281e-01,6.393710327148437500e+02,1.420507049560546875e+02,1.420507049560546875e+02,-3.415094397496432066e-05,2.267371118068695068e-01,-3.051757812500000000e-05,2.222360784287502611e-08,-3.763296163583618181e-08,2.239426103187724948e-04,3.926412546206847765e-07,-9.374107321491464972e-07,1.421278622001409531e-02,3.993624704889953136e-05,1.798112498363479972e-05,-1.539218197343927841e-09,0.000000000000000000e+00,1.352706894977018237e-04,1.000000000000000000e+00
2.839093208312988281e-01,6.393710327148437500e+02,1.420507049560546875e+02,1.420507049560546875e+02,-3.415094397496432066e-05,2.267371118068695068e-01,-3.051757812500000000e-05,2.222360784287502611e-08,-3.763296163583618181e-08,2.239426103187724948e-04,3.926412546206847765e-07,-9.374107321491464972e-07,1.421278622001409531e-02,3.993624704889953136e-05,1.798112498363479972e-05,-1.539218197343927841e-09,0.000000000000000000e+00,1.352706894977018237e-04,1.000000000000000000e+00
2.839093208312988281e-01,6.393710327148437500e+02,1.420507049560546875e+02,1.420507049560546875e+02,-3.415094397496432066e-05,2.267371118068695068e-01,-3.051757812500000000e-05,2.222360784287502611e-08,-3.763296163583618181e-08,2.239426103187724948e-04,3.926412546206847765e-07,-9.374107321491464972e-07,1.421278622001409531e-02,3.993624704889953136e-05,1.798112498363479972e-05,-1.539218197343927841e-09,0.000000000000000000e+00,1.352706894977018237e-04,1.000000000000000000e+00
3.569011688232421875e-01,6.393710327148437500e+02,1.420507049560546875e+02,1.420507049560546875e+02,-3.415094397496432066e-05,2.267371118068695068e-01,-3.051757812500000000e-05,-1.181957198781447005e-08,3.466136533347707882e-08,1.642353949137032032e-03,-4.663970116780546959e-07,9.904438229568768293e-07,1.943246275186538696e-02,-2.423829573672264814e-05,-9.281727216148283333e-06,1.771701674257997183e-09,0.000000000000000000e+00,1.352706894977018237e-04,1.000000000000000000e+00
3.569011688232421875e-01,6.393710327148437500e+02,1.420507049560546875e+02,1.420507049560546875e+02,-3.415094397496432066e-05,2.267371118068695068e-01,-3.051757812500000000e-05,-1.181957198781447005e-08,3.466136533347707882e-08,1.642353949137032032e-03,-4.663970116780546959e-07,9.904438229568768293e-07,1.943246275186538696e-02,-2.423829573672264814e-05,-9.281727216148283333e-06,1.771701674257997183e-09,0.000000000000000000e+00,1.352706894977018237e-04,1.000000000000000000e+00
3.569011688232421875e-01,6.393710327148437500e+02,1.420507049560546875e+02,1.420507049560546875e+02,-3.415094397496432066e-05,2.267371118068695068e-01,-3.051757812500000000e-05,-1.181957198781447005e-08,3.466136533347707882e-08,1.642353949137032032e-03,-4.663970116780546959e-07,9.904438229568768293e-07,1.943246275186538696e-02,-2.423829573672264814e-05,-9.281727216148283333e-06,1.771701674257997183e-09,0.000000000000000000e+00,1.352706894977018237e-04,1.000000000000000000e+00
3.569011688232421875e-01,6.393710327148437500e+02,1.420507049560546875e+02,1.420507049560546875e+02,-3.415094397496432066e-05,2.267371118068695068e-01,-3.051757812500000000e-05,-1.181957198781447005e-08,3.466136533347707882e-08,1.642353949137032032e-03,-4.663970116780546959e-07,9.904438229568768293e-07,1.943246275186538696e-02,-2.423829573672264814e-05,-9.281727216148283333e-06,1.771701674257997183e-09,0.000000000000000000e+00,1.352706894977018237e-04,1.000000000000000000e+00
4.765405654907226562e-01,6.393710327148437500e+02,1.420507049560546875e+02,1.420507049560546875e+02,-3.415094397496432066e-05,2.267371118068695068e-01,-3.051757812500000000e-05,-1.195997789693592495e-08,3.610359655681349977e-08,9.466791525483131409e-04,-1.173575903123946773e-09,1.205481847676992402e-08,-5.814763717353343964e-03,-1.325754783465526998e-05,-8.821981282380875200e-06,3.462247377683524974e-09,0.000000000000000000e+00,1.352706894977018237e-04,1.000000000000000000e+00
4.765405654907226562e-01,6.393710327148437500e+02,1.420507049560546875e+02,1.420507049560546875e+02,-3.415094397496432066e-05,2.267371118068695068e-01,-3.051757812500000000e-05,-1.195997789693592495e-08,3.610359655681349977e-08,9.466791525483131409e-04,-1.173575903123946773e-09,1.205481847676992402e-08,-5.814763717353343964e-03,-1.325754783465526998e-05,-8.821981282380875200e-06,3.462247377683524974e-09,0.000000000000000000e+00,1.352706894977018237e-04,1.000000000000000000e+00
4.765405654907226562e-01,6.393710327148437500e+02,1.420507049560546875e+02,1.420507049560546875e+02,-3.415094397496432066e-05,2.267371118068695068e-01,-3.051757812500000000e-05,-1.195997789693592495e-08,3.610359655681349977e-08,9.466791525483131409e-04,-1.173575903123946773e-09,1.205481847676992402e-08,-5.814763717353343964e-03,-1.325754783465526998e-05,-8.821981282380875200e-06,3.462247377683524974e-09,0.000000000000000000e+00,1.352706894977018237e-04,1.000000000000000000e+00
4.765405654907226562e-01,6.393710327148437500e+02,1.420507049560546875e+02,1.420507049560546875e+02,-3.415094397496432066e-05,2.267371118068695068e-01,-3.051757812500000000e-05,-1.195997789693592495e-08,3.610359655681349977e-08,9.466791525483131409e-04,-1.173575903123946773e-09,1.205481847676992402e-08,-5.814763717353343964e-03,-1.325754783465526998e-05,-8.821981282380875200e-06,3.462247377683524974e-09,0.000000000000000000e+00,1.352706894977018237e-04,1.000000000000000000e+00
4.765405654907226562e-01,6.393710327148437500e+02,1.420507049560546875e+02,1.420507049560546875e+02,-3.415094397496432066e-05,2.267371118068695068e-01,-3.051757812500000000e-05,-1.195997789693592495e-08,3.610359655681349977e-08,9.466791525483131409e-04,-1.173575903123946773e-09,1.205481847676992402e-08,-5.814763717353343964e-03,-1.325754783465526998e-05,-8.821981282380875200e-06,3.462247377683524974e-09,0.000000000000000000e+00,1.352706894977018237e-04,1.000000000000000000e+00
4.765405654907226562e-01,6.393710327148437500e+02,1.420507049560546875e+02,1.420507049560546875e+02,-3.415094397496432066e-05,2.267371118068695068e-01,-3.051757812500000000e-05,-1.195997789693592495e-08,3.610359655681349977e-08,9.466791525483131409e-04,-1.173575903123946773e-09,1.205481847676992402e-08,-5.814763717353343964e-03,-1.325754783465526998e-05,-8.821981282380875200e-06,3.462247377683524974e-09,0.000000000000000000e+00,1.352706894977018237e-04,1.000000000000000000e+00
4.765405654907226562e-01,6.393710327148437500e+02,1.420507049560546875e+02,1.420507049560546875e+02,-3.415094397496432066e-05,2.267371118068695068e-01,-3.051757812500000000e-05,-1.195997789693592495e-08,3.610359655681349977e-08,9.466791525483131409e-04,-1.173575903123946773e-09,1.205481847676992402e-08,-5.814763717353343964e-03,-1.325754783465526998e-05,-8.821981282380875200e-06,3.462247377683524974e-09,0.000000000000000000e+00,1.352706894977018237e-04,1.000000000000000000e+00
6.200885772705078125e-01,6.393710327148437500e+02,1.420507049560546875e+02,1.420507049560546875e+02,-3.415094397496432066e-05,2.267371118068695068e-01,-3.051757812500000000e-05,-1.630759882687016216e-08,1.882747113768346026e-08,-2.502596471458673477e-04,-3.028687700634691282e-08,-1.203508475100534270e-07,-8.338247425854206085e-03,-2.688496169866994023e-05,-1.361373961117351428e-05,2.411257825352119966e-11,0.000000000000000000e+00,1.352706894977018237e-04,1.000000000000000000e+00
6.200885772705078125e-01,6.393710327148437500e+02,1.420507049560546875e+02,1.420507049560546875e+02,-3.415094397496432066e-05,2.267371118068695068e-01,-3.051757812500000000e-05,-1.630759882687016216e-08,1.882747113768346026e-08,-2.502596471458673477e-04,-3.028687700634691282e-08,-1.203508475100534270e-07,-8.338247425854206085e-03,-2.688496169866994023e-05,-1.361373961117351428e-05,2.411257825352119966e-11,0.000000000000000000e+00,1.352706894977018237e-04,1.000000000000000000e+00
6.200885772705078125e-01,6.393710327148437500e+02,1.420507049560546875e+02,1.420507049560546875e+02,-3.415094397496432066e-05,2.267371118068695068e-01,-3.051757812500000000e-05,-1.630759882687016216e-08,1.882747113768346026e-08,-2.502596471458673477e-04,-3.028687700634691282e-08,-1.203508475100534270e-07,-8.338247425854206085e-03,-2.688496169866994023e-05,-1.361373961117351428e-05,2.411257825352119966e-11,0.000000000000000000e+00,1.352706894977018237e-04,1.000000000000000000e+00
6.200885772705078125e-01,6.393710327148437500e+02,1.420507049560546875e+02,1.420507049560546875e+02,-3.415094397496432066e-05,2.267371118068695068e-01,-3.051757812500000000e-05,-1.630759882687016216e-08,1.882747113768346026e-08,-2.502596471458673477e-04,-3.028687700634691282e-08,-1.203508475100534270e-07,-8.338247425854206085e-03,-2.688496169866994023e-05,-1.361373961117351428e-05,2.411257825352119966e-11,0.000000000000000000e+00,1.352706894977018237e-04,1.000000000000000000e+00
6.200885772705078125e-01,6.393710327148437500e+02,1.420507049560546875e+02,1.420507049560546875e+02,-3.415094397496432066e-05,2.267371118068695068e-01,-3.051757812500000000e-05,-1.630759882687016216e-08,1.882747113768346026e-08,-2.502596471458673477e-04,-3.028687700634691282e-08,-1.203508475100534270e-07,-8.338247425854206085e-03,-2.688496169866994023e-05,-1.361373961117351428e-05,2.411257825352119966e-11,0.000000000000000000e+00,1.352706894977018237e-04,1.000000000000000000e+00
6.200885772705078125e-01,6.393710327148437500e+02,1.420507049560546875e+02,1.420507049560546875e+02,-3.415094397496432066e-05,2.267371118068695068e-01,-3.051757812500000000e-05,-1.630759882687016216e-08,1.882747113768346026e-08,-2.502596471458673477e-04,-3.028687700634691282e-08,-1.203508475100534270e-07,-8.338247425854206085e-03,-2.688496169866994023e-05,-1.361373961117351428e-05,2.411257825352119966e-11,0.000000000000000000e+00,1.352706894977018237e-04,1.000000000000000000e+00
7.946169376373291016e-01,6.393710327148437500e+02,1.420507049560546875e+02,1.420507049560546875e+02,-3.415094397496432066e-05,2.267371118068695068e-01,-3.051757812500000000e-05,1.147436701209869625e-09,1.190749543411584455e-08,-1.434277801308780909e-04,1.000125990913147689e-07,-3.964957784319267375e-08,6.121175247244536877e-04,-1.313553184445481747e-06,1.500742882853955962e-06,1.328194221272838149e-09,0.000000000000000000e+00,1.352706894977018237e-04,1.000000000000000000e+00
7.946169376373291016e-01,6.393710327148437500e+02,1.420507049560546875e+02,1.420507049560546875e+02,-3.415094397496432066e-05,2.267371118068695068e-01,-3.051757812500000000e-05,1.147436701209869625e-09,1.190749543411584455e-08,-1.434277801308780909e-04,1.000125990913147689e-07,-3.964957784319267375e-08,6.121175247244536877e-04,-1.313553184445481747e-06,1.500742882853955962e-06,1.328194221272838149e-09,0.000000000000000000e+00,1.352706894977018237e-04,1.000000000000000000e+00
7.946169376373291016e-01,6.393710327148437500e+02,1.420507049560546875e+02,1.420507049560546875e+02,-3.415094397496432066e-05,2.267371118068695068e-01,-3.051757812500000000e-05,1.147436701209869625e-09,1.190749543411584455e-08,-1.434277801308780909e-04,1.000125990913147689e-07,-3.964957784319267375e-08,6.121175247244536877e-04,-1.313553184445481747e-06,1.500742882853955962e-06,1.328194221272838149e-09,0.000000000000000000e+00,1.352706894977018237e-04,1.000000000000000000e+00
8.783230781555175781e-01,6.393710327148437500e+02,1.420507049560546875e+02,1.420507049560546875e+02,-3.415094397496432066e-05,2.267371118068695068e-01,-3.051757812500000000e-05,3.227373701619740132e-09,-1.210451916477950363e-08,-8.034320489969104528e-05,2.484808270253324736e-08,-2.868608532935468247e-07,7.536433404311537743e-04,-2.029911911449744366e-06,2.085409505525603890e-06,-1.454043219162315381e-09,0.000000000000000000e+00,1.352706894977018237e-04,1.000000000000000000e+00
8.783230781555175781e-01,6.393710327148437500e+02,1.420507049560546875e+02,1.420507049560546875e+02,-3.415094397496432066e-05,2.267371118068695068e-01,-3.051757812500000000e-05,3.227373701619740132e-09,-1.210451916477950363e-08,-8.034320489969104528e-05,2.484808270253324736e-08,-2.868608532935468247e-07,7.536433404311537743e-04,-2.029911911449744366e-06,2.085409505525603890e-06,-1.454043219162315381e-09,0.000000000000000000e+00,1.352706894977018237e-04,1.000000000000000000e+00
8.783230781555175781e-01,6.393710327148437500e+02,1.420507049560546875e+02,1.420507049560546875e+02,-3.415094397496432066e-05,2.267371118068695068e-01,-3.051757812500000000e-05,3.227373701619740132e-09,-1.210451916477950363e-08,-8.034320489969104528e-05,2.484808270253324736e-08,-2.868608532935468247e-07,7.536433404311537743e-04,-2.029911911449744366e-06,2.085409505525603890e-06,-1.454043219162315381e-09,0.000000000000000000e+00,1.352706894977018237e-04,1.000000000000000000e+00
9.483780860900878906e-01,6.393710327148437500e+02,1.420507049560546875e+02,1.420507049560546875e+02,-3.415094397496432066e-05,2.267371118068695068e-01,-3.051757812500000000e-05,-1.189073195462242438e-08,1.968969876031678723e-08,1.528383581899106503e-03,-2.158033538535164553e-07,4.538464679626486031e-07,2.296376600861549377e-02,-2.552638397901318967e-05,-9.940296877175569534e-06,-1.020644402327519629e-10,0.000000000000000000e+00,1.352706894977018237e-04,1.000000000000000000e+00
9.483780860900878906e-01,6.393710327148437500e+02,1.420507049560546875e+02,1.420507049560546875e+02,-3.415094397496432066e-05,2.267371118068695068e-01,-3.051757812500000000e-05,-1.189073195462242438e-08,1.968969876031678723e-08,1.528383581899106503e-03,-2.158033538535164553e-07,4.538464679626486031e-07,2.296376600861549377e-02,-2.552638397901318967e-05,-9.940296877175569534e-06,-1.020644402327519629e-10,0.000000000000000000e+00,1.352706894977018237e-04,1.000000000000000000e+00
9.483780860900878906e-01,6.393710327148437500e+02,1.420507049560546875e+02,1.420507049560546875e+02,-3.415094397496432066e-05,2.267371118068695068e-01,-3.051757812500000000e-05,-1.189073195462242438e-08,1.968969876031678723e-08,1.528383581899106503e-03,-2.158033538535164553e-07,4.538464679626486031e-07,2.296376600861549377e-02,-2.552638397901318967e-05,-9.940296877175569534e-06,-1.020644402327519629e-10,0.000000000000000000e+00,1.352706894977018237e-04,1.000000000000000000e+00
9.483780860900878906e-01,6.393710327148437500e+02,1.420507049560546875e+02,1.420507049560546875e+02,-3.415094397496432066e-05,2.267371118068695068e-01,-3.051757812500000000e-05,-1.189073195462242438e-08,1.968969876031678723e-08,1.528383581899106503e-03,-2.158033538535164553e-07,4.538464679626486031e-07,2.296376600861549377e-02,-2.552638397901318967e-05,-9.940296877175569534e-06,-1.020644402327519629e-10,0.000000000000000000e+00,1.352706894977018237e-04,1.000000000000000000e+00
9.483780860900878906e-01,6.393710327148437500e+02,1.420507049560546875e+02,1.420507049560546875e+02,-3.415094397496432066e-05,2.267371118068695068e-01,-3.051757812500000000e-05,0.000000000000000000e+00,0.000000000000000000e+00,0.000000000000000000e+00,1.508995097765364335e-07,-2.498724143151775934e-07,-1.939597353339195251e-02,0.000000000000000000e+00,0.000000000000000000e+00,0.000000000000000000e+00,0.000000000000000000e+00,1.352706894977018237e-04,1.000000000000000000e+00
1.027177095413208008e+00,6.393710327148437500e+02,1.420507049560546875e+02,1.420507049560546875e+02,-3.415094397496432066e-05,2.267371118068695068e-01,-3.051757812500000000e-05,0.000000000000000000e+00,0.000000000000000000e+00,0.000000000000000000e+00,1.508995097765364335e-07,-2.498724143151775934e-07,-1.939597353339195251e-02,0.000000000000000000e+00,0.000000000000000000e+00,0.000000000000000000e+00,0.000000000000000000e+00,1.352706894977018237e-04,1.000000000000000000e+00
1.027177095413208008e+00,6.393710327148437500e+02,1.420507049560546875e+02,1.420507049560546875e+02,-3.415094397496432066e-05,2.267371118068695068e-01,-3.051757812500000000e-05,0.000000000000000000e+00,0.000000000000000000e+00,0.000000000000000000e+00,1.508995097765364335e-07,-2.498724143151775934e-07,-1.939597353339195251e-02,0.000000000000000000e+00,0.000000000000000000e+00,0.000000000000000000e+00,0.000000000000000000e+00,1.352706894977018237e-04,1.000000000000000000e+00
1.095043420791625977e+00,6.393710327148437500e+02,1.420507049560546875e+02,1.420507049560546875e+02,-3.415094397496432066e-05,2.267371118068695068e-01,-3.051757812500000000e-05,1.536471927465754561e-08,-6.098187554925971199e-08,-1.341236406005918980e-03,2.263968070792543585e-07,-8.985586532617162447e-07,-1.976291462779045105e-02,4.244129013386555016e-05,1.170474388345610350e-05,-3.094452916130308040e-09,0.000000000000000000e+00,1.352706894977018237e-04,1.000000000000000000e+00
1.095043420791625977e+00,6.393710327148437500e+02,1.420507049560546875e+02,1.420507049560546875e+02,-3.415094397496432066e-05,2.267371118068695068e-01,-3.051757812500000000e-05,1.536471927465754561e-08,-6.098187554925971199e-08,-1.341236406005918980e-03,2.263968070792543585e-07,-8.985586532617162447e-07,-1.976291462779045105e-02,4.244129013386555016e-05,1.170474388345610350e-05,-3.094452916130308040e-09,0.000000000000000000e+00,1.352706894977018237e-04,1.000000000000000000e+00
1.095043420791625977e+00,6.393710327148437500e+02,1.420507049560546875e+02,1.420507049560546875e+02,-3.415094397496432066e-05,2.267371118068695068e-01,-3.051757812500000000e-05,1.536471927465754561e-08,-6.098187554925971199e-08,-1.341236406005918980e-03,2.263968070792543585e-07,-8.985586532617162447e-07,-1.976291462779045105e-02,4.244129013386555016e-05,1.170474388345610350e-05,-3.094452916130308040e-09,0.000000000000000000e+00,1.352706894977018237e-04,1.000000000000000000e+00
1.095043420791625977e+00,6.393710327148437500e+02,1.420507049560546875e+02,1.420507049560546875e+02,-3.415094397496432066e-05,2.267371118068695068e-01,-3.051757812500000000e-05,1.536471927465754561e-08,-6.098187554925971199e-08,-1.341236406005918980e-03,2.263968070792543585e-07,-8.985586532617162447e-07,-1.976291462779045105e-02,4.244129013386555016e-05,1.170474388345610350e-05,-3.094452916130308040e-09,0.000000000000000000e+00,1.352706894977018237e-04,1.000000000000000000e+00
1.168572425842285156e+00,6.393710327148437500e+02,1.420507049560546875e+02,1.420507049560546875e+02,-3.415094397496432066e-05,2.267371118068695068e-01,-3.051757812500000000e-05,-3.117740732250240399e-09,-3.143812676853485755e-08,9.126854711212217808e-04,-2.513628487577079795e-07,4.017971946268517058e-07,3.065350651741027832e-02,1.232419253938132897e-05,-2.639940021254005842e-06,-5.470940922513989335e-10,0.000000000000000000e+00,1.352706894977018237e-04,1.000000000000000000e+00
1.168572425842285156e+00,6.393710327148437500e+02,1.420507049560546875e+02,1.420507049560546875e+02,-3.415094397496432066e-05,2.267371118068695068e-01,-3.051757812500000000e-05,-3.117740732250240399e-09,-3.143812676853485755e-08,9.126854711212217808e-04,-2.513628487577079795e-07,4.017971946268517058e-07,3.065350651741027832e-02,1.232419253938132897e-05,-2.639940021254005842e-06,-5.470940922513989335e-10,0.000000000000000000e+00,1.352706894977018237e-04,1.000000000000000000e+00
1.168572425842285156e+00,6.393710327148437500e+02,1.420507049560546875e+02,1.420507049560546875e+02,-3.415094397496432066e-05,2.267371118068695068e-01,-3.051757812500000000e-05,-3.117740732250240399e-09,-3.143812676853485755e-08,9.126854711212217808e-04,-2.513628487577079795e-07,4.017971946268517058e-07,3.065350651741027832e-02,1.232419253938132897e-05,-2.639940021254005842e-06,-5.470940922513989335e-10,0.000000000000000000e+00,1.352706894977018237e-04,1.000000000000000000e+00
1.168572425842285156e+00,6.393710327148437500e+02,1.420507049560546875e+02,1.420507049560546875e+02,-3.415094397496432066e-05,2.267371118068695068e-01,-3.051757812500000000e-05,-3.117740732250240399e-09,-3.143812676853485755e-08,9.126854711212217808e-04,-2.513628487577079795e-07,4.017971946268517058e-07,3.065350651741027832e-02,1.232419253938132897e-05,-2.639940021254005842e-06,-5.470940922513989335e-10,0.000000000000000000e+00,1.352706894977018237e-04,1.000000000000000000e+00
1.168572425842285156e+00,6.393710327148437500e+02,1.420507049560546875e+02,1.420507049560546875e+02,-3.415094397496432066e-05,2.267371118068695068e-01,-3.051757812500000000e-05,2.670429033457821788e-08,-1.179829212105687475e-08,-5.283246282488107681e-04,3.973704281179379905e-07,2.616954191125842044e-07,-1.920106448233127594e-02,1.470519237045664340e-05,2.119044802384451032e-05,-3.051997099490222354e-09,0.000000000000000000e+00,1.352706894977018237e-04,1.000000000000000000e+00
1.243620872497558594e+00,6.393710327148437500e+02,1.420507049560546875e+02,1.420507049560546875e+02,-3.415094397496432066e-05,2.267371118068695068e-01,-3.051757812500000000e-05,2.670429033457821788e-08,-1.179829212105687475e-08,-5.283246282488107681e-04,3.973704281179379905e-07,2.616954191125842044e-07,-1.920106448233127594e-02,1.470519237045664340e-05,2.119044802384451032e-05,-3.051997099490222354e-09,0.000000000000000000e+00,1.352706894977018237e-04,1.000000000000000000e+00
1.243620872497558594e+00,6.393710327148437500e+02,1.420507049560546875e+02,1.420507049560546875e+02,-3.415094397496432066e-05,2.267371118068695068e-01,-3.051757812500000000e-05,2.670429033457821788e-08,-1.179829212105687475e-08,-5.283246282488107681e-04,3.973704281179379905e-07,2.616954191125842044e-07,-1.920106448233127594e-02,1.470519237045664340e-05,2.119044802384451032e-05,-3.051997099490222354e-09,0.000000000000000000e+00,1.352706894977018237e-04,1.000000000000000000e+00
1.243620872497558594e+00,6.393710327148437500e+02,1.420507049560546875e+02,1.420507049560546875e+02,-3.415094397496432066e-05,2.267371118068695068e-01,-3.051757812500000000e-05,-2.495411521863388771e-08,1.545072692010762694e-08,-4.904487868770956993e-04,-7.549961082986555994e-07,3.982489147347223479e-07,5.535617237910628319e-04,-8.105978849926032126e-06,-1.914605309139005840e-05,4.679288068132336775e-09,0.000000000000000000e+00,1.352706894977018237e-04,1.000000000000000000e+00
1.312042951583862305e+00,6.393710327148437500e+02,1.420507049560546875e+02,1.420507049560546875e+02,-3.415094397496432066e-05,2.267371118068695068e-01,-3.051757812500000000e-05,-2.495411521863388771e-08,1.545072692010762694e-08,-4.904487868770956993e-04,-7.549961082986555994e-07,3.982489147347223479e-07,5.535617237910628319e-04,-8.105978849926032126e-06,-1.914605309139005840e-05,4.679288068132336775e-09,0.000000000000000000e+00,1.352706894977018237e-04,1.000000000000000000e+00
1.312042951583862305e+00,6.393710327148437500e+02,1.420507049560546875e+02,1.420507049560546875e+02,-3.415094397496432066e-05,2.267371118068695068e-01,-3.051757812500000000e-05,-2.495411521863388771e-08,1.545072692010762694e-08,-4.904487868770956993e-04,-7.549961082986555994e-07,3.982489147347223479e-07,5.535617237910628319e-04,-8.105978849926032126e-06,-1.914605309139005840e-05,4.679288068132336775e-09,0.000000000000000000e+00,1.352706894977018237e-04,1.000000000000000000e+00
1.383129358291625977e+00,6.393710327148437500e+02,1.420507049560546875e+02,1.420507049560546875e+02,-3.415094397496432066e-05,2.267371118068695068e-01,-3.051757812500000000e-05,2.384184583092974208e-08,-1.018595607860106611e-08,6.690921727567911148e-04,6.864316333121678326e-07,-3.606411382861551829e-07,1.631171070039272308e-02,1.963634167623240501e-05,1.985737617360427976e-05,-3.783043045491041312e-10,0.000000000000000000e+00,1.352706894977018237e-04,1.000000000000000000e+00
1.383129358291625977e+00,6.393710327148437500e+02,1.420507049560546875e+02,1.420507049560546875e+02,-3.415094397496432066e-05,2.267371118068695068e-01,-3.051757812500000000e-05,2.384184583092974208e-08,-1.018595607860106611e-08,6.690921727567911148e-04,6.864316333121678326e-07,-3.606411382861551829e-07,1.631171070039272308e-02,1.963634167623240501e-05,1.985737617360427976e-05,-3.783043045491041312e-10,0.000000000000000000e+00,1.352706894977018237e-04,1.000000000000000000e+00
1.383129358291625977e+00,6.393710327148437500e+02,1.420507049560546875e+02,1.420507049560546875e+02,-3.415094397496432066e-05,2.267371118068695068e-01,-3.051757812500000000e-05,2.384184583092974208e-08,-1.018595607860106611e-08,6.690921727567911148e-04,6.864316333121678326e-07,-3.606411382861551829e-07,1.631171070039272308e-02,1.963634167623240501e-05,1.985737617360427976e-05,-3.783043045491041312e-10,0.000000000000000000e+00,1.352706894977018237e-04,1.000000000000000000e+00
1.450951814651489258e+00,6.393710327148437500e+02,1.420507049560546875e+02,1.420507049560546875e+02,-3.415094397496432066e-05,2.267371118068695068e-01,-3.051757812500000000e-05,-3.433646145190039078e-10,-6.479061037678590651e-11,-5.283558130031451583e-05,-3.565959048046352109e-07,1.492303027816888061e-07,-1.064437627792358398e-02,5.272307745940452151e-08,-2.745629217315581627e-07,3.447254981470138091e-11,0.000000000000000000e+00,1.352706894977018237e-04,1.000000000000000000e+00
1.450951814651489258e+00,6.393710327148437500e+02,1.420507049560546875e+02,1.420507049560546875e+02,-3.415094397496432066e-05,2.267371118068695068e-01,-3.051757812500000000e-05,-3.433646145190039078e-10,-6.479061037678590651e-11,-5.283558130031451583e-05,-3.565959048046352109e-07,1.492303027816888061e-07,-1.064437627792358398e-02,5.272307745940452151e-08,-2.745629217315581627e-07,3.447254981470138091e-11,0.000000000000000000e+00,1.352706894977018237e-04,1.000000000000000000e+00
1.450951814651489258e+00,6.393710327148437500e+02,1.420507049560546875e+02,1.420507049560546875e+02,-3.415094397496432066e-05,2.267371118068695068e-01,-3.051757812500000000e-05,-3.433646145190039078e-10,-6.479061037678590651e-11,-5.283558130031451583e-05,-3.565959048046352109e-07,1.492303027816888061e-07,-1.064437627792358398e-02,5.272307745940452151e-08,-2.745629217315581627e-07,3.447254981470138091e-11,0.000000000000000000e+00,1.352706894977018237e-04,1.000000000000000000e+00
1.527701377868652344e+00,6.393710327148437500e+02,1.420507049560546875e+02,1.420507049560546875e+02,-3.415094397496432066e-05,2.267371118068695068e-01,-3.051757812500000000e-05,1.476597955019087749e-08,-1.887243605835919880e-08,3.133730206172913313e-04,1.968655567452515243e-07,-2.450521492391999345e-07,4.771474748849868774e-03,2.379174657107796520e-05,1.229630834131967276e-05,-1.516265724088583511e-10,0.000000000000000000e+00,1.352706894977018237e-04,1.000000000000000000e+00
1.527701377868652344e+00,6.393710327148437500e+02,1.420507049560546875e+02,1.420507049560546875e+02,-3.415094397496432066e-05,2.267371118068695068e-01,-3.051757812500000000e-05,1.476597955019087749e-08,-1.887243605835919880e-08,3.133730206172913313e-04,1.968655567452515243e-07,-2.450521492391999345e-07,4.771474748849868774e-03,2.379174657107796520e-05,1.229630834131967276e-05,-1.516265724088583511e-10,0.000000000000000000e+00,1.352706894977018237e-04,1.000000000000000000e+00
1.527701377868652344e+00,6.393710327148437500e+02,1.420507049560546875e+02,1.420507049560546875e+02,-3.415094397496432066e-05,2.267371118068695068e-01,-3.051757812500000000e-05,1.476597955019087749e-08,-1.887243605835919880e-08,3.133730206172913313e-04,1.968655567452515243e-07,-2.450521492391999345e-07,4.771474748849868774e-03,2.379174657107796520e-05,1.229630834131967276e-05,-1.516265724088583511e-10,0.000000000000000000e+00,1.352706894977018237e-04,1.000000000000000000e+00
1.600134611129760742e+00,6.393710327148437500e+02,1.420507049560546875e+02,1.420507049560546875e+02,-3.415094397496432066e-05,2.267371118068695068e-01,-3.051757812500000000e-05,-1.943095817580342555e-08,4.178280832434211334e-08,-1.104814698919653893e-03,-4.721166817489574896e-07,8.373952482543245424e-07,-1.957924105226993561e-02,-2.398172000539489090e-05,-1.504464307799935341e-05,3.242287549554134785e-09,0.000000000000000000e+00,1.352706894977018237e-04,1.000000000000000000e+00
1.600134611129760742e+00,6.393710327148437500e+02,1.420507049560546875e+02,1.420507049560546875e+02,-3.415094397496432066e-05,2.267371118068695068e-01,-3.051757812500000000e-05,-1.943095817580342555e-08,4.178280832434211334e-08,-1.104814698919653893e-03,-4.721166817489574896e-07,8.373952482543245424e-07,-1.957924105226993561e-02,-2.398172000539489090e-05,-1.504464307799935341e-05,3.242287549554134785e-09,0.000000000000000000e+00,1.352706894977018237e-04,1.000000000000000000e+00
1.600134611129760742e+00,6.393710327148437500e+02,1.420507049560546875e+02,1.420507049560546875e+02,-3.415094397496432066e-05,2.267371118068695068e-01,-3.051757812500000000e-05,-1.943095817580342555e-08,4.178280832434211334e-08,-1.104814698919653893e-03,-4.721166817489574896e-07,8.373952482543245424e-07,-1.957924105226993561e-02,-2.398172000539489090e-05,-1.504464307799935341e-05,3.242287549554134785e-09,0.000000000000000000e+00,1.352706894977018237e-04,1.000000000000000000e+00
1.600134611129760742e+00,6.393710327148437500e+02,1.420507049560546875e+02,1.420507049560546875e+02,-3.415094397496432066e-05,2.267371118068695068e-01,-3.051757812500000000e-05,-1.943095817580342555e-08,4.178280832434211334e-08,-1.104814698919653893e-03,-4.721166817489574896e-07,8.373952482543245424e-07,-1.957924105226993561e-02,-2.398172000539489090e-05,-1.504464307799935341e-05,3.242287549554134785e-09,0.000000000000000000e+00,1.352706894977018237e-04,1.000000000000000000e+00
1.600134611129760742e+00,6.393710327148437500e+02,1.420507049560546875e+02,1.420507049560546875e+02,-3.415094397496432066e-05,2.267371118068695068e-01,-3.051757812500000000e-05,-1.943095817580342555e-08,4.178280832434211334e-08,-1.104814698919653893e-03,-4.721166817489574896e-07,8.373952482543245424e-07,-1.957924105226993561e-02,-2.398172000539489090e-05,-1.504464307799935341e-05,3.242287549554134785e-09,0.000000000000000000e+00,1.352706894977018237e-04,1.000000000000000000e+00
1.600134611129760742e+00,6.393710327148437500e+02,1.420507049560546875e+02,1.420507049560546875e+02,-3.415094397496432066e-05,2.267371118068695068e-01,-3.051757812500000000e-05,1.443038843973454277e-08,-4.089840643928255304e-08,1.845950610004365444e-04,2.934796441422804492e-07,-7.166062232499825768e-07,1.117544248700141907e-02,2.366531771258451045e-05,1.090307341655716300e-05,-3.469904363839759753e-09,0.000000000000000000e+00,1.352706894977018237e-04,1.000000000000000000e+00
1.715513467788696289e+00,6.393710327148437500e+02,1.420507049560546875e+02,1.420507049560546875e+02,-3.415094397496432066e-05,2.267371118068695068e-01,-3.051757812500000000e-05,1.443038843973454277e-08,-4.089840643928255304e-08,1.845950610004365444e-04,2.934796441422804492e-07,-7.166062232499825768e-07,1.117544248700141907e-02,2.366531771258451045e-05,1.090307341655716300e-05,-3.469904363839759753e-09,0.000000000000000000e+00,1.352706894977018237e-04,1.000000000000000000e+00
1.715513467788696289e+00,6.393710327148437500e+02,1.420507049560546875e+02,1.420507049560546875e+02,-3.415094397496432066e-05,2.267371118068695068e-01,-3.051757812500000000e-05,1.443038843973454277e-08,-4.089840643928255304e-08,1.845950610004365444e-04,2.934796441422804492e-07,-7.166062232499825768e-07,1.117544248700141907e-02,2.366531771258451045e-05,1.090307341655716300e-05,-3.469904363839759753e-09,0.000000000000000000e+00,1.352706894977018237e-04,1.000000000000000000e+00
1.715513467788696289e+00,6.393710327148437500e+02,1.420507049560546875e+02,1.420507049560546875e+02,-3.415094397496432066e-05,2.267371118068695068e-01,-3.051757812500000000e-05,1.634053070631580340e-08,-4.246988183354005741e-08,-9.607620886527001858e-04,1.957079831527153146e-08,-1.610091082682174601e-08,-1.173501834273338318e-02,2.387328459008131176e-05,1.246047213498968631e-05,-2.905001128539197452e-09,0.000000000000000000e+00,1.352706894977018237e-04,1.000000000000000000e+00
1.813115119934082031e+00,6.393710327148437500e+02,1.420507049560546875e+02,1.420507049560546875e+02,-3.415094397496432066e-05,2.267371118068695068e-01,-3.051757812500000000e-05,1.634053070631580340e-08,-4.246988183354005741e-08,-9.607620886527001858e-04,1.957079831527153146e-08,-1.610091082682174601e-08,-1.173501834273338318e-02,2.387328459008131176e-05,1.246047213498968631e-05,-2.905001128539197452e-09,0.000000000000000000e+00,1.352706894977018237e-04,1.000000000000000000e+00
1.813115119934082031e+00,6.393710327148437500e+02,1.420507049560546875e+02,1.420507049560546875e+02,-3.415094397496432066e-05,2.267371118068695068e-01,-3.051757812500000000e-05,1.634053070631580340e-08,-4.246988183354005741e-08,-9.607620886527001858e-04,1.957079831527153146e-08,-1.610091082682174601e-08,-1.173501834273338318e-02,2.387328459008131176e-05,1.246047213498968631e-05,-2.905001128539197452e-09,0.000000000000000000e+00,1.352706894977018237e-04,1.000000000000000000e+00
1.813115119934082031e+00,6.393710327148437500e+02,1.420507049560546875e+02,1.420507049560546875e+02,-3.415094397496432066e-05,2.267371118068695068e-01,-3.051757812500000000e-05,1.634053070631580340e-08,-4.246988183354005741e-08,-9.607620886527001858e-04,1.957079831527153146e-08,-1.610091082682174601e-08,-1.173501834273338318e-02,2.387328459008131176e-05,1.246047213498968631e-05,-2.905001128539197452e-09,0.000000000000000000e+00,1.352706894977018237e-04,1.000000000000000000e+00
1.896134853363037109e+00,6.393710327148437500e+02,1.420507049560546875e+02,1.420507049560546875e+02,-3.415094397496432066e-05,2.267371118068695068e-01,-3.051757812500000000e-05,0.000000000000000000e+00,0.000000000000000000e+00,0.000000000000000000e+00,-1.968270737506827572e-07,5.115637122798943892e-07,1.157269533723592758e-02,0.000000000000000000e+00,0.000000000000000000e+00,0.000000000000000000e+00,0.000000000000000000e+00,1.352706894977018237e-04,1.000000000000000000e+00
1.896134853363037109e+00,6.393710327148437500e+02,1.420507049560546875e+02,1.420507049560546875e+02,-3.415094397496432066e-05,2.267371118068695068e-01,-3.051757812500000000e-05,0.000000000000000000e+00,0.000000000000000000e+00,0.000000000000000000e+00,-1.968270737506827572e-07,5.115637122798943892e-07,1.157269533723592758e-02,0.000000000000000000e+00,0.000000000000000000e+00,0.000000000000000000e+00,0.000000000000000000e+00,1.352706894977018237e-04,1.000000000000000000e+00
1.896134853363037109e+00,6.393710327148437500e+02,1.420507049560546875e+02,1.420507049560546875e+02,-3.415094397496432066e-05,2.267371118068695068e-01,-3.051757812500000000e-05,0.000000000000000000e+00,0.000000000000000000e+00,0.000000000000000000e+00,-1.968270737506827572e-07,5.115637122798943892e-07,1.157269533723592758e-02,0.000000000000000000e+00,0.000000000000000000e+00,0.000000000000000000e+00,0.000000000000000000e+00,1.352706894977018237e-04,1.000000000000000000e+00
1.896134853363037109e+00,6.393710327148437500e+02,1.420507049560546875e+02,1.420507049560546875e+02,-3.415094397496432066e-05,2.267371118068695068e-01,-3.051757812500000000e-05,0.000000000000000000e+00,0.000000000000000000e+00,0.000000000000000000e+00,-1.968270737506827572e-07,5.115637122798943892e-07,1.157269533723592758e-02,0.000000000000000000e+00,0.000000000000000000e+00,0.000000000000000000e+00,0.000000000000000000e+00,1.352706894977018237e-04,1.000000000000000000e+00
1.896134853363037109e+00,6.393710327148437500e+02,1.420507049560546875e+02,1.420507049560546875e+02,-3.415094397496432066e-05,2.267371118068695068e-01,-3.051757812500000000e-05,0.000000000000000000e+00,0.000000000000000000e+00,0.000000000000000000e+00,-1.968270737506827572e-07,5.115637122798943892e-07,1.157269533723592758e-02,0.000000000000000000e+00,0.000000000000000000e+00,0.000000000000000000e+00,0.000000000000000000e+00,1.352706894977018237e-04,1.000000000000000000e+00
1.896134853363037109e+00,6.393710327148437500e+02,1.420507049560546875e+02,1.420507049560546875e+02,-3.415094397496432066e-05,2.267371118068695068e-01,-3.051757812500000000e-05,0.000000000000000000e+00,0.000000000000000000e+00,0.000000000000000000e+00,-1.968270737506827572e-07,5.115637122798943892e-07,1.157269533723592758e-02,0.000000000000000000e+00,0.000000000000000000e+00,0.000000000000000000e+00,0.000000000000000000e+00,1.352706894977018237e-04,1.000000000000000000e+00
1.896134853363037109e+00,6.393710327148437500e+02,1.420507049560546875e+02,1.420507049560546875e+02,-3.415094397496432066e-05,2.267371118068695068e-01,-3.051757812500000000e-05,0.000000000000000000e+00,0.000000000000000000e+00,0.000000000000000000e+00,-1.968270737506827572e-07,5.115637122798943892e-07,1.157269533723592758e-02,0.000000000000000000e+00,0.000000000000000000e+00,0.000000000000000000e+00,0.000000000000000000e+00,1.352706894977018237e-04,1.000000000000000000e+00
1.896134853363037109e+00,6.393710327148437500e+02,1.420507049560546875e+02,1.420507049560546875e+02,-3.415094397496432066e-05,2.267371118068695068e-01,-3.051757812500000000e-05,0.000000000000000000e+00,0.000000000000000000e+00,0.000000000000000000e+00,-1.968270737506827572e-07,5.115637122798943892e-07,1.157269533723592758e-02,0.000000000000000000e+00,0.000000000000000000e+00,0.000000000000000000e+00,0.000000000000000000e+00,1.352706894977018237e-04,1.000000000000000000e+00
2.195794820785522461e+00,6.393710327148437500e+02,1.420507049560546875e+02,1.420507049560546875e+02,-3.415094397496432066e-05,2.267371118068695068e-01,-3.051757812500000000e-05,1.184062625725346152e-08,-2.006112254093750380e-08,1.379622030071914196e-03,5.627656207707332214e-08,-4.354400573447492206e-07,2.247961238026618958e-02,7.854438081267289817e-06,9.248627065971959382e-06,-1.867374921360465123e-09,0.000000000000000000e+00,1.352706894977018237e-04,1.000000000000000000e+00
2.195794820785522461e+00,6.393710327148437500e+02,1.420507049560546875e+02,1.420507049560546875e+02,-3.415094397496432066e-05,2.267371118068695068e-01,-3.051757812500000000e-05,1.184062625725346152e-08,-2.006112254093750380e-08,1.379622030071914196e-03,5.627656207707332214e-08,-4.354400573447492206e-07,2.247961238026618958e-02,7.854438081267289817e-06,9.248627065971959382e-06,-1.867374921360465123e-09,0.000000000000000000e+00,1.352706894977018237e-04,1.000000000000000000e+00
2.195794820785522461e+00,6.393710327148437500e+02,1.420507049560546875e+02,1.420507049560546875e+02,-3.415094397496432066e-05,2.267371118068695068e-01,-3.051757812500000000e-05,1.184062625725346152e-08,-2.006112254093750380e-08,1.379622030071914196e-03,5.627656207707332214e-08,-4.354400573447492206e-07,2.247961238026618958e-02,7.854438081267289817e-06,9.248627065971959382e-06,-1.867374921360465123e-09,0.000000000000000000e+00,1.352706894977018237e-04,1.000000000000000000e+00
2.195794820785522461e+00,6.393710327148437500e+02,1.420507049560546875e+02,1.420507049560546875e+02,-3.415094397496432066e-05,2.267371118068695068e-01,-3.051757812500000000e-05,1.184062625725346152e-08,-2.006112254093750380e-08,1.379622030071914196e-03,5.627656207707332214e-08,-4.354400573447492206e-07,2.247961238026618958e-02,7.854438081267289817e-06,9.248627065971959382e-06,-1.867374921360465123e-09,0.000000000000000000e+00,1.352706894977018237e-04,1.000000000000000000e+00
2.195794820785522461e+00,6.393710327148437500e+02,1.420507049560546875e+02,1.420507049560546875e+02,-3.415094397496432066e-05,2.267371118068695068e-01,-3.051757812500000000e-05,1.184062625725346152e-08,-2.006112254093750380e-08,1.379622030071914196e-03,5.627656207707332214e-08,-4.354400573447492206e-07,2.247961238026618958e-02,7.854438081267289817e-06,9.248627065971959382e-06,-1.867374921360465123e-09,0.000000000000000000e+00,1.352706894977018237e-04,1.000000000000000000e+00
2.195794820785522461e+00,6.393710327148437500e+02,1.420507049560546875e+02,1.420507049560546875e+02,-3.415094397496432066e-05,2.267371118068695068e-01,-3.051757812500000000e-05,1.184062625725346152e-08,-2.006112254093750380e-08,1.379622030071914196e-03,5.627656207707332214e-08,-4.354400573447492206e-07,2.247961238026618958e-02,7.854438081267289817e-06,9.248627065971959382e-06,-1.867374921360465123e-09,0.000000000000000000e+00,1.352706894977018237e-04,1.000000000000000000e+00
2.195794820785522461e+00,6.393710327148437500e+02,1.420507049560546875e+02,1.420507049560546875e+02,-3.415094397496432066e-05,2.267371118068695068e-01,-3.051757812500000000e-05,1.184062625725346152e-08,-2.006112254093750380e-08,1.379622030071914196e-03,5.627656207707332214e-08,-4.354400573447492206e-07,2.247961238026618958e-02,7.854438081267289817e-06,9.248627065971959382e-06,-1.867374921360465123e-09,0.000000000000000000e+00,1.352706894977018237e-04,1.000000000000000000e+00
2.195794820785522461e+00,6.393710327148437500e+02,1.420507049560546875e+02,1.420507049560546875e+02,-3.415094397496432066e-05,2.267371118068695068e-01,-3.051757812500000000e-05,1.184062625725346152e-08,-2.006112254093750380e-08,1.379622030071914196e-03,5.627656207707332214e-08,-4.354400573447492206e-07,2.247961238026618958e-02,7.854438081267289817e-06,9.248627065971959382e-06,-1.867374921360465123e-09,0.000000000000000000e+00,1.352706894977018237e-04,1.000000000000000000e+00
2.195794820785522461e+00,6.393710327148437500e+02,1.420507049560546875e+02,1.420507049560546875e+02,-3.415094397496432066e-05,2.267371118068695068e-01,-3.051757812500000000e-05,1.184062625725346152e-08,-2.006112254093750380e-08,1.379622030071914196e-03,5.627656207707332214e-08,-4.354400573447492206e-07,2.247961238026618958e-02,7.854438081267289817e-06,9.248627065971959382e-06,-1.867374921360465123e-09,0.000000000000000000e+00,1.352706894977018237e-04,1.000000000000000000e+00
2.195794820785522461e+00,6.393710327148437500e+02,1.420507049560546875e+02,1.420507049560546875e+02,-3.415094397496432066e-05,2.267371118068695068e-01,-3.051757812500000000e-05,1.184062625725346152e-08,-2.006112254093750380e-08,1.379622030071914196e-03,5.627656207707332214e-08,-4.354400573447492206e-07,2.247961238026618958e-02,7.854438081267289817e-06,9.248627065971959382e-06,-1.867374921360465123e-09,0.000000000000000000e+00,1.352706894977018237e-04,1.000000000000000000e+00
2.374083757400512695e+00,6.393710327148437500e+02,1.420507049560546875e+02,1.420507049560546875e+02,-3.415094397496432066e-05,2.267371118068695068e-01,-3.051757812500000000e-05,1.423611806217195408e-08,-4.675421649835698190e-08,1.701596542261540890e-03,1.343600875003403416e-08,-1.497181756349164061e-07,1.805914100259542465e-03,2.229615347459912300e-05,1.074574629456037655e-05,-3.955180183368156577e-09,0.000000000000000000e+00,1.352706894977018237e-04,1.000000000000000000e+00
2.374083757400512695e+00,6.393710327148437500e+02,1.420507049560546875e+02,1.420507049560546875e+02,-3.415094397496432066e-05,2.267371118068695068e-01,-3.051757812500000000e-05,1.423611806217195408e-08,-4.675421649835698190e-08,1.701596542261540890e-03,1.343600875003403416e-08,-1.497181756349164061e-07,1.805914100259542465e-03,2.229615347459912300e-05,1.074574629456037655e-05,-3.955180183368156577e-09,0.000000000000000000e+00,1.352706894977018237e-04,1.000000000000000000e+00
2.374083757400512695e+00,6.393710327148437500e+02,1.420507049560546875e+02,1.420507049560546875e+02,-3.415094397496432066e-05,2.267371118068695068e-01,-3.051757812500000000e-05,1.423611806217195408e-08,-4.675421649835698190e-08,1.701596542261540890e-03,1.343600875003403416e-08,-1.497181756349164061e-07,1.805914100259542465e-03,2.229615347459912300e-05,1.074574629456037655e-05,-3.955180183368156577e-09,0.000000000000000000e+00,1.352706894977018237e-04,1.000000000000000000e+00
2.447860002517700195e+00,6.393710327148437500e+02,1.420507049560546875e+02,1.420507049560546875e+02,-3.415094397496432066e-05,2.267371118068695068e-01,-3.051757812500000000e-05,0.000000000000000000e+00,0.000000000000000000e+00,0.000000000000000000e+00,-1.929634407815683517e-07,6.337299396363960113e-07,-2.306428737938404083e-02,0.000000000000000000e+00,0.000000000000000000e+00,0.000000000000000000e+00,0.000000000000000000e+00,1.352706894977018237e-04,1.000000000000000000e+00
2.447860002517700195e+00,6.393710327148437500e+02,1.420507049560546875e+02,1.420507049560546875e+02,-3.415094397496432066e-05,2.267371118068695068e-01,-3.051757812500000000e-05,0.000000000000000000e+00,0.000000000000000000e+00,0.000000000000000000e+00,-1.929634407815683517e-07,6.337299396363960113e-07,-2.306428737938404083e-02,0.000000000000000000e+00,0.000000000000000000e+00,0.000000000000000000e+00,0.000000000000000000e+00,1.352706894977018237e-04,1.000000000000000000e+00
2.500878810882568359e+00,6.393710327148437500e+02,1.420507049560546875e+02,1.420507049560546875e+02,-3.415094397496432066e-05,2.267371118068695068e-01,-3.051757812500000000e-05,1.767781365735743293e-09,-1.664285065317017143e-08,1.193452160805463791e-03,3.334253406706011447e-08,-3.139046498290554155e-07,2.250997722148895264e-02,2.320719204362831078e-06,8.609156338934553787e-07,-1.820563921839379873e-09,0.000000000000000000e+00,1.352706894977018237e-04,1.000000000000000000e+00
2.500878810882568359e+00,6.393710327148437500e+02,1.420507049560546875e+02,1.420507049560546875e+02,-3.415094397496432066e-05,2.267371118068695068e-01,-3.051757812500000000e-05,1.767781365735743293e-09,-1.664285065317017143e-08,1.193452160805463791e-03,3.334253406706011447e-08,-3.139046498290554155e-07,2.250997722148895264e-02,2.320719204362831078e-06,8.609156338934553787e-07,-1.820563921839379873e-09,0.000000000000000000e+00,1.352706894977018237e-04,1.000000000000000000e+00
2.560195446014404297e+00,6.393710327148437500e+02,1.420507049560546875e+02,1.420507049560546875e+02,-3.415094397496432066e-05,2.267371118068695068e-01,-3.051757812500000000e-05,1.795998194609182974e-08,-3.164860018500803562e-08,1.651430502533912659e-03,2.729790935518394690e-07,-2.529770881665172055e-07,7.720909081399440765e-03,2.758282425929792225e-05,1.443233486497774720e-05,-1.972306096220677318e-09,0.000000000000000000e+00,1.352706894977018237e-04,1.000000000000000000e+00
2.560195446014404297e+00,6.393710327148437500e+02,1.420507049560546875e+02,1.420507049560546875e+02,-3.415094397496432066e-05,2.267371118068695068e-01,-3.051757812500000000e-05,1.795998194609182974e-08,-3.164860018500803562e-08,1.651430502533912659e-03,2.729790935518394690e-07,-2.529770881665172055e-07,7.720909081399440765e-03,2.758282425929792225e-05,1.443233486497774720e-05,-1.972306096220677318e-09,0.000000000000000000e+00,1.352706894977018237e-04,1.000000000000000000e+00
2.560195446014404297e+00,6.393710327148437500e+02,1.420507049560546875e+02,1.420507049560546875e+02,-3.415094397496432066e-05,2.267371118068695068e-01,-3.051757812500000000e-05,1.795998194609182974e-08,-3.164860018500803562e-08,1.651430502533912659e-03,2.729790935518394690e-07,-2.529770881665172055e-07,7.720909081399440765e-03,2.758282425929792225e-05,1.443233486497774720e-05,-1.972306096220677318e-09,0.000000000000000000e+00,1.352706894977018237e-04,1.000000000000000000e+00
2.618730545043945312e+00,6.393710327148437500e+02,1.420507049560546875e+02,1.420507049560546875e+02,-3.415094397496432066e-05,2.267371118068695068e-01,-3.051757812500000000e-05,1.981605457501700585e-08,-4.714881285394767474e-08,-7.149017183110117912e-04,3.170871210045334010e-08,-2.648020256401650840e-07,-4.042587056756019592e-02,2.775494067464023829e-05,1.533840986667200923e-05,-3.536909432000356901e-09,0.000000000000000000e+00,1.352706894977018237e-04,1.000000000000000000e+00
2.618730545043945312e+00,6.393710327148437500e+02,1.420507049560546875e+02,1.420507049560546875e+02,-3.415094397496432066e-05,2.267371118068695068e-01,-3.051757812500000000e-05,1.981605457501700585e-08,-4.714881285394767474e-08,-7.149017183110117912e-04,3.170871210045334010e-08,-2.648020256401650840e-07,-4.042587056756019592e-02,2.775494067464023829e-05,1.533840986667200923e-05,-3.536909432000356901e-09,0.000000000000000000e+00,1.352706894977018237e-04,1.000000000000000000e+00
2.677334070205688477e+00,6.393710327148437500e+02,1.420507049560546875e+02,1.420507049560546875e+02,-3.415094397496432066e-05,2.267371118068695068e-01,-3.051757812500000000e-05,2.059950432453661051e-08,-3.510324830813260633e-08,-4.014190635643899441e-04,1.336864574597029787e-08,2.055433441228160518e-07,5.349211394786834717e-03,2.882935950765386224e-05,1.656915810599457473e-05,-1.890364309531378240e-09,0.000000000000000000e+00,1.352706894977018237e-04,1.000000000000000000e+00
2.677334070205688477e+00,6.393710327148437500e+02,1.420507049560546875e+02,1.420507049560546875e+02,-3.415094397496432066e-05,2.267371118068695068e-01,-3.051757812500000000e-05,2.059950432453661051e-08,-3.510324830813260633e-08,-4.014190635643899441e-04,1.336864574597029787e-08,2.055433441228160518e-07,5.349211394786834717e-03,2.882935950765386224e-05,1.656915810599457473e-05,-1.890364309531378240e-09,0.000000000000000000e+00,1.352706894977018237e-04,1.000000000000000000e+00
2.677334070205688477e+00,6.393710327148437500e+02,1.420507049560546875e+02,1.420507049560546875e+02,-3.415094397496432066e-05,2.267371118068695068e-01,-3.051757812500000000e-05,2.059950432453661051e-08,-3.510324830813260633e-08,-4.014190635643899441e-04,1.336864574597029787e-08,2.055433441228160518e-07,5.349211394786834717e-03,2.882935950765386224e-05,1.656915810599457473e-05,-1.890364309531378240e-09,0.000000000000000000e+00,1.352706894977018237e-04,1.000000000000000000e+00
2.677334070205688477e+00,6.393710327148437500e+02,1.420507049560546875e+02,1.420507049560546875e+02,-3.415094397496432066e-05,2.267371118068695068e-01,-3.051757812500000000e-05,4.687640942080406603e-09,-3.842397511277795275e-09,-3.806987078860402107e-04,-2.048100355978021980e-07,4.023749795578623889e-07,2.667027001734822989e-04,5.260443231236422434e-06,3.896422640536911786e-06,-4.858906332838586195e-11,0.000000000000000000e+00,1.352706894977018237e-04,1.000000000000000000e+00
2.755024909973144531e+00,6.393710327148437500e+02,1.420507049560546875e+02,1.420507049560546875e+02,-3.415094397496432066e-05,2.267371118068695068e-01,-3.051757812500000000e-05,4.687640942080406603e-09,-3.842397511277795275e-09,-3.806987078860402107e-04,-2.048100355978021980e-07,4.023749795578623889e-07,2.667027001734822989e-04,5.260443231236422434e-06,3.896422640536911786e-06,-4.858906332838586195e-11,0.000000000000000000e+00,1.352706894977018237e-04,1.000000000000000000e+00
2.755024909973144531e+00,6.393710327148437500e+02,1.420507049560546875e+02,1.420507049560546875e+02,-3.415094397496432066e-05,2.267371118068695068e-01,-3.051757812500000000e-05,4.687640942080406603e-09,-3.842397511277795275e-09,-3.806987078860402107e-04,-2.048100355978021980e-07,4.023749795578623889e-07,2.667027001734822989e-04,5.260443231236422434e-06,3.896422640536911786e-06,-4.858906332838586195e-11,0.000000000000000000e+00,1.352706894977018237e-04,1.000000000000000000e+00
2.755024909973144531e+00,6.393710327148437500e+02,1.420507049560546875e+02,1.420507049560546875e+02,-3.415094397496432066e-05,2.267371118068695068e-01,-3.051757812500000000e-05,4.687640942080406603e-09,-3.842397511277795275e-09,-3.806987078860402107e-04,-2.048100355978021980e-07,4.023749795578623889e-07,2.667027001734822989e-04,5.260443231236422434e-06,3.896422640536911786e-06,-4.858906332838586195e-11,0.000000000000000000e+00,1.352706894977018237e-04,1.000000000000000000e+00
2.830169916152954102e+00,6.393710327148437500e+02,1.420507049560546875e+02,1.420507049560546875e+02,-3.415094397496432066e-05,2.267371118068695068e-01,-3.051757812500000000e-05,5.759909438296517692e-09,-1.391611448298135656e-08,-8.582497830502688885e-04,1.426932438874928266e-08,-1.340570321417544619e-07,-6.355060730129480362e-03,5.005817911296617240e-06,4.244245246809441596e-06,-1.530486404277553447e-09,0.000000000000000000e+00,1.352706894977018237e-04,1.000000000000000000e+00
2.830169916152954102e+00,6.393710327148437500e+02,1.420507049560546875e+02,1.420507049560546875e+02,-3.415094397496432066e-05,2.267371118068695068e-01,-3.051757812500000000e-05,5.759909438296517692e-09,-1.391611448298135656e-08,-8.582497830502688885e-04,1.426932438874928266e-08,-1.340570321417544619e-07,-6.355060730129480362e-03,5.005817911296617240e-06,4.244245246809441596e-06,-1.530486404277553447e-09,0.000000000000000000e+00,1.352706894977018237e-04,1.000000000000000000e+00
2.830169916152954102e+00,6.393710327148437500e+02,1.420507049560546875e+02,1.420507049560546875e+02,-3.415094397496432066e-05,2.267371118068695068e-01,-3.051757812500000000e-05,5.759909438296517692e-09,-1.391611448298135656e-08,-8.582497830502688885e-04,1.426932438874928266e-08,-1.340570321417544619e-07,-6.355060730129480362e-03,5.005817911296617240e-06,4.244245246809441596e-06,-1.530486404277553447e-09,0.000000000000000000e+00,1.352706894977018237e-04,1.000000000000000000e+00
2.830169916152954102e+00,6.393710327148437500e+02,1.420507049560546875e+02,1.420507049560546875e+02,-3.415094397496432066e-05,2.267371118068695068e-01,-3.051757812500000000e-05,5.759909438296517692e-09,-1.391611448298135656e-08,-8.582497830502688885e-04,1.426932438874928266e-08,-1.340570321417544619e-07,-6.355060730129480362e-03,5.005817911296617240e-06,4.244245246809441596e-06,-1.530486404277553447e-09,0.000000000000000000e+00,1.352706894977018237e-04,1.000000000000000000e+00
2.830169916152954102e+00,6.393710327148437500e+02,1.420507049560546875e+02,1.420507049560546875e+02,-3.415094397496432066e-05,2.267371118068695068e-01,-3.051757812500000000e-05,5.759909438296517692e-09,-1.391611448298135656e-08,-8.582497830502688885e-04,1.426932438874928266e-08,-1.340570321417544619e-07,-6.355060730129480362e-03,5.005817911296617240e-06,4.244245246809441596e-06,-1.530486404277553447e-09,0.000000000000000000e+00,1.352706894977018237e-04,1.000000000000000000e+00
2.917726278305053711e+00,6.393710327148437500e+02,1.420507049560546875e+02,1.420507049560546875e+02,-3.415094397496432066e-05,2.267371118068695068e-01,-3.051757812500000000e-05,1.597980059386827634e-08,-1.623778089765437471e-08,-1.275824433832895011e-05,1.167235623711349035e-07,-2.651624875227298617e-08,9.656540118157863617e-03,2.402444988547358662e-05,1.334012540610274300e-05,-2.302502806472705998e-11,0.000000000000000000e+00,1.352706894977018237e-04,1.000000000000000000e+00
